timestamp,TimeUS,ThI,ABst,ThO,ThH,DAlt,Alt,BAlt,DSAlt,SAlt,TAlt,DCRt,CRt
1685905056.56001592,35571599,0.0,0.0,0.5,0.5,0.0,-0.1376984566450119,-0.36103636026382446,0.0,0.0,0.0,0,3
1685905056.65997601,35671559,0.0,0.0,0.5,0.5,0.0,-0.13032081723213196,-0.31252551078796387,0.0,0.0,0.0,0,3
1685905056.75993586,35771519,0.0,0.0,0.5,0.5,0.0,-0.12612830102443695,-0.12909598648548126,0.0,0.0,0.0,0,3
1685905056.85989594,35871479,0.0,0.0,0.5,0.5,0.0,-0.13431128859519958,-0.14071747660636902,0.0,0.0,0.0,0,2
1685905056.95985579,35971439,0.0,0.0,0.5,0.5,0.0,-0.14500878751277924,-0.20438696444034576,0.0,0.0,0.0,0,1
1685905057.05981588,36071399,0.0,0.0,0.5,0.5,0.0,-0.1510455459356308,-0.3024936318397522,0.0,0.0,0.0,0,1
1685905057.15977597,36171359,0.0,0.0,0.5,0.5,0.0,-0.1555735170841217,-0.08356744050979614,0.0,0.0,0.0,0,1
1685905057.25973582,36271319,0.0,0.0,0.5,0.5,0.0,-0.16338235139846802,-0.2080819457769394,0.0,0.0,0.0,0,0
1685905057.35969591,36371279,0.0,0.0,0.5,0.5,0.0,-0.17191991209983826,-0.23207987844944,0.0,0.0,0.0,0,0
1685905057.45965600,36471239,0.0,0.0,0.5,0.5,0.0,-0.17530930042266846,-0.1434972882270813,0.0,0.0,0.0,0,0
1685905057.55961585,36571199,0.0,0.0,0.5,0.5,0.0,-0.1803121119737625,-0.19556361436843872,0.0,0.0,0.0,0,0
1685905057.65957594,36671159,0.0,0.0,0.5,0.5,0.0,-0.18410153687000275,-0.2984534502029419,0.0,0.0,0.0,0,0
1685905057.75953603,36771119,0.0,0.0,0.5,0.5,0.0,-0.18606504797935486,-0.0975358709692955,0.0,0.0,0.0,0,0
1685905057.85949588,36871079,0.0,0.0,0.47874999046325684,0.5,0.0,-0.19136133790016174,-0.06819674372673035,0.0,0.0,0.0,0,0
1685905057.95945597,36971039,0.0,0.0,0.25,0.5,0.0,-0.19935885071754456,-0.38500240445137024,0.0,0.0,0.0,0,-13
1685905058.05941582,37070999,0.0,0.0,0.25,0.5,0.0,-0.2195114642381668,-0.43697306513786316,0.0,0.0,0.0,0,-33
1685905058.15937591,37170959,0.0,0.0,0.25,0.5,0.0,-0.2605228126049042,-0.2546364665031433,0.0,0.0,0.0,0,-47
1685905058.25933599,37270919,0.0,0.0,0.25,0.5,0.0,-0.32455623149871826,-0.16400431096553802,0.0,0.0,0.0,0,-55
1685905058.35929585,37370879,0.0,0.0,0.25,0.5,0.0,-0.3970669209957123,-0.36425623297691345,0.0,0.0,0.0,0,-60
1685905058.45925593,37470839,0.0,0.0,0.25,0.5,0.0,-0.463836133480072,-0.5391470193862915,0.0,0.0,0.0,0,-62
1685905058.55921602,37570799,0.0,0.0,0.25,0.5,0.0,-0.5263639688491821,-0.5098931789398193,0.0,0.0,0.0,0,-62
1685905058.66000891,37671592,0.0,0.0,0.25,0.5,0.0,-0.5935275554656982,-0.45659199357032776,0.0,0.0,0.0,0,-63
1685905058.75996900,37771552,0.0,0.0,0.25,0.5,0.0,-0.6631561517715454,-0.7799904346466064,0.0,0.0,0.0,0,-64
1685905058.85992885,37871512,0.0,0.0,0.25,0.5,0.0,-0.7286125421524048,-0.5242546200752258,0.0,0.0,0.0,0,-64
1685905058.95988894,37971472,0.0,0.0,0.25,0.5,0.0,-0.7946144342422485,-0.7243136167526245,0.0,0.0,0.0,0,-64
1685905059.05984902,38071432,0.0,0.0,0.25,0.5,0.0,-0.8611305356025696,-0.8609765768051147,0.0,0.0,0.0,0,-64
1685905059.15980887,38171392,0.0,0.0,0.25,0.5,0.0,-0.9203957915306091,-0.872065544128418,0.0,0.0,0.0,0,-64
1685905059.25976896,38271352,0.0,0.0,0.25,0.5,0.0,-0.9810903668403625,-0.864237904548645,0.0,0.0,0.0,0,-64
1685905059.35972881,38371312,0.0,0.0,0.25,0.5,0.0,-1.0441629886627197,-0.9746922850608826,0.0,0.0,0.0,0,-64
1685905059.45968890,38471272,0.0,0.0,0.25,0.5,0.0,-1.1059324741363525,-1.090404987335205,0.0,0.0,0.0,0,-63
1685905059.55964899,38571232,0.0,0.0,0.25,0.5,0.0,-1.1645711660385132,-0.9441134929656982,0.0,0.0,0.0,0,-63
1685905059.65960884,38671192,0.0,0.0,0.25,0.5,0.0,-1.2244616746902466,-1.2113902568817139,0.0,0.0,0.0,0,-63
1685905059.75956893,38771152,0.0,0.0,0.25,0.5,0.0,-1.2822307348251343,-1.3709216117858887,0.0,0.0,0.0,0,-63
1685905059.85952902,38871112,0.0,0.0,0.25,0.5,0.0,-1.3360079526901245,-1.1178611516952515,0.0,0.0,0.0,0,-62
1685905059.95948887,38971072,0.0,0.0,0.25,0.5,0.0,-1.3969517946243286,-1.5827159881591797,0.0,0.0,0.0,0,-62
1685905060.05944896,39071032,0.0,0.0,0.25,0.5,0.0,-1.4589694738388062,-1.4880810976028442,0.0,0.0,0.0,0,-62
1685905060.15940881,39170992,0.0,0.0,0.25,0.5,0.0,-1.5201321840286255,-1.379895567893982,0.0,0.0,0.0,0,-62
1685905060.25936890,39270952,0.0,0.0,0.25,0.5,0.0,-1.591647744178772,-1.5895823240280151,0.0,0.0,0.0,0,-63
1685905060.35932899,39370912,0.0,0.0,0.25,0.5,0.0,-1.660392165184021,-1.636306643486023,0.0,0.0,0.0,0,-63
1685905060.45928884,39470872,0.0,0.0,0.25,0.5,0.0,-1.724483847618103,-1.7297807931900024,0.0,0.0,0.0,0,-63
1685905060.55924892,39570832,0.0,0.0,0.25,0.5,0.0,-1.790054202079773,-1.8768614530563354,0.0,0.0,0.0,0,-64
1685905060.65920901,39670792,0.0,0.0,0.25,0.5,0.0,-1.8565683364868164,-1.9364054203033447,0.0,0.0,0.0,0,-64
1685905060.76000190,39771585,0.0,0.0,0.25,0.5,0.0,-1.9284900426864624,-2.055882453918457,0.0,0.0,0.0,0,-64
1685905060.85996199,39871545,0.0,0.0,0.25,0.5,0.0,-2.004549264907837,-1.7977160215377808,0.0,0.0,0.0,0,-65
1685905060.95992184,39971505,0.0,0.0,0.25,0.5,0.0,-2.0856146812438965,-1.8881441354751587,0.0,0.0,0.0,0,-67
1685905061.05988193,40071465,0.0,0.0,0.25,0.5,0.0,-2.1614139080047607,-1.8878483772277832,0.0,0.0,0.0,0,-67
1685905061.15984201,40171425,0.0,0.0,0.25,0.5,0.0,-2.2241787910461426,-2.278639078140259,0.0,0.0,0.0,0,-67
1685905061.25980186,40271385,0.0,0.0,0.25,0.5,0.0,-2.2770893573760986,-2.0070455074310303,0.0,0.0,0.0,0,-66
1685905061.35976195,40371345,0.0,0.0,0.25,0.5,0.0,-2.330883502960205,-2.3628993034362793,0.0,0.0,0.0,0,-65
1685905061.45972180,40471305,0.0,0.0,0.25,0.5,0.0,-2.384262800216675,-2.1613314151763916,0.0,0.0,0.0,0,-64
1685905061.55968189,40571265,0.0,0.0,0.25,0.5,0.0,-2.4379467964172363,-2.1730141639709473,0.0,0.0,0.0,0,-63
1685905061.65964198,40671225,0.0,0.0,0.25,0.5,0.0,-2.491447925567627,-2.6348111629486084,0.0,0.0,0.0,0,-62
1685905061.75960183,40771185,0.0,0.0,0.25,0.5,0.0,-2.536428928375244,-2.3613393306732178,0.0,0.0,0.0,0,-61
1685905061.85956192,40871145,0.0,0.0,0.25,0.5,0.0,-2.587021589279175,-2.396885395050049,0.0,0.0,0.0,0,-61
1685905061.95952201,40971105,0.0,0.0,0.25,0.5,0.0,-2.642676591873169,-2.4490177631378174,0.0,0.0,0.0,0,-60
1685905062.05948186,41071065,0.0,0.0,0.25,0.5,0.0,-2.6919138431549072,-2.5103650093078613,0.0,0.0,0.0,0,-60
1685905062.15944195,41171025,0.0,0.0,0.25,0.5,0.0,-2.736098527908325,-2.9226906299591064,0.0,0.0,0.0,0,-58
1685905062.25940180,41270985,0.0,0.0,0.25,0.5,0.0,-2.776759624481201,-2.9148526191711426,0.0,0.0,0.0,0,-57
1685905062.35936189,41370945,0.0,0.0,0.25,0.5,0.0,-2.826503276824951,-2.94364070892334,0.0,0.0,0.0,0,-57
1685905062.45932198,41470905,0.0,0.0,0.25,0.5,0.0,-2.891026496887207,-2.8976449966430664,0.0,0.0,0.0,0,-57
1685905062.55928183,41570865,0.0,0.0,0.25,0.5,0.0,-2.963322401046753,-2.9867961406707764,0.0,0.0,0.0,0,-59
1685905062.65924191,41670825,0.0,0.0,0.25,0.5,0.0,-3.036947727203369,-2.853989839553833,0.0,0.0,0.0,0,-60
1685905062.75920200,41770785,0.0,0.0,0.25,0.5,0.0,-3.1090080738067627,-3.060349225997925,0.0,0.0,0.0,0,-61
1685905062.85999489,41871578,0.0,0.0,0.25,0.5,0.0,-3.174715518951416,-3.026388645172119,0.0,0.0,0.0,0,-61
1685905062.95995498,41971538,0.0,0.0,0.25,0.5,0.0,-3.233705997467041,-3.283350706100464,0.0,0.0,0.0,0,-60
1685905063.05991483,42071498,0.0,0.0,0.25,0.5,0.0,-3.2898595333099365,-3.2341461181640625,0.0,0.0,0.0,0,-60
1685905063.15987492,42171458,0.0,0.0,0.25,0.5,0.0,-3.3444504737854004,-3.229602098464966,0.0,0.0,0.0,0,-59
1685905063.25983500,42271418,0.0,0.0,0.25,0.5,0.0,-3.4035263061523438,-3.311061143875122,0.0,0.0,0.0,0,-59
1685905063.35979486,42371378,0.0,0.0,0.25,0.5,0.0,-3.460003137588501,-3.5194666385650635,0.0,0.0,0.0,0,-59
1685905063.45975494,42471338,0.0,0.0,0.25,0.5,0.0,-3.513084650039673,-3.7057502269744873,0.0,0.0,0.0,0,-59
1685905063.55971479,42571298,0.0,0.0,0.25,0.5,0.0,-3.56827974319458,-3.7107644081115723,0.0,0.0,0.0,0,-58
1685905063.65967488,42671258,0.0,0.0,0.25,0.5,0.0,-3.6339216232299805,-3.809645175933838,0.0,0.0,0.0,0,-59
1685905063.75963497,42771218,0.0,0.0,0.25,0.5,0.0,-3.709329128265381,-3.8241126537323,0.0,0.0,0.0,0,-60
1685905063.85959482,42871178,0.0,0.0,0.25,0.5,0.0,-3.790762424468994,-3.8877129554748535,0.0,0.0,0.0,0,-62
1685905063.95955491,42971138,0.0,0.0,0.25,0.5,0.0,-3.8762221336364746,-3.981464385986328,0.0,0.0,0.0,0,-64
1685905064.05951500,43071098,0.0,0.0,0.25,0.5,0.0,-3.9621851444244385,-3.9930906295776367,0.0,0.0,0.0,0,-65
1685905064.15947485,43171058,0.0,0.0,0.25,0.5,0.0,-4.048394203186035,-3.887207508087158,0.0,0.0,0.0,0,-67
1685905064.25943494,43271018,0.0,0.0,0.25,0.5,0.0,-4.133843421936035,-3.9971373081207275,0.0,0.0,0.0,0,-68
1685905064.35939503,43370978,0.0,0.0,0.25,0.5,0.0,-4.211982727050781,-3.962406635284424,0.0,0.0,0.0,0,-68
1685905064.45935488,43470938,0.0,0.0,0.25,0.5,0.0,-4.2794060707092285,-4.322347640991211,0.0,0.0,0.0,0,-68
1685905064.55931497,43570898,0.0,0.0,0.25,0.5,0.0,-4.338106155395508,-4.033215045928955,0.0,0.0,0.0,0,-67
1685905064.65927482,43670858,0.0,0.0,0.25,0.5,0.0,-4.393983364105225,-4.173591136932373,0.0,0.0,0.0,0,-66
1685905064.75923491,43770818,0.0,0.0,0.25,0.5,0.0,-4.450214385986328,-4.418586730957031,0.0,0.0,0.0,0,-65
1685905064.86002803,43871611,0.0,0.0,0.25,0.5,0.0,-4.496750354766846,-4.482194900512695,0.0,0.0,0.0,0,-64
1685905064.95998788,43971571,0.0,0.0,0.25,0.5,0.0,-4.543147563934326,-4.279388427734375,0.0,0.0,0.0,0,-63
1685905065.05994797,44071531,0.0,0.0,0.25,0.5,0.0,-4.5966691970825195,-4.689602375030518,0.0,0.0,0.0,0,-62
1685905065.15990782,44171491,0.0,0.0,0.25,0.5,0.0,-4.649552345275879,-4.442918300628662,0.0,0.0,0.0,0,-62
1685905065.25986791,44271451,0.0,0.0,0.25,0.5,0.0,-4.700807094573975,-4.831689357757568,0.0,0.0,0.0,0,-61
1685905065.35982800,44371411,0.0,0.0,0.25,0.5,0.0,-4.757198333740234,-4.894318580627441,0.0,0.0,0.0,0,-61
1685905065.45978785,44471371,0.0,0.0,0.25,0.5,0.0,-4.81370735168457,-4.65597677230835,0.0,0.0,0.0,0,-61
1685905065.55974793,44571331,0.0,0.0,0.25,0.5,0.0,-4.882147312164307,-4.926024436950684,0.0,0.0,0.0,0,-61
1685905065.65970802,44671291,0.0,0.0,0.25,0.5,0.0,-4.952493190765381,-4.924374103546143,0.0,0.0,0.0,0,-62
1685905065.75966787,44771251,0.0,0.0,0.25,0.5,0.0,-5.017932891845703,-5.164768218994141,0.0,0.0,0.0,0,-62
1685905065.85962796,44871211,0.0,0.0,0.25,0.5,0.0,-5.0849456787109375,-5.15302848815918,0.0,0.0,0.0,0,-63
1685905065.95958781,44971171,0.0,0.0,0.25,0.5,0.0,-5.156358242034912,-4.987974166870117,0.0,0.0,0.0,0,-63
1685905066.05954790,45071131,0.0,0.0,0.25,0.5,0.0,-5.233362197875977,-5.238471984863281,0.0,0.0,0.0,0,-64
1685905066.15950799,45171091,0.0,0.0,0.25,0.5,0.0,-5.304964065551758,-5.254784107208252,0.0,0.0,0.0,0,-65
1685905066.25946784,45271051,0.0,0.0,0.25,0.5,0.0,-5.3719892501831055,-5.333652019500732,0.0,0.0,0.0,0,-65
1685905066.35942793,45371011,0.0,0.0,0.25,0.5,0.0,-5.439099311828613,-5.474213123321533,0.0,0.0,0.0,0,-65
1685905066.45938802,45470971,0.0,0.0,0.25,0.5,0.0,-5.505196571350098,-5.427940845489502,0.0,0.0,0.0,0,-65
1685905066.55934787,45570931,0.0,0.0,0.25,0.5,0.0,-5.57321834564209,-5.480241775512695,0.0,0.0,0.0,0,-65
1685905066.65930796,45670891,0.0,0.0,0.25,0.5,0.0,-5.641303539276123,-5.343835353851318,0.0,0.0,0.0,0,-65
1685905066.75926781,45770851,0.0,0.0,0.25,0.5,0.0,-5.705948352813721,-5.520007133483887,0.0,0.0,0.0,0,-65
1685905066.85922790,45870811,0.0,0.0,0.25,0.5,0.0,-5.7618184089660645,-5.542100429534912,0.0,0.0,0.0,0,-64
1685905066.96002102,45971604,0.0,0.0,0.25,0.5,0.0,-5.810004234313965,-5.533355236053467,0.0,0.0,0.0,0,-63
1685905067.05998087,46071564,0.0,0.0,0.25,0.5,0.0,-5.853959560394287,-5.8679280281066895,0.0,0.0,0.0,0,-62
1685905067.15994096,46171524,0.0,0.0,0.25,0.5,0.0,-5.892465591430664,-5.731513977050781,0.0,0.0,0.0,0,-60
1685905067.25990081,46271484,0.0,0.0,0.25,0.5,0.0,-5.9341559410095215,-5.929908275604248,0.0,0.0,0.0,0,-59
1685905067.35986090,46371444,0.0,0.0,0.25,0.5,0.0,-5.979758262634277,-5.87236213684082,0.0,0.0,0.0,0,-58
1685905067.45982099,46471404,0.0,0.0,0.25,0.5,0.0,-6.0283637046813965,-6.019195556640625,0.0,0.0,0.0,0,-58
1685905067.55978084,46571364,0.0,0.0,0.25,0.5,0.0,-6.079546928405762,-5.988739490509033,0.0,0.0,0.0,0,-57
1685905067.65974092,46671324,0.0,0.0,0.25,0.5,0.0,-6.132296562194824,-6.223079681396484,0.0,0.0,0.0,0,-57
1685905067.75970101,46771284,0.0,0.0,0.25,0.5,0.0,-6.1865949630737305,-6.1180315017700195,0.0,0.0,0.0,0,-57
1685905067.85966086,46871244,0.0,0.0,0.25,0.5,0.0,-6.2441205978393555,-6.222465515136719,0.0,0.0,0.0,0,-57
1685905067.95962095,46971204,0.0,0.0,0.25,0.5,0.0,-6.30418586730957,-6.1681671142578125,0.0,0.0,0.0,0,-57
1685905068.05958080,47071164,0.0,0.0,0.25,0.5,0.0,-6.3629584312438965,-6.5548014640808105,0.0,0.0,0.0,0,-57
1685905068.15954089,47171124,0.0,0.0,0.25,0.5,0.0,-6.418699741363525,-6.378023624420166,0.0,0.0,0.0,0,-57
1685905068.25950098,47271084,0.0,0.0,0.25,0.5,0.0,-6.479013442993164,-6.371477127075195,0.0,0.0,0.0,0,-57
1685905068.35946083,47371044,0.0,0.0,0.25,0.5,0.0,-6.544297695159912,-6.6175994873046875,0.0,0.0,0.0,0,-58
1685905068.45942092,47471004,0.0,0.0,0.25,0.5,0.0,-6.604686260223389,-6.617049694061279,0.0,0.0,0.0,0,-58
1685905068.55938101,47570964,0.0,0.0,0.25,0.5,0.0,-6.665502548217773,-6.809106349945068,0.0,0.0,0.0,0,-58
1685905068.65934086,47670924,0.0,0.0,0.25,0.5,0.0,-6.729673862457275,-6.8493804931640625,0.0,0.0,0.0,0,-58
1685905068.75930095,47770884,0.0,0.0,0.25,0.5,0.0,-6.798406600952148,-6.654487609863281,0.0,0.0,0.0,0,-59
1685905068.85926080,47870844,0.0,0.0,0.25,0.5,0.0,-6.873195171356201,-6.780099868774414,0.0,0.0,0.0,0,-60
1685905068.95922089,47970804,0.0,0.0,0.25,0.5,0.0,-6.9438042640686035,-7.142838954925537,0.0,0.0,0.0,0,-61
1685905069.06001401,48071597,0.0,0.0,0.25,0.5,0.0,-7.006811618804932,-6.965383529663086,0.0,0.0,0.0,0,-60
1685905069.15997386,48171557,0.0,0.0,0.25,0.5,0.0,-7.074029922485352,-7.123594760894775,0.0,0.0,0.0,0,-61
1685905069.25993395,48271517,0.0,0.0,0.25,0.5,0.0,-7.145349502563477,-6.938629627227783,0.0,0.0,0.0,0,-61
1685905069.35989380,48371477,0.0,0.0,0.25,0.5,0.0,-7.214718818664551,-7.30694580078125,0.0,0.0,0.0,0,-62
1685905069.45985389,48471437,0.0,0.0,0.25,0.5,0.0,-7.279879093170166,-7.122623443603516,0.0,0.0,0.0,0,-62
1685905069.55981398,48571397,0.0,0.0,0.25,0.5,0.0,-7.341219902038574,-7.481048107147217,0.0,0.0,0.0,0,-62
1685905069.65977383,48671357,0.0,0.0,0.25,0.5,0.0,-7.404324531555176,-7.347159385681152,0.0,0.0,0.0,0,-62
1685905069.75973392,48771317,0.0,0.0,0.25,0.5,0.0,-7.466832160949707,-7.372677803039551,0.0,0.0,0.0,0,-62
1685905069.85969400,48871277,0.0,0.0,0.25,0.5,0.0,-7.535205841064453,-7.681595325469971,0.0,0.0,0.0,0,-62
1685905069.95965385,48971237,0.0,0.0,0.25,0.5,0.0,-7.599176406860352,-7.477178573608398,0.0,0.0,0.0,0,-62
1685905070.05961394,49071197,0.0,0.0,0.25,0.5,0.0,-7.664797306060791,-7.463607311248779,0.0,0.0,0.0,0,-62
1685905070.15957379,49171157,0.0,0.0,0.25,0.5,0.0,-7.733770370483398,-7.648184776306152,0.0,0.0,0.0,0,-63
1685905070.25953388,49271117,0.0,0.0,0.25,0.5,0.0,-7.794271945953369,-7.8428850173950195,0.0,0.0,0.0,0,-63
1685905070.35949397,49371077,0.0,0.0,0.25,0.5,0.0,-7.84902286529541,-7.965016841888428,0.0,0.0,0.0,0,-62
1685905070.45945382,49471037,0.0,0.0,0.25,0.5,0.0,-7.906820297241211,-7.915896892547607,0.0,0.0,0.0,0,-62
1685905070.55941391,49570997,0.0,0.0,0.25,0.5,0.0,-7.972623825073242,-8.12155818939209,0.0,0.0,0.0,0,-62
1685905070.65937400,49670957,0.0,0.0,0.25,0.5,0.0,-8.043691635131836,-7.988258361816406,0.0,0.0,0.0,0,-63
1685905070.75933385,49770917,0.0,0.0,0.25,0.5,0.0,-8.117853164672852,-7.921872615814209,0.0,0.0,0.0,0,-64
1685905070.85929394,49870877,0.0,0.0,0.25,0.5,0.0,-8.194424629211426,-8.208918571472168,0.0,0.0,0.0,0,-64
1685905070.95925403,49970837,0.0,0.0,0.25,0.5,0.0,-8.262677192687988,-8.102869033813477,0.0,0.0,0.0,0,-65
1685905071.05921388,50070797,0.0,0.0,0.25,0.5,0.0,-8.325489044189453,-8.058141708374023,0.0,0.0,0.0,0,-64
1685905071.16000700,50171590,0.0,0.0,0.25,0.5,0.0,-8.387677192687988,-8.496970176696777,0.0,0.0,0.0,0,-64
1685905071.25996685,50271550,0.0,0.0,0.25,0.5,0.0,-8.440352439880371,-8.43355941772461,0.0,0.0,0.0,0,-63
1685905071.35992694,50371510,0.0,0.0,0.25,0.5,0.0,-8.495146751403809,-8.353490829467773,0.0,0.0,0.0,0,-63
1685905071.45988703,50471470,0.0,0.0,0.25,0.5,0.0,-8.557848930358887,-8.6829252243042,0.0,0.0,0.0,0,-63
1685905071.55984688,50571430,0.0,0.0,0.25,0.5,0.0,-8.618253707885742,-8.360982894897461,0.0,0.0,0.0,0,-63
1685905071.65980697,50671390,0.0,0.0,0.25,0.5,0.0,-8.682265281677246,-8.527544975280762,0.0,0.0,0.0,0,-63
1685905071.75976682,50771350,0.0,0.0,0.25,0.5,0.0,-8.744161605834961,-8.500824928283691,0.0,0.0,0.0,0,-63
1685905071.85972691,50871310,0.0,0.0,0.25,0.5,0.0,-8.797489166259766,-8.919458389282227,0.0,0.0,0.0,0,-62
1685905071.95968699,50971270,0.0,0.0,0.25,0.5,0.0,-8.845586776733398,-8.963544845581055,0.0,0.0,0.0,0,-61
1685905072.05964684,51071230,0.0,0.0,0.25,0.5,0.0,-8.897359848022461,-8.777627944946289,0.0,0.0,0.0,0,-60
1685905072.15960693,51171190,0.0,0.0,0.25,0.5,0.0,-8.961251258850098,-8.758648872375488,0.0,0.0,0.0,0,-61
1685905072.25956702,51271150,0.0,0.0,0.25,0.5,0.0,-9.026177406311035,-8.84805679321289,0.0,0.0,0.0,0,-61
1685905072.35952687,51371110,0.0,0.0,0.25,0.5,0.0,-9.08316421508789,-9.209614753723145,0.0,0.0,0.0,0,-61
1685905072.45948696,51471070,0.0,0.0,0.25,0.5,0.0,-9.133317947387695,-8.915166854858398,0.0,0.0,0.0,0,-60
1685905072.55944681,51571030,0.0,0.0,0.25,0.5,0.0,-9.188201904296875,-9.364435195922852,0.0,0.0,0.0,0,-60
1685905072.65940690,51670990,0.0,0.0,0.25,0.5,0.0,-9.244028091430664,-9.221949577331543,0.0,0.0,0.0,0,-59
1685905072.75936699,51770950,0.0,0.0,0.25,0.5,0.0,-9.302803039550781,-9.489203453063965,0.0,0.0,0.0,0,-59
1685905072.85932684,51870910,0.0,0.0,0.25,0.5,0.0,-9.368142127990723,-9.21514892578125,0.0,0.0,0.0,0,-60
1685905072.95928693,51970870,0.0,0.0,0.25,0.5,0.0,-9.438699722290039,-9.526374816894531,0.0,0.0,0.0,0,-61
1685905073.05924702,52070830,0.0,0.0,0.25,0.5,0.0,-9.50852108001709,-9.596759796142578,0.0,0.0,0.0,0,-61
1685905073.15920687,52170790,0.0,0.0,0.25,0.5,0.0,-9.576042175292969,-9.382542610168457,0.0,0.0,0.0,0,-62
1685905073.25999999,52271583,0.0,0.0,0.25,0.5,0.0,-9.649019241333008,-9.755029678344727,0.0,0.0,0.0,0,-62
1685905073.35995984,52371543,0.0,0.0,0.25,0.5,0.0,-9.71671199798584,-9.513936042785645,0.0,0.0,0.0,0,-63
1685905073.45991993,52471503,0.0,0.0,0.25,0.5,0.0,-9.781614303588867,-9.89799976348877,0.0,0.0,0.0,0,-63
1685905073.55988002,52571463,0.0,0.0,0.25,0.5,0.0,-9.846574783325195,-9.942486763000488,0.0,0.0,0.0,0,-63
1685905073.65983987,52671423,0.0,0.0,0.25,0.5,0.0,-9.90784740447998,-9.672998428344727,0.0,0.0,0.0,0,-62
1685905073.75979996,52771383,0.0,0.0,0.25,0.5,0.0,-9.977842330932617,-9.871622085571289,0.0,0.0,0.0,0,-63
1685905073.85975981,52871343,0.0,0.0,0.25,0.5,0.0,-10.045432090759277,-9.979820251464844,0.0,0.0,0.0,0,-63
1685905073.95971990,52971303,0.0,0.0,0.25,0.5,0.0,-10.103255271911621,-10.182586669921875,0.0,0.0,0.0,0,-63
1685905074.05967999,53071263,0.0,0.0,0.25,0.5,0.0,-10.160322189331055,-10.186338424682617,0.0,0.0,0.0,0,-62
1685905074.15963984,53171223,0.0,0.0,0.25,0.5,0.0,-10.220507621765137,-10.11054801940918,0.0,0.0,0.0,0,-62
1685905074.25959992,53271183,0.0,0.0,0.25,0.5,0.0,-10.286787986755371,-10.15231704711914,0.0,0.0,0.0,0,-62
1685905074.35956001,53371143,0.0,0.0,0.5,0.5,0.0,-10.351035118103027,-10.11989688873291,0.0,0.0,0.0,0,-55
1685905074.45951986,53471103,0.0,0.0,0.5,0.5,0.0,-10.395929336547852,-10.419337272644043,0.0,0.0,0.0,0,-41
1685905074.55947995,53571063,0.0,0.0,0.5,0.5,0.0,-10.42333698272705,-10.544083595275879,0.0,0.0,0.0,0,-32
1685905074.65943980,53671023,0.0,0.0,0.5,0.5,0.0,-10.441535949707031,-10.374414443969727,0.0,0.0,0.0,0,-25
1685905074.75939989,53770983,0.0,0.0,0.5,0.5,0.0,-10.463543891906738,-10.32768440246582,0.0,0.0,0.0,0,-21
1685905074.85935998,53870943,0.0,0.0,0.5,0.5,0.0,-10.486473083496094,-10.610767364501953,0.0,0.0,0.0,0,-19
1685905074.95931983,53970903,0.0,0.0,0.5,0.5,0.0,-10.501666069030762,-10.591638565063477,0.0,0.0,0.0,0,-16
1685905075.05927992,54070863,0.0,0.0,0.5,0.5,0.0,-10.514593124389648,-10.439814567565918,0.0,0.0,0.0,0,-14
1685905075.15924001,54170823,0.0,0.0,0.5,0.5,0.0,-10.533411979675293,-10.57624626159668,0.0,0.0,0.0,0,-13
1685905075.25919986,54270783,0.0,0.0,0.5,0.5,0.0,-10.550997734069824,-10.597925186157227,0.0,0.0,0.0,0,-12
1685905075.35999298,54371576,0.0,0.0,0.5,0.5,0.0,-10.564623832702637,-10.565776824951172,0.0,0.0,0.0,0,-11
1685905075.45995283,54471536,0.0,0.0,0.5,0.5,0.0,-10.579184532165527,-10.435441017150879,0.0,0.0,0.0,0,-10
1685905075.55991292,54571496,0.0,0.0,0.5,0.5,0.0,-10.593297958374023,-10.385713577270508,0.0,0.0,0.0,0,-9
1685905075.65987301,54671456,0.0,0.0,0.5,0.5,0.0,-10.602115631103516,-10.385858535766602,0.0,0.0,0.0,0,-8
1685905075.75983286,54771416,0.0,0.0,0.5,0.5,0.0,-10.601075172424316,-10.399200439453125,0.0,0.0,0.0,0,-7
1685905075.85979295,54871376,0.0,0.0,0.5,0.5,0.0,-10.590754508972168,-10.441701889038086,0.0,0.0,0.0,0,-4
1685905075.95975280,54971336,0.0,0.0,0.5,0.5,0.0,-10.57386589050293,-10.34119987487793,0.0,0.0,0.0,0,-2
1685905076.05971289,55071296,0.0,0.0,0.5,0.5,0.0,-10.553686141967773,-10.538535118103027,0.0,0.0,0.0,0,0
1685905076.15967298,55171256,0.0,0.0,0.5,0.5,0.0,-10.530661582946777,-10.472484588623047,0.0,0.0,0.0,0,1
1685905076.25963283,55271216,0.0,0.0,0.5,0.5,0.0,-10.507088661193848,-10.530713081359863,0.0,0.0,0.0,0,3
1685905076.35959291,55371176,0.0,0.0,0.5,0.5,0.0,-10.488834381103516,-10.507225036621094,0.0,0.0,0.0,0,4
1685905076.45955300,55471136,0.0,0.0,0.5,0.5,0.0,-10.473834037780762,-10.577554702758789,0.0,0.0,0.0,0,5
1685905076.55951285,55571096,0.0,0.0,0.5,0.5,0.0,-10.463085174560547,-10.619580268859863,0.0,0.0,0.0,0,6
1685905076.65947294,55671056,0.0,0.0,0.5,0.5,0.0,-10.456343650817871,-10.696381568908691,0.0,0.0,0.0,0,7
1685905076.75943279,55771016,0.0,0.0,0.5,0.5,0.0,-10.45589828491211,-10.397022247314453,0.0,0.0,0.0,0,7
1685905076.85939288,55870976,0.0,0.0,0.5,0.5,0.0,-10.462932586669922,-10.688610076904297,0.0,0.0,0.0,0,6
1685905076.95935297,55970936,0.0,0.0,0.5,0.5,0.0,-10.470995903015137,-10.382400512695312,0.0,0.0,0.0,0,6
1685905077.05931282,56070896,0.0,0.0,0.5,0.5,0.0,-10.47601318359375,-10.752113342285156,0.0,0.0,0.0,0,6
1685905077.15927291,56170856,0.0,0.0,0.5,0.5,0.0,-10.481518745422363,-10.484570503234863,0.0,0.0,0.0,0,5
1685905077.25923300,56270816,0.0,0.0,0.5,0.5,0.0,-10.484962463378906,-10.596847534179688,0.0,0.0,0.0,0,5
1685905077.36002588,56371609,0.0,0.0,0.5,0.5,0.0,-10.494348526000977,-10.425713539123535,0.0,0.0,0.0,0,5
1685905077.45998597,56471569,0.0,0.0,0.5,0.5,0.0,-10.499342918395996,-10.532772064208984,0.0,0.0,0.0,0,5
1685905077.55994582,56571529,0.0,0.0,0.5,0.5,0.0,-10.50060749053955,-10.607560157775879,0.0,0.0,0.0,0,5
1685905077.65990591,56671489,0.0,0.0,0.5,0.5,0.0,-10.497712135314941,-10.697364807128906,0.0,0.0,0.0,0,5
1685905077.75986600,56771449,0.0,0.0,0.5,0.5,0.0,-10.496861457824707,-10.53431510925293,0.0,0.0,0.0,0,6
1685905077.85982585,56871409,0.0,0.0,0.5,0.5,0.0,-10.501873016357422,-10.412690162658691,0.0,0.0,0.0,0,5
1685905077.95978594,56971369,0.0,0.0,0.5,0.5,0.0,-10.508713722229004,-10.480408668518066,0.0,0.0,0.0,0,5
1685905078.05974603,57071329,0.0,0.0,0.5,0.5,0.0,-10.509143829345703,-10.408793449401855,0.0,0.0,0.0,0,5
1685905078.15970588,57171289,0.0,0.0,0.5,0.5,0.0,-10.50381088256836,-10.38632869720459,0.0,0.0,0.0,0,5
1685905078.25966597,57271249,0.0,0.0,0.5,0.5,0.0,-10.494194030761719,-10.404288291931152,0.0,0.0,0.0,0,6
1685905078.35962582,57371209,0.0,0.0,0.5,0.5,0.0,-10.479239463806152,-10.570643424987793,0.0,0.0,0.0,0,7
1685905078.45958591,57471169,0.0,0.0,0.5,0.5,0.0,-10.461339950561523,-10.415812492370605,0.0,0.0,0.0,0,8
1685905078.55954599,57571129,0.0,0.0,0.5,0.5,0.0,-10.445664405822754,-10.432806968688965,0.0,0.0,0.0,0,8
1685905078.65950584,57671089,0.0,0.0,0.5,0.5,0.0,-10.434314727783203,-10.39168930053711,0.0,0.0,0.0,0,9
1685905078.75946593,57771049,0.0,0.0,0.5,0.5,0.0,-10.421897888183594,-10.3662109375,0.0,0.0,0.0,0,9
1685905078.85942602,57871009,0.0,0.0,0.5,0.5,0.0,-10.409053802490234,-10.55461311340332,0.0,0.0,0.0,0,9
1685905078.95938587,57970969,0.0,0.0,0.5,0.5,0.0,-10.394535064697266,-10.436686515808105,0.0,0.0,0.0,0,10
1685905079.05934596,58070929,0.0,0.0,0.5,0.5,0.0,-10.382725715637207,-10.544745445251465,0.0,0.0,0.0,0,10
1685905079.15930581,58170889,0.0,0.0,0.5,0.5,0.0,-10.3770112991333,-10.276566505432129,0.0,0.0,0.0,0,9
1685905079.25926590,58270849,0.0,0.0,0.5,0.5,0.0,-10.374527931213379,-10.596247673034668,0.0,0.0,0.0,0,9
1685905079.35922599,58370809,0.0,0.0,0.5,0.5,0.0,-10.372430801391602,-10.401480674743652,0.0,0.0,0.0,0,8
1685905079.46001887,58471602,0.0,0.0,0.5,0.5,0.0,-10.368982315063477,-10.463728904724121,0.0,0.0,0.0,0,8
1685905079.55997896,58571562,0.0,0.0,0.5,0.5,0.0,-10.37121868133545,-10.36526870727539,0.0,0.0,0.0,0,8
1685905079.65993881,58671522,0.0,0.0,0.5,0.5,0.0,-10.372446060180664,-10.258399963378906,0.0,0.0,0.0,0,7
1685905079.75989890,58771482,0.0,0.0,0.5,0.5,0.0,-10.373069763183594,-10.289068222045898,0.0,0.0,0.0,0,7
1685905079.85985899,58871442,0.0,0.0,0.5,0.5,0.0,-10.367864608764648,-10.153801918029785,0.0,0.0,0.0,0,7
1685905079.95981884,58971402,0.0,0.0,0.5,0.5,0.0,-10.355854034423828,-10.347352981567383,0.0,0.0,0.0,0,7
1685905080.05977893,59071362,0.0,0.0,0.5,0.5,0.0,-10.337516784667969,-10.500269889831543,0.0,0.0,0.0,0,8
1685905080.15973902,59171322,0.0,0.0,0.5,0.5,0.0,-10.315105438232422,-10.47657585144043,0.0,9.52,0.0,0,9
1685905080.25969887,59271282,0.0,0.0,0.5,0.5,0.0,-10.300248146057129,-10.241241455078125,0.0,9.52,0.0,0,9
1685905080.35965896,59371242,0.0,0.0,0.5,0.5,0.0,-10.296099662780762,-10.232413291931152,0.0,9.52,0.0,0,9
1685905080.45961881,59471202,0.0,0.0,0.5,0.5,0.0,-10.294173240661621,-10.097823143005371,0.0,9.52,0.0,0,8
1685905080.55957890,59571162,0.0,0.0,0.5,0.5,0.0,-10.286382675170898,-10.251180648803711,0.0,9.52,0.0,0,8
1685905080.65953898,59671122,0.0,0.0,0.5,0.5,0.0,-10.271618843078613,-10.314007759094238,0.0,9.52,0.0,0,9
1685905080.75949883,59771082,0.0,0.0,0.5,0.5,0.0,-10.2512788772583,-10.315799713134766,0.0,9.53,0.0,0,10
1685905080.85945892,59871042,0.0,0.0,0.5,0.5,0.0,-10.234076499938965,-10.205207824707031,0.0,9.55,0.0,0,10
1685905080.95941901,59971002,0.0,0.0,0.5,0.5,0.0,-10.22189712524414,-10.274128913879395,0.0,9.56,0.0,0,10
1685905081.05937886,60070962,0.0,0.0,0.5,0.5,0.0,-10.211666107177734,-10.368559837341309,0.0,9.57,0.0,0,10
1685905081.15933895,60170922,0.3977085053920746,0.0,0.4708678424358368,0.5,-10.168072700500488,-10.201393127441406,-10.034585952758789,9.53,9.58,0.0,9,10
1685905081.25929880,60270882,0.48290666937828064,0.0,0.4061788320541382,0.5,-10.168395042419434,-10.197388648986816,-10.404152870178223,9.53,9.59,0.0,8,6
1685905081.35925889,60370842,0.48315852880477905,0.0,0.4409329295158386,0.5,-10.169456481933594,-10.196078300476074,-10.023605346679688,9.53,9.6,0.0,6,4
1685905081.45921898,60470802,0.4700687527656555,0.0,0.4187384843826294,0.5,-10.171365737915039,-10.19342041015625,-10.182368278503418,9.53,9.61,0.0,4,3
1685905081.56001186,60571595,0.48105937242507935,0.0,0.44277775287628174,0.5,-10.174175262451172,-10.194214820861816,-10.037772178649902,9.53,9.63,0.0,2,1
1685905081.65997195,60671555,0.4574161767959595,0.0,0.4094318449497223,0.5,-10.178001403808594,-10.18953800201416,-10.226395606994629,9.53,9.64,0.0,0,0
1685905081.75993180,60771515,0.45230281352996826,0.0,0.39619967341423035,0.5,-10.182966232299805,-10.183697700500488,-10.189985275268555,9.53,9.66,0.0,-5,-2
1685905081.85989189,60871475,0.45857810974121094,0.0,0.37940502166748047,0.5,-10.189164161682129,-10.180978775024414,-10.15841007232666,9.53,9.67,0.0,-9,-6
1685905081.95985198,60971435,0.46722689270973206,0.0,0.39176055788993835,0.5,-10.196682929992676,-10.186309814453125,-10.186924934387207,9.53,9.68,0.0,-11,-10
1685905082.05981183,61071395,0.47111019492149353,0.0,0.40534305572509766,0.5,-10.205522537231445,-10.195716857910156,-10.370713233947754,9.53,9.69,0.0,-12,-12
1685905082.15977192,61171355,0.47141939401626587,0.0,0.4098260700702667,0.5,-10.215673446655273,-10.20746898651123,-10.327980995178223,9.53,9.69,0.0,-13,-14
1685905082.25973201,61271315,0.4854000210762024,0.0,0.41996556520462036,0.5,-10.227052688598633,-10.226282119750977,-10.414497375488281,9.53,9.69,0.0,-12,-15
1685905082.35969186,61371275,0.5189789533615112,0.0,0.467738538980484,0.5,-10.239498138427734,-10.252272605895996,-10.444440841674805,9.53,9.69,0.0,-9,-15
1685905082.45965195,61471235,0.5784096121788025,0.0,0.5442953705787659,0.5,-10.252878189086914,-10.2819242477417,-10.298626899719238,9.53,9.700000000000001,0.0,-5,-14
1685905082.55961180,61571195,0.5719226598739624,0.0,0.6081682443618774,0.5,-10.26717758178711,-10.314319610595703,-10.428597450256348,9.53,9.700000000000001,0.0,0,-11
1685905082.65957189,61671155,0.5540836453437805,0.0,0.612388014793396,0.5,-10.282303810119629,-10.340450286865234,-10.48389720916748,9.53,9.700000000000001,0.0,1,-6
1685905082.75953197,61771115,0.5337048768997192,0.0,0.5767341256141663,0.5,-10.29815673828125,-10.359216690063477,-10.401654243469238,9.53,9.71,0.0,2,-2
1685905082.85949183,61871075,0.5241792798042297,0.0,0.5486705303192139,0.5,-10.314757347106934,-10.37710189819336,-10.430238723754883,9.53,9.71,0.0,1,-1
1685905082.95945191,61971035,0.5166788697242737,0.0,0.5374966263771057,0.5,-10.332013130187988,-10.392855644226074,-10.493864059448242,9.53,9.700000000000001,0.0,0,-1
1685905083.05941200,62070995,0.49935245513916016,0.0,0.5194898843765259,0.5,-10.349684715270996,-10.405256271362305,-10.41793441772461,9.53,9.68,0.0,-1,-1
1685905083.15937185,62170955,0.46851664781570435,0.0,0.4801313579082489,0.5,-10.367419242858887,-10.41743278503418,-10.264859199523926,9.53,9.66,0.0,-2,-1
1685905083.25933194,62270915,0.4661460220813751,0.0,0.45333531498908997,0.5,-10.384857177734375,-10.428492546081543,-10.233229637145996,9.53,9.64,0.0,-4,-2
1685905083.35929179,62370875,0.4440839886665344,0.0,0.4406907856464386,0.5,-10.401678085327148,-10.432565689086914,-10.164642333984375,9.53,9.61,0.0,-7,-2
1685905083.45925188,62470835,0.41416651010513306,0.0,0.396911084651947,0.5,-10.417496681213379,-10.427589416503906,-10.247381210327148,9.53,9.58,0.0,-12,-3
1685905083.55921197,62570795,0.40327930450439453,0.0,0.36843013763427734,0.5,-10.43195915222168,-10.416128158569336,-10.208130836486816,9.53,9.56,0.0,-18,-7
1685905083.66000485,62671588,0.4013296663761139,0.0,0.35312125086784363,0.5,-10.444870948791504,-10.404644012451172,-10.09703540802002,9.53,9.540000000000001,0.0,-24,-12
1685905083.75996494,62771548,0.4003641605377197,0.0,0.3561316132545471,0.5,-10.456079483032227,-10.39723014831543,-10.378098487854004,9.53,9.51,0.0,-27,-18
1685905083.85992479,62871508,0.3943023681640625,0.0,0.35302144289016724,0.5,-10.465380668640137,-10.3900146484375,-10.168577194213867,9.53,9.5,0.0,-31,-21
1685905083.95988488,62971468,0.407571017742157,0.0,0.34742581844329834,0.5,-10.472794532775879,-10.388799667358398,-10.397059440612793,9.53,9.49,0.0,-31,-24
1685905084.05984497,63071428,0.4203196167945862,0.0,0.37097299098968506,0.5,-10.478397369384766,-10.39526081085205,-10.28519058227539,9.53,9.48,0.0,-29,-25
1685905084.15980482,63171388,0.4325900077819824,0.0,0.38190898299217224,0.5,-10.482280731201172,-10.403680801391602,-10.310199737548828,9.53,9.47,0.0,-26,-25
1685905084.25976491,63271348,0.454867959022522,0.0,0.4174002707004547,0.5,-10.484505653381348,-10.416679382324219,-10.227588653564453,9.53,9.46,0.0,-21,-22
1685905084.35972500,63371308,0.46661698818206787,0.0,0.4443872570991516,0.5,-10.485150337219238,-10.426855087280273,-10.377141952514648,9.53,9.47,0.0,-17,-19
1685905084.45968485,63471268,0.4657662808895111,0.0,0.45564836263656616,0.5,-10.484461784362793,-10.431951522827148,-10.485807418823242,9.53,9.47,0.0,-14,-15
1685905084.55964494,63571228,0.4502381980419159,0.0,0.43478256464004517,0.5,-10.482722282409668,-10.432400703430176,-10.695182800292969,9.53,9.48,0.0,-12,-12
1685905084.65960503,63671188,0.4680524468421936,0.0,0.43145185708999634,0.5,-10.480159759521484,-10.436558723449707,-10.349225997924805,9.53,9.49,0.0,-10,-11
1685905084.75956488,63771148,0.5158548951148987,0.0,0.4720040559768677,0.5,-10.477056503295898,-10.450754165649414,-10.477835655212402,9.53,9.5,0.0,-4,-10
1685905084.85952497,63871108,0.5960912704467773,0.0,0.6108486652374268,0.5,-10.473657608032227,-10.469204902648926,-10.500635147094727,9.53,9.5,0.0,2,-8
1685905084.95948482,63971068,0.5506100058555603,0.0,0.6095385551452637,0.5,-10.470102310180664,-10.477422714233398,-10.538926124572754,9.53,9.49,0.0,5,-1
1685905085.05944490,64071028,0.5333908200263977,0.0,0.5906255841255188,0.5,-10.466353416442871,-10.480402946472168,-10.578536987304688,9.53,9.48,0.0,8,2
1685905085.15940499,64170988,0.5248507261276245,0.0,0.5723361372947693,0.5,-10.462279319763184,-10.4804048538208,-10.488384246826172,9.53,9.47,0.0,9,6
1685905085.25936484,64270948,0.5265040993690491,0.0,0.565147340297699,0.5,-10.45775032043457,-10.479898452758789,-10.494599342346191,9.53,9.46,0.0,11,8
1685905085.35932493,64370908,0.5274679064750671,0.0,0.5713229775428772,0.5,-10.452657699584961,-10.477826118469238,-10.505265235900879,9.53,9.46,0.0,12,10
1685905085.45928502,64470868,0.5152748823165894,0.0,0.5576881766319275,0.5,-10.446982383728027,-10.471175193786621,-10.495266914367676,9.53,9.46,0.0,13,11
1685905085.55924487,64570828,0.5040963888168335,0.0,0.535716712474823,0.5,-10.44079303741455,-10.46204948425293,-10.405517578125,9.53,9.44,0.0,12,12
1685905085.65920496,64670788,0.5053503513336182,0.0,0.5288048386573792,0.5,-10.434017181396484,-10.452016830444336,-10.440474510192871,9.53,9.43,0.0,12,12
1685905085.75999784,64771581,0.501378059387207,0.0,0.5269299149513245,0.5,-10.42648696899414,-10.439735412597656,-10.381109237670898,9.53,9.42,0.0,11,12
1685905085.85995793,64871541,0.4729450047016144,0.0,0.5005117654800415,0.5,-10.41812515258789,-10.424559593200684,-10.48124885559082,9.53,9.42,0.0,10,13
1685905085.95991802,64971501,0.4470304548740387,0.0,0.44508257508277893,0.5,-10.408947944641113,-10.407933235168457,-10.528965950012207,9.53,9.41,0.0,9,13
1685905086.05987787,65071461,0.455899715423584,0.0,0.42564505338668823,0.5,-10.3989839553833,-10.392168045043945,-10.391472816467285,9.53,9.41,0.0,8,11
1685905086.15983796,65171421,0.4826850891113281,0.0,0.44655686616897583,0.5,-10.38825798034668,-10.383245468139648,-10.647233009338379,9.53,9.41,0.0,9,10
1685905086.25979781,65271381,0.5252866148948669,0.0,0.5031847953796387,0.5,-10.37686538696289,-10.377779960632324,-10.555438995361328,9.53,9.41,0.0,11,9
1685905086.35975790,65371341,0.5551000833511353,0.0,0.5731026530265808,0.5,-10.36489486694336,-10.375635147094727,-10.379937171936035,9.53,9.42,0.0,15,10
1685905086.45971799,65471301,0.5686820149421692,0.0,0.6194178462028503,0.5,-10.352505683898926,-10.38049602508545,-10.325117111206055,9.53,9.43,0.0,20,13
1685905086.55967784,65571261,0.5611280798912048,0.0,0.6332336664199829,0.5,-10.339913368225098,-10.381333351135254,-10.602389335632324,9.53,9.44,0.0,25,17
1685905086.65963793,65671221,0.5432459115982056,0.0,0.6127973794937134,0.5,-10.327323913574219,-10.36783218383789,-10.534944534301758,9.53,9.450000000000001,0.0,24,21
1685905086.75959802,65771181,0.5407997369766235,0.0,0.578313410282135,0.5,-10.314905166625977,-10.35364055633545,-10.247732162475586,9.53,9.47,0.0,23,22
1685905086.85955787,65871141,0.5621711015701294,0.0,0.5888816714286804,0.5,-10.302881240844727,-10.346179962158203,-10.303645133972168,9.53,9.49,0.0,24,21
1685905086.95951796,65971101,0.550896942615509,0.0,0.6012385487556458,0.5,-10.291526794433594,-10.3338623046875,-10.208549499511719,9.53,9.5,0.0,23,21
1685905087.05947781,66071061,0.518951952457428,0.0,0.5611799955368042,0.5,-10.281027793884277,-10.312979698181152,-10.273927688598633,9.53,9.51,0.0,19,21
1685905087.15943789,66171021,0.46204569935798645,0.0,0.4920330047607422,0.5,-10.271442413330078,-10.287489891052246,-10.195335388183594,9.53,9.51,0.0,13,19
1685905087.25939798,66270981,0.44015318155288696,0.0,0.38437286019325256,0.5,-10.262740135192871,-10.26109504699707,-10.416289329528809,9.53,9.51,0.0,7,16
1685905087.35935783,66370941,0.44349128007888794,0.0,0.3759826421737671,0.5,-10.254814147949219,-10.238622665405273,-10.202777862548828,9.53,9.51,0.0,2,10
1685905087.45931792,66470901,0.4652564525604248,0.0,0.38428840041160583,0.5,-10.247554779052734,-10.22673225402832,-10.224738121032715,9.53,9.51,0.0,0,5
1685905087.55927801,66570861,0.48614150285720825,0.0,0.43067872524261475,0.5,-10.240867614746094,-10.223361015319824,-10.107373237609863,9.53,9.51,0.0,1,2
1685905087.65923786,66670821,0.4898550510406494,0.0,0.4533689618110657,0.5,-10.234709739685059,-10.220460891723633,-10.397537231445312,9.53,9.53,0.0,1,1
1685905087.75919795,66770781,0.4792473316192627,0.0,0.45491549372673035,0.5,-10.229267120361328,-10.214924812316895,-10.194687843322754,9.53,9.55,0.0,0,1
1685905087.85999084,66871574,0.48121964931488037,0.0,0.4282996952533722,0.5,-10.22476577758789,-10.213228225708008,-10.10067367553711,9.53,9.56,0.0,0,0
1685905087.95995092,66971534,0.5075192451477051,0.0,0.46468645334243774,0.5,-10.221285820007324,-10.21678638458252,-10.116607666015625,9.53,9.57,0.0,1,0
1685905088.05991101,67071494,0.48723289370536804,0.0,0.4720299541950226,0.5,-10.21887493133545,-10.215384483337402,-10.441393852233887,9.53,9.59,0.0,0,0
1685905088.15987086,67171454,0.4527709484100342,0.0,0.42089971899986267,0.5,-10.217700958251953,-10.208473205566406,-10.173553466796875,9.53,9.620000000000001,0.0,-2,0
1685905088.25983095,67271414,0.483802855014801,0.0,0.3951323628425598,0.5,-10.218064308166504,-10.209463119506836,-10.322731971740723,9.53,9.65,0.0,-3,-2
1685905088.35979080,67371374,0.5016151666641235,0.0,0.4413011074066162,0.5,-10.220213890075684,-10.218475341796875,-10.094817161560059,9.53,9.65,0.0,-3,-5
1685905088.45975089,67471334,0.5050645470619202,0.0,0.4602468013763428,0.5,-10.224040985107422,-10.229209899902344,-10.202070236206055,9.53,9.66,0.0,-3,-5
1685905088.55971098,67571294,0.497566819190979,0.0,0.47656676173210144,0.5,-10.22945499420166,-10.237546920776367,-10.447853088378906,9.53,9.67,0.0,-3,-5
1685905088.65967083,67671254,0.46226754784584045,0.0,0.43603140115737915,0.5,-10.236381530761719,-10.240673065185547,-10.217756271362305,9.53,9.67,0.0,-6,-5
1685905088.75963092,67771214,0.48218974471092224,0.0,0.41210880875587463,0.5,-10.244672775268555,-10.250771522521973,-10.156140327453613,9.53,9.68,0.0,-7,-7
1685905088.85959101,67871174,0.5004939436912537,0.0,0.45258253812789917,0.5,-10.25424575805664,-10.266146659851074,-10.100301742553711,9.53,9.68,0.0,-6,-8
1685905088.95955086,67971134,0.48293519020080566,0.0,0.4628719985485077,0.5,-10.264967918395996,-10.276042938232422,-10.191595077514648,9.53,9.68,0.0,-7,-8
1685905089.05951095,68071094,0.4425031244754791,0.0,0.4176393449306488,0.5,-10.276678085327148,-10.278277397155762,-10.360855102539062,9.53,9.68,0.0,-11,-8
1685905089.15947080,68171054,0.4387926459312439,0.0,0.37874656915664673,0.5,-10.289215087890625,-10.277771949768066,-10.173867225646973,9.53,9.67,0.0,-16,-10
1685905089.25943089,68271014,0.4513213634490967,0.0,0.3737299144268036,0.5,-10.302350997924805,-10.285146713256836,-10.473773002624512,9.53,9.67,0.0,-18,-14
1685905089.35939097,68370974,0.4527842402458191,0.0,0.39583805203437805,0.5,-10.31594467163086,-10.2976713180542,-10.417481422424316,9.53,9.66,0.0,-19,-17
1685905089.45935082,68470934,0.4686521589756012,0.0,0.4022148847579956,0.5,-10.329816818237305,-10.316427230834961,-10.395676612854004,9.53,9.66,0.0,-17,-18
1685905089.55931091,68570894,0.5031782984733582,0.0,0.45312410593032837,0.5,-10.343868255615234,-10.344263076782227,-10.297263145446777,9.53,9.65,0.0,-13,-18
1685905089.65927100,68670854,0.5667957067489624,0.0,0.5378937125205994,0.5,-10.357953071594238,-10.373273849487305,-10.514918327331543,9.53,9.64,0.0,-9,-16
1685905089.75923085,68770814,0.5374955534934998,0.0,0.5964471697807312,0.5,-10.371877670288086,-10.396492958068848,-10.372051239013672,9.53,9.63,0.0,-6,-12
1685905089.86002398,68871607,0.5324981212615967,0.0,0.5773159265518188,0.5,-10.385502815246582,-10.415630340576172,-10.533181190490723,9.53,9.620000000000001,0.0,-4,-9
1685905089.95998383,68971567,0.5240333676338196,0.0,0.5736218094825745,0.5,-10.398711204528809,-10.431663513183594,-10.31015682220459,9.53,9.620000000000001,0.0,-3,-6
1685905090.05994391,69071527,0.516018271446228,0.0,0.5507685542106628,0.5,-10.411502838134766,-10.445067405700684,-10.317031860351562,9.53,9.61,0.0,-2,-4
1685905090.15990400,69171487,0.5064316391944885,0.0,0.5466170907020569,0.5,-10.423803329467773,-10.454581260681152,-10.285024642944336,9.53,9.6,0.0,-2,-3
1685905090.25986385,69271447,0.44849279522895813,0.0,0.4912869334220886,0.5,-10.435510635375977,-10.454007148742676,-10.369543075561523,9.53,9.59,0.0,-5,-2
1685905090.35982394,69371407,0.41601306200027466,0.0,0.3869776427745819,0.5,-10.446516990661621,-10.44640827178955,-10.502799034118652,9.53,9.57,0.0,-10,-2
1685905090.45978379,69471367,0.41887030005455017,0.0,0.37888407707214355,0.5,-10.456567764282227,-10.438201904296875,-10.557700157165527,9.53,9.52,0.0,-14,-6
1685905090.55974388,69571327,0.43585696816444397,0.0,0.3937344551086426,0.5,-10.465084075927734,-10.437719345092773,-10.435967445373535,9.53,9.48,0.0,-15,-10
1685905090.65970397,69671287,0.4716312289237976,0.0,0.43317535519599915,0.5,-10.471626281738281,-10.448266983032227,-10.633049011230469,9.53,9.42,0.0,-12,-11
1685905090.75966382,69771247,0.5639661550521851,0.0,0.5534337759017944,0.5,-10.47589111328125,-10.463557243347168,-10.381278038024902,9.53,9.38,0.0,-6,-11
1685905090.85962391,69871207,0.5353084802627563,0.0,0.620663583278656,0.5,-10.477355003356934,-10.478941917419434,-10.410290718078613,9.53,9.34,0.0,0,-5
1685905090.95958400,69971167,0.5221540331840515,0.0,0.6364039182662964,0.5,-10.475702285766602,-10.489716529846191,-10.572088241577148,9.53,9.3,0.0,7,1
1685905091.05954385,70071127,0.5098370313644409,0.0,0.6178480982780457,0.5,-10.470677375793457,-10.485675811767578,-10.300466537475586,9.53,9.26,0.0,11,8
1685905091.15950394,70171087,0.511957049369812,0.0,0.6015743017196655,0.5,-10.46207046508789,-10.474915504455566,-10.273085594177246,9.53,9.24,0.0,14,13
1685905091.25946403,70271047,0.5079064965248108,0.0,0.6062313318252563,0.5,-10.449814796447754,-10.458703994750977,-10.577886581420898,9.53,9.21,0.0,16,17
1685905091.35942388,70371007,0.4878835380077362,0.0,0.5821422934532166,0.5,-10.433987617492676,-10.429178237915039,-10.43077278137207,9.53,9.200000000000001,0.0,16,19
1685905091.45938396,70470967,0.4837063252925873,0.0,0.539491593837738,0.5,-10.414710998535156,-10.398176193237305,-10.248248100280762,9.53,9.17,0.0,15,20
1685905091.55934381,70570927,0.5276652574539185,0.0,0.578864336013794,0.5,-10.392147064208984,-10.375329971313477,-10.188426971435547,9.53,9.14,0.0,19,19
1685905091.65930390,70670887,0.5222403407096863,0.0,0.6096352934837341,0.5,-10.36636734008789,-10.349209785461426,-10.21989917755127,9.53,9.09,0.0,22,21
1685905091.75926399,70770847,0.5096285939216614,0.0,0.6024919748306274,0.5,-10.337501525878906,-10.313157081604004,-10.32815170288086,9.53,9.06,0.0,22,25
1685905091.85922384,70870807,0.5006817579269409,0.0,0.5771030187606812,0.5,-10.305671691894531,-10.270635604858398,-10.126290321350098,9.53,9.03,0.0,22,26
1685905091.96001697,70971600,0.5072451829910278,0.0,0.5624865293502808,0.5,-10.271117210388184,-10.228398323059082,-10.472299575805664,9.53,9.01,0.0,22,26
1685905092.05997682,71071560,0.524261474609375,0.0,0.585300862789154,0.5,-10.23408031463623,-10.189801216125488,-10.093852996826172,9.53,9.0,0.0,24,26
1685905092.15993690,71171520,0.5498431921005249,0.0,0.5967471599578857,0.5,-10.19485855102539,-10.157976150512695,-10.363978385925293,9.53,8.99,0.0,29,27
1685905092.25989699,71271480,0.5576887130737305,0.0,0.6460622549057007,0.5,-10.153742790222168,-10.12923812866211,-10.169049263000488,9.53,8.98,0.0,34,30
1685905092.35985684,71371440,0.5752786993980408,0.0,0.6577945351600647,0.5,-10.110969543457031,-10.099411964416504,-10.25764274597168,9.53,8.99,0.0,40,34
1685905092.45981693,71471400,0.5848057866096497,0.0,0.6819738745689392,0.5,-10.06679916381836,-10.069519996643066,-10.10706901550293,9.53,9.0,0.0,45,39
1685905092.55977702,71571360,0.5963679552078247,0.0,0.6954754590988159,0.5,-10.021544456481934,-10.036625862121582,-10.148409843444824,9.53,9.01,0.0,50,43
1685905092.65973687,71671320,0.59993577003479,0.0,0.7101958990097046,0.5,-9.975470542907715,-9.999865531921387,-9.880753517150879,9.53,9.01,0.0,53,47
1685905092.75969696,71771280,0.6041544079780579,0.0,0.7157912254333496,0.5,-9.928759574890137,-9.958026885986328,-9.971212387084961,9.53,9.02,0.0,55,50
1685905092.85965681,71871240,0.5943036079406738,0.0,0.7166262269020081,0.5,-9.881548881530762,-9.908539772033691,-9.854043960571289,9.53,9.05,0.0,55,53
1685905092.95961690,71971200,0.5880453586578369,0.0,0.6978836059570312,0.5,-9.834066390991211,-9.852273941040039,-9.824774742126465,9.53,9.07,0.0,52,53
1685905093.05957699,72071160,0.582548201084137,0.0,0.6817037463188171,0.5,-9.786568641662598,-9.794916152954102,-9.967059135437012,9.53,9.06,0.0,49,51
1685905093.15953684,72171120,0.5762089490890503,0.0,0.6658179759979248,0.5,-9.739128112792969,-9.737342834472656,-9.672867774963379,9.53,9.07,0.0,46,49
1685905093.25949693,72271080,0.5863618850708008,0.0,0.6570454239845276,0.5,-9.691739082336426,-9.687239646911621,-9.587156295776367,9.53,9.06,0.0,45,46
1685905093.35945702,72371040,0.5849933624267578,0.0,0.6710081100463867,0.5,-9.644399642944336,-9.64065933227539,-9.820467948913574,9.53,9.08,0.0,46,46
1685905093.45941687,72471000,0.5740624666213989,0.0,0.6633951663970947,0.5,-9.597136497497559,-9.58838939666748,-9.490299224853516,9.53,9.09,0.0,44,46
1685905093.55937696,72570960,0.5824776291847229,0.0,0.6496606469154358,0.5,-9.550061225891113,-9.540189743041992,-9.497159957885742,9.53,9.11,0.0,44,44
1685905093.65933681,72670920,0.5809766054153442,0.0,0.6603968143463135,0.5,-9.503279685974121,-9.49459171295166,-9.743287086486816,9.53,9.11,0.0,44,44
1685905093.75929689,72770880,0.5725358128547668,0.0,0.6508274078369141,0.5,-9.456851959228516,-9.444527626037598,-9.658430099487305,9.53,9.11,0.0,42,44
1685905093.85925698,72870840,0.5892312526702881,0.0,0.6433312892913818,0.5,-9.410759925842285,-9.401894569396973,-9.40613079071045,9.53,9.13,0.0,43,42
1685905093.95921683,72970800,0.613612174987793,0.0,0.6704962253570557,0.5,-9.365117073059082,-9.370748519897461,-9.307266235351562,9.53,9.17,0.0,47,42
1685905094.06000996,73071593,0.6174713373184204,0.0,0.6916912794113159,0.5,-9.320201873779297,-9.337651252746582,-9.280776977539062,9.53,9.22,0.0,49,44
1685905094.15996981,73171553,0.6055126786231995,0.0,0.6851447224617004,0.5,-9.276352882385254,-9.295066833496094,-9.522856712341309,9.53,9.26,0.0,48,46
1685905094.25992990,73271513,0.5891730785369873,0.0,0.6594028472900391,0.5,-9.233853340148926,-9.245514869689941,-9.368881225585938,9.53,9.3,0.0,45,46
1685905094.35988998,73371473,0.5883627533912659,0.0,0.634519636631012,0.5,-9.192927360534668,-9.200814247131348,-9.345409393310547,9.53,9.31,0.0,42,43
1685905094.45984983,73471433,0.6015475392341614,0.0,0.6483521461486816,0.5,-9.153595924377441,-9.167853355407715,-9.097187042236328,9.53,9.33,0.0,42,40
1685905094.55980992,73571393,0.6072767972946167,0.0,0.6620410680770874,0.5,-9.115876197814941,-9.13818359375,-9.204794883728027,9.53,9.34,0.0,43,40
1685905094.65977001,73671353,0.6024850606918335,0.0,0.6653015613555908,0.5,-9.079773902893066,-9.105870246887207,-9.350602149963379,9.53,9.38,0.0,43,40
1685905094.75972986,73771313,0.5902929306030273,0.0,0.6405712962150574,0.5,-9.045522689819336,-9.06799602508545,-9.345263481140137,9.53,9.42,0.0,40,40
1685905094.85968995,73871273,0.5929768085479736,0.0,0.6298972964286804,0.5,-9.013387680053711,-9.036565780639648,-9.29295539855957,9.53,9.41,0.0,38,37
1685905094.95964980,73971233,0.6117823123931885,0.0,0.6494008302688599,0.5,-8.983246803283691,-9.017243385314941,-9.15169906616211,9.53,9.42,0.0,39,35
1685905095.05960989,74071193,0.6232776641845703,0.0,0.6781893372535706,0.5,-8.955001831054688,-9.00489330291748,-9.120287895202637,9.53,9.42,0.0,42,35
1685905095.15956998,74171153,0.630634605884552,0.0,0.6928204298019409,0.5,-8.92857551574707,-8.991501808166504,-8.837779998779297,9.53,9.450000000000001,0.0,44,37
1685905095.25952983,74271113,0.6292317509651184,0.0,0.6875714659690857,0.5,-8.90421199798584,-8.972272872924805,-8.920587539672852,9.53,9.49,0.0,43,39
1685905095.35948992,74371073,0.5979176163673401,0.0,0.6765220761299133,0.5,-8.882266998291016,-8.943796157836914,-8.91230583190918,9.53,9.48,0.0,39,39
1685905095.45945001,74471033,0.5623208284378052,0.0,0.626250684261322,0.5,-8.862489700317383,-8.90487289428711,-8.988814353942871,9.53,9.49,0.0,31,36
1685905095.55940986,74570993,0.5255923271179199,0.0,0.5663084387779236,0.5,-8.844657897949219,-8.866827011108398,-8.911640167236328,9.53,9.49,0.0,23,31
1685905095.65936995,74670953,0.4807214140892029,0.0,0.4933585822582245,0.5,-8.828570365905762,-8.835732460021973,-8.973281860351562,9.53,9.51,0.0,17,25
1685905095.75932980,74770913,0.48068201541900635,0.0,0.4331698417663574,0.5,-8.814228057861328,-8.813809394836426,-8.902461051940918,9.53,9.52,0.0,13,19
1685905095.85928988,74870873,0.49961963295936584,0.0,0.4446890950202942,0.5,-8.801562309265137,-8.800374984741211,-8.760108947753906,9.53,9.51,0.0,11,15
1685905095.95924997,74970833,0.5346668362617493,0.0,0.49440160393714905,0.5,-8.790251731872559,-8.794788360595703,-8.718242645263672,9.53,9.5,0.0,12,12
1685905096.05920982,75070793,0.5642515420913696,0.0,0.581092357635498,0.5,-8.779940605163574,-8.78967571258545,-8.826529502868652,9.53,9.49,0.0,12,11
1685905096.16000295,75171586,0.5319972038269043,0.0,0.5745230317115784,0.5,-8.770326614379883,-8.778362274169922,-8.500930786132812,9.53,9.49,0.0,11,12
1685905096.25996280,75271546,0.5106629133224487,0.0,0.5378496050834656,0.5,-8.761273384094238,-8.764486312866211,-8.630952835083008,9.53,9.49,0.0,9,12
1685905096.35992289,75371506,0.48458725214004517,0.0,0.5107417106628418,0.5,-8.752718925476074,-8.746980667114258,-8.824466705322266,9.53,9.5,0.0,6,11
1685905096.45988297,75471466,0.41506749391555786,0.0,0.3885307013988495,0.5,-8.744720458984375,-8.720734596252441,-8.54037857055664,9.53,9.51,0.0,0,9
1685905096.55984282,75571426,0.448743999004364,0.0,0.3698526620864868,0.5,-8.737354278564453,-8.701725006103516,-8.739319801330566,9.53,9.51,0.0,-3,4
1685905096.65980291,75671386,0.46138614416122437,0.0,0.3978240489959717,0.5,-8.730594635009766,-8.691479682922363,-8.476582527160645,9.53,9.52,0.0,-5,0
1685905096.75976300,75771346,0.46835461258888245,0.0,0.40751364827156067,0.5,-8.724449157714844,-8.683141708374023,-8.494074821472168,9.53,9.51,0.0,-6,-3
1685905096.85972285,75871306,0.47408443689346313,0.0,0.43978142738342285,0.5,-8.718719482421875,-8.67778491973877,-8.661459922790527,9.53,9.49,0.0,-6,-4
1685905096.95968294,75971266,0.4488247334957123,0.0,0.4256802201271057,0.5,-8.713068008422852,-8.666027069091797,-8.49386215209961,9.53,9.48,0.0,-8,-4
1685905097.05964279,76071226,0.4519386291503906,0.0,0.40744152665138245,0.5,-8.707256317138672,-8.655190467834473,-8.807210922241211,9.53,9.46,0.0,-9,-5
1685905097.15960288,76171186,0.46091702580451965,0.0,0.4244091808795929,0.5,-8.701034545898438,-8.64825439453125,-8.483282089233398,9.53,9.44,0.0,-9,-6
1685905097.25956297,76271146,0.47586068511009216,0.0,0.43573886156082153,0.5,-8.694235801696777,-8.64539623260498,-8.684855461120605,9.53,9.44,0.0,-7,-7
1685905097.35952282,76371106,0.5270880460739136,0.0,0.5036425590515137,0.5,-8.686758041381836,-8.648218154907227,-8.798041343688965,9.53,9.44,0.0,-3,-6
1685905097.45948291,76471066,0.5342733860015869,0.0,0.561159074306488,0.5,-8.678677558898926,-8.64748477935791,-8.44487190246582,9.53,9.44,0.0,-1,-4
1685905097.55944300,76571026,0.5490695834159851,0.0,0.5810307264328003,0.5,-8.670075416564941,-8.651772499084473,-8.628597259521484,9.53,9.42,0.0,3,-2
1685905097.65940285,76670986,0.532647430896759,0.0,0.6074104309082031,0.5,-8.660879135131836,-8.65307903289795,-8.607494354248047,9.53,9.41,0.0,7,2
1685905097.75936294,76770946,0.5085583925247192,0.0,0.5668584108352661,0.5,-8.650920867919922,-8.64229679107666,-8.589365005493164,9.53,9.38,0.0,7,6
1685905097.85932302,76870906,0.4981943666934967,0.0,0.5427497625350952,0.5,-8.639984130859375,-8.629236221313477,-8.540273666381836,9.53,9.38,0.0,8,8
1685905097.95928288,76970866,0.49458637833595276,0.0,0.5217940211296082,0.5,-8.627920150756836,-8.614153861999512,-8.655197143554688,9.53,9.36,0.0,8,9
1685905098.05924296,77070826,0.4828311800956726,0.0,0.5093239545822144,0.5,-8.61472225189209,-8.596831321716309,-8.72061824798584,9.53,9.34,0.0,8,10
1685905098.15920281,77170786,0.4700245261192322,0.0,0.48533573746681213,0.5,-8.600218772888184,-8.579072952270508,-8.553226470947266,9.53,9.31,0.0,8,11
1685905098.25999594,77271579,0.5166997313499451,0.0,0.5084042549133301,0.5,-8.584179878234863,-8.568461418151855,-8.455255508422852,9.53,9.290000000000001,0.0,12,11
1685905098.35995603,77371539,0.5428025126457214,0.0,0.6005480885505676,0.5,-8.566387176513672,-8.559313774108887,-8.478058815002441,9.53,9.26,0.0,16,12
1685905098.45991588,77471499,0.5218154788017273,0.0,0.6053645014762878,0.5,-8.546661376953125,-8.54156494140625,-8.616218566894531,9.53,9.24,0.0,19,17
1685905098.55987597,77571459,0.5091957449913025,0.0,0.5850813984870911,0.5,-8.524831771850586,-8.515274047851562,-8.424821853637695,9.53,9.22,0.0,19,20
1685905098.65983582,77671419,0.5152574777603149,0.0,0.5701540112495422,0.5,-8.500850677490234,-8.489110946655273,-8.645906448364258,9.53,9.200000000000001,0.0,21,22
1685905098.75979590,77771379,0.5234366059303284,0.0,0.5873581767082214,0.5,-8.474761009216309,-8.462240219116211,-8.589259147644043,9.53,9.18,0.0,23,23
1685905098.85975599,77871339,0.5365766286849976,0.0,0.5906506776809692,0.5,-8.446680068969727,-8.436888694763184,-8.392033576965332,9.53,9.18,0.0,26,24
1685905098.95971584,77971299,0.5587018132209778,0.0,0.622604250907898,0.5,-8.41682243347168,-8.417276382446289,-8.523677825927734,9.53,9.18,0.0,30,26
1685905099.05967593,78071259,0.5565696358680725,0.0,0.6431648135185242,0.5,-8.385497093200684,-8.39332103729248,-8.56219482421875,9.53,9.16,0.0,34,30
1685905099.15963602,78171219,0.561700701713562,0.0,0.6442435383796692,0.5,-8.352863311767578,-8.364953994750977,-8.325096130371094,9.53,9.14,0.0,36,33
1685905099.25959587,78271179,0.573046088218689,0.0,0.6557614803314209,0.5,-8.3189115524292,-8.33779525756836,-8.508257865905762,9.53,9.13,0.0,40,36
1685905099.35955596,78371139,0.5745016932487488,0.0,0.6737285256385803,0.5,-8.283679962158203,-8.308294296264648,-8.542523384094238,9.53,9.13,0.0,43,39
1685905099.45951581,78471099,0.5794451832771301,0.0,0.6722351908683777,0.5,-8.247306823730469,-8.27370834350586,-8.312657356262207,9.53,9.14,0.0,44,41
1685905099.55947590,78571059,0.5955832600593567,0.0,0.6852020025253296,0.5,-8.210021018981934,-8.244115829467773,-8.298584938049316,9.53,9.14,0.0,47,43
1685905099.65943599,78671019,0.6012278199195862,0.0,0.706778883934021,0.5,-8.17202377319336,-8.214425086975098,-8.0941162109375,9.53,9.13,0.0,51,45
1685905099.75939584,78770979,0.5993787050247192,0.0,0.7114793658256531,0.5,-8.133389472961426,-8.17691707611084,-8.060590744018555,9.53,9.120000000000001,0.0,51,48
1685905099.85935593,78870939,0.5877464413642883,0.0,0.7073996663093567,0.5,-8.094115257263184,-8.130960464477539,-7.966587066650391,9.53,9.120000000000001,0.0,50,50
1685905099.95931602,78970899,0.5697612762451172,0.0,0.6813603639602661,0.5,-8.054248809814453,-8.075101852416992,-7.909383773803711,9.53,9.13,0.0,46,49
1685905100.05927587,79070859,0.5499004125595093,0.0,0.6464450359344482,0.5,-8.013943672180176,-8.014518737792969,-8.17278003692627,9.53,9.13,0.0,40,46
1685905100.15923595,79170819,0.5278588533401489,0.0,0.6023173928260803,0.5,-7.973287582397461,-7.952139377593994,-7.958762168884277,9.53,9.13,0.0,34,42
1685905100.25919580,79270779,0.520135760307312,0.0,0.5566672086715698,0.5,-7.9323296546936035,-7.8981428146362305,-8.066252708435059,9.53,9.13,0.0,30,37
1685905100.35998893,79371572,0.5603984594345093,0.0,0.5857046246528625,0.5,-7.891117095947266,-7.8582844734191895,-7.818188190460205,9.53,9.13,0.0,31,33
1685905100.45994902,79471532,0.5756304264068604,0.0,0.6203596591949463,0.5,-7.849696159362793,-7.825692653656006,-7.750924110412598,9.53,9.14,0.0,34,32
1685905100.55990887,79571492,0.5813544392585754,0.0,0.6515799164772034,0.5,-7.808184623718262,-7.796056747436523,-7.995392799377441,9.53,9.16,0.0,37,34
1685905100.65986896,79671452,0.5750098824501038,0.0,0.6510584354400635,0.5,-7.766769886016846,-7.758935928344727,-7.661308288574219,9.53,9.18,0.0,38,37
1685905100.75982881,79771412,0.5831315517425537,0.0,0.6385883092880249,0.5,-7.725651741027832,-7.72116231918335,-7.6201348304748535,9.53,9.21,0.0,39,37
1685905100.85978889,79871372,0.5828587412834167,0.0,0.652381181716919,0.5,-7.685063362121582,-7.686182975769043,-7.8542609214782715,9.53,9.23,0.0,40,38
1685905100.95974898,79971332,0.5695109963417053,0.0,0.6368109583854675,0.5,-7.645178318023682,-7.642702579498291,-7.782797336578369,9.53,9.26,0.0,38,39
1685905101.05970883,80071292,0.568135142326355,0.0,0.6093640327453613,0.5,-7.606203556060791,-7.600525379180908,-7.857757568359375,9.53,9.290000000000001,0.0,36,37
1685905101.15966892,80171252,0.5863890051841736,0.0,0.6204814910888672,0.5,-7.568354606628418,-7.568683624267578,-7.6943230628967285,9.53,9.32,0.0,37,35
1685905101.25962901,80271212,0.6053801774978638,0.0,0.6424240469932556,0.5,-7.5318379402160645,-7.5451836585998535,-7.524733066558838,9.53,9.35,0.0,39,35
1685905101.35958886,80371172,0.613510012626648,0.0,0.671299934387207,0.5,-7.49683952331543,-7.526162624359131,-7.76558256149292,9.53,9.36,0.0,43,36
1685905101.45954895,80471132,0.602044403553009,0.0,0.68107008934021,0.5,-7.463361740112305,-7.500493049621582,-7.576134204864502,9.53,9.35,0.0,43,39
1685905101.55950880,80571092,0.6033228635787964,0.0,0.6691045165061951,0.5,-7.431208610534668,-7.4709153175354,-7.430255889892578,9.53,9.36,0.0,43,40
1685905101.65946889,80671052,0.6068233251571655,0.0,0.6739208698272705,0.5,-7.400324821472168,-7.444705009460449,-7.338282108306885,9.53,9.38,0.0,43,40
1685905101.75942898,80771012,0.5956297516822815,0.0,0.6665024161338806,0.5,-7.370821475982666,-7.412899971008301,-7.385429859161377,9.53,9.4,0.0,41,40
1685905101.85938883,80870972,0.5706110000610352,0.0,0.6382534503936768,0.5,-7.342834949493408,-7.373310089111328,-7.3936662673950195,9.53,9.41,0.0,36,38
1685905101.95934892,80970932,0.542952299118042,0.0,0.5899040699005127,0.5,-7.316414833068848,-7.330816745758057,-7.347779750823975,9.53,9.42,0.0,30,35
1685905102.05930901,81070892,0.5174369812011719,0.0,0.5395260453224182,0.5,-7.291585922241211,-7.293038845062256,-7.209001064300537,9.53,9.43,0.0,24,30
1685905102.15926886,81170852,0.5009983777999878,0.0,0.5031484961509705,0.5,-7.268350601196289,-7.261858940124512,-7.326510906219482,9.53,9.43,0.0,20,25
1685905102.25922894,81270812,0.47995302081108093,0.0,0.46903809905052185,0.5,-7.246545791625977,-7.233520984649658,-7.107413291931152,9.53,9.43,0.0,17,22
1685905102.36002183,81371605,0.4745382070541382,0.0,0.4349982440471649,0.5,-7.225994110107422,-7.207357883453369,-7.2294793128967285,9.53,9.44,0.0,14,19
1685905102.45998192,81471565,0.4817826449871063,0.0,0.4433543086051941,0.5,-7.206610679626465,-7.184470176696777,-7.308685302734375,9.53,9.43,0.0,12,16
1685905102.55994201,81571525,0.4720909297466278,0.0,0.4315558075904846,0.5,-7.188158988952637,-7.162759780883789,-7.069591045379639,9.53,9.43,0.0,10,14
1685905102.65990186,81671485,0.49159955978393555,0.0,0.43752166628837585,0.5,-7.170507907867432,-7.149162769317627,-7.240201473236084,9.53,9.450000000000001,0.0,10,12
1685905102.75986195,81771445,0.508416473865509,0.0,0.4766526520252228,0.5,-7.153804779052734,-7.1376142501831055,-7.361814975738525,9.53,9.47,0.0,11,11
1685905102.85982180,81871405,0.5030627846717834,0.0,0.48045966029167175,0.5,-7.138222694396973,-7.1262688636779785,-7.15364408493042,9.53,9.47,0.0,11,11
1685905102.95978189,81971365,0.5443635582923889,0.0,0.508974552154541,0.5,-7.123685359954834,-7.12353515625,-7.038417339324951,9.53,9.48,0.0,14,10
