,TimeUS,timestamp,ThI,ABst,ThO,ThH,DAlt,Alt,BAlt,DSAlt,SAlt,TAlt,DCRt,CRt,terrain_z,sub_z,rf
0,35571599,1685905056.560016,0.0,0.0,0.5,0.5,0.0,-0.1376984566450119,-0.3610363602638244,0.0,0.0,0.0,0,3,,,
1,35671559,1685905056.659976,0.0,0.0,0.5,0.5,0.0,-0.1303208172321319,-0.3125255107879638,0.0,0.0,0.0,0,3,,,
2,35771519,1685905056.7599359,0.0,0.0,0.5,0.5,0.0,-0.1261283010244369,-0.1290959864854812,0.0,0.0,0.0,0,3,,,
3,35871479,1685905056.859896,0.0,0.0,0.5,0.5,0.0,-0.1343112885951995,-0.140717476606369,0.0,0.0,0.0,0,2,,,
4,35971439,1685905056.9598556,0.0,0.0,0.5,0.5,0.0,-0.1450087875127792,-0.2043869644403457,0.0,0.0,0.0,0,1,,,
5,36071399,1685905057.059816,0.0,0.0,0.5,0.5,0.0,-0.1510455459356308,-0.3024936318397522,0.0,0.0,0.0,0,1,,,
6,36171359,1685905057.159776,0.0,0.0,0.5,0.5,0.0,-0.1555735170841217,-0.0835674405097961,0.0,0.0,0.0,0,1,,,
7,36271319,1685905057.2597358,0.0,0.0,0.5,0.5,0.0,-0.163382351398468,-0.2080819457769394,0.0,0.0,0.0,0,0,,,
8,36371279,1685905057.359696,0.0,0.0,0.5,0.5,0.0,-0.1719199120998382,-0.23207987844944,0.0,0.0,0.0,0,0,,,
9,36471239,1685905057.459656,0.0,0.0,0.5,0.5,0.0,-0.1753093004226684,-0.1434972882270813,0.0,0.0,0.0,0,0,,,
10,36571199,1685905057.5596159,0.0,0.0,0.5,0.5,0.0,-0.1803121119737625,-0.1955636143684387,0.0,0.0,0.0,0,0,,,
11,36671159,1685905057.659576,0.0,0.0,0.5,0.5,0.0,-0.1841015368700027,-0.2984534502029419,0.0,0.0,0.0,0,0,,,
12,36771119,1685905057.759536,0.0,0.0,0.5,0.5,0.0,-0.1860650479793548,-0.0975358709692955,0.0,0.0,0.0,0,0,,,
13,36871079,1685905057.8594959,0.0,0.0,0.4787499904632568,0.5,0.0,-0.1913613379001617,-0.0681967437267303,0.0,0.0,0.0,0,0,,,
14,36971039,1685905057.959456,0.0,0.0,0.25,0.5,0.0,-0.1993588507175445,-0.3850024044513702,0.0,0.0,0.0,0,-13,,,
15,37070999,1685905058.0594158,0.0,0.0,0.25,0.5,0.0,-0.2195114642381668,-0.4369730651378631,0.0,0.0,0.0,0,-33,,,
16,37170959,1685905058.159376,0.0,0.0,0.25,0.5,0.0,-0.2605228126049042,-0.2546364665031433,0.0,0.0,0.0,0,-47,,,
17,37270919,1685905058.259336,0.0,0.0,0.25,0.5,0.0,-0.3245562314987182,-0.164004310965538,0.0,0.0,0.0,0,-55,,,
18,37370879,1685905058.3592958,0.0,0.0,0.25,0.5,0.0,-0.3970669209957123,-0.3642562329769134,0.0,0.0,0.0,0,-60,,,
19,37470839,1685905058.459256,0.0,0.0,0.25,0.5,0.0,-0.463836133480072,-0.5391470193862915,0.0,0.0,0.0,0,-62,,,
20,37570799,1685905058.559216,0.0,0.0,0.25,0.5,0.0,-0.5263639688491821,-0.5098931789398193,0.0,0.0,0.0,0,-62,,,
21,37671592,1685905058.660009,0.0,0.0,0.25,0.5,0.0,-0.5935275554656982,-0.4565919935703277,0.0,0.0,0.0,0,-63,,,
22,37771552,1685905058.759969,0.0,0.0,0.25,0.5,0.0,-0.6631561517715454,-0.7799904346466064,0.0,0.0,0.0,0,-64,,,
23,37871512,1685905058.8599288,0.0,0.0,0.25,0.5,0.0,-0.7286125421524048,-0.5242546200752258,0.0,0.0,0.0,0,-64,,,
24,37971472,1685905058.9598887,0.0,0.0,0.25,0.5,0.0,-0.7946144342422485,-0.7243136167526245,0.0,0.0,0.0,0,-64,,,
25,38071432,1685905059.059849,0.0,0.0,0.25,0.5,0.0,-0.8611305356025696,-0.8609765768051147,0.0,0.0,0.0,0,-64,,,
26,38171392,1685905059.1598089,0.0,0.0,0.25,0.5,0.0,-0.9203957915306092,-0.872065544128418,0.0,0.0,0.0,0,-64,,,
27,38271352,1685905059.2597687,0.0,0.0,0.25,0.5,0.0,-0.9810903668403624,-0.864237904548645,0.0,0.0,0.0,0,-64,,,
28,38371312,1685905059.3597288,0.0,0.0,0.25,0.5,0.0,-1.0441629886627195,-0.9746922850608826,0.0,0.0,0.0,0,-64,,,
29,38471272,1685905059.459689,0.0,0.0,0.25,0.5,0.0,-1.1059324741363523,-1.090404987335205,0.0,0.0,0.0,0,-63,,,
30,38571232,1685905059.5596488,0.0,0.0,0.25,0.5,0.0,-1.1645711660385132,-0.9441134929656982,0.0,0.0,0.0,0,-63,,,
31,38671192,1685905059.6596088,0.0,0.0,0.25,0.5,0.0,-1.2244616746902466,-1.211390256881714,0.0,0.0,0.0,0,-63,,,
32,38771152,1685905059.7595687,0.0,0.0,0.25,0.5,0.0,-1.2822307348251345,-1.370921611785889,0.0,0.0,0.0,0,-63,,,
33,38871112,1685905059.859529,0.0,0.0,0.25,0.5,0.0,-1.3360079526901243,-1.1178611516952517,0.0,0.0,0.0,0,-62,,,
34,38971072,1685905059.9594889,0.0,0.0,0.25,0.5,0.0,-1.3969517946243286,-1.5827159881591797,0.0,0.0,0.0,0,-62,,,
35,39071032,1685905060.0594487,0.0,0.0,0.25,0.5,0.0,-1.4589694738388062,-1.4880810976028442,0.0,0.0,0.0,0,-62,,,
36,39170992,1685905060.1594088,0.0,0.0,0.25,0.5,0.0,-1.5201321840286257,-1.379895567893982,0.0,0.0,0.0,0,-62,,,
37,39270952,1685905060.259369,0.0,0.0,0.25,0.5,0.0,-1.591647744178772,-1.5895823240280151,0.0,0.0,0.0,0,-63,,,
38,39370912,1685905060.3593287,0.0,0.0,0.25,0.5,0.0,-1.660392165184021,-1.636306643486023,0.0,0.0,0.0,0,-63,,,
39,39470872,1685905060.4592888,0.0,0.0,0.25,0.5,0.0,-1.724483847618103,-1.7297807931900024,0.0,0.0,0.0,0,-63,,,
40,39570832,1685905060.5592487,0.0,0.0,0.25,0.5,0.0,-1.790054202079773,-1.8768614530563357,0.0,0.0,0.0,0,-64,,,
41,39670792,1685905060.659209,0.0,0.0,0.25,0.5,0.0,-1.8565683364868164,-1.9364054203033447,0.0,0.0,0.0,0,-64,,,
42,39771585,1685905060.760002,0.0,0.0,0.25,0.5,0.0,-1.9284900426864624,-2.055882453918457,0.0,0.0,0.0,0,-64,,,
43,39871545,1685905060.859962,0.0,0.0,0.25,0.5,0.0,-2.004549264907837,-1.7977160215377808,0.0,0.0,0.0,0,-65,,,
44,39971505,1685905060.9599218,0.0,0.0,0.25,0.5,0.0,-2.0856146812438965,-1.8881441354751587,0.0,0.0,0.0,0,-67,,,
45,40071465,1685905061.059882,0.0,0.0,0.25,0.5,0.0,-2.1614139080047607,-1.8878483772277832,0.0,0.0,0.0,0,-67,,,
46,40171425,1685905061.159842,0.0,0.0,0.25,0.5,0.0,-2.2241787910461426,-2.278639078140259,0.0,0.0,0.0,0,-67,,,
47,40271385,1685905061.2598019,0.0,0.0,0.25,0.5,0.0,-2.277089357376098,-2.0070455074310303,0.0,0.0,0.0,0,-66,,,
48,40371345,1685905061.359762,0.0,0.0,0.25,0.5,0.0,-2.330883502960205,-2.3628993034362797,0.0,0.0,0.0,0,-65,,,
49,40471305,1685905061.4597218,0.0,0.0,0.25,0.5,0.0,-2.384262800216675,-2.161331415176392,0.0,0.0,0.0,0,-64,,,
50,40571265,1685905061.559682,0.0,0.0,0.25,0.5,0.0,-2.4379467964172363,-2.1730141639709477,0.0,0.0,0.0,0,-63,,,
51,40671225,1685905061.659642,0.0,0.0,0.25,0.5,0.0,-2.491447925567627,-2.6348111629486084,0.0,0.0,0.0,0,-62,,,
52,40771185,1685905061.7596018,0.0,0.0,0.25,0.5,0.0,-2.536428928375244,-2.3613393306732178,0.0,0.0,0.0,0,-61,,,
53,40871145,1685905061.859562,0.0,0.0,0.25,0.5,0.0,-2.587021589279175,-2.396885395050049,0.0,0.0,0.0,0,-61,,,
54,40971105,1685905061.959522,0.0,0.0,0.25,0.5,0.0,-2.642676591873169,-2.4490177631378174,0.0,0.0,0.0,0,-60,,,
55,41071065,1685905062.0594819,0.0,0.0,0.25,0.5,0.0,-2.6919138431549072,-2.5103650093078613,0.0,0.0,0.0,0,-60,,,
56,41171025,1685905062.159442,0.0,0.0,0.25,0.5,0.0,-2.736098527908325,-2.9226906299591064,0.0,0.0,0.0,0,-58,,,
57,41270985,1685905062.2594018,0.0,0.0,0.25,0.5,0.0,-2.776759624481201,-2.9148526191711426,0.0,0.0,0.0,0,-57,,,
58,41370945,1685905062.359362,0.0,0.0,0.25,0.5,0.0,-2.826503276824951,-2.94364070892334,0.0,0.0,0.0,0,-57,,,
59,41470905,1685905062.459322,0.0,0.0,0.25,0.5,0.0,-2.891026496887207,-2.8976449966430664,0.0,0.0,0.0,0,-57,,,
60,41570865,1685905062.5592818,0.0,0.0,0.25,0.5,0.0,-2.963322401046753,-2.9867961406707764,0.0,0.0,0.0,0,-59,,,
61,41670825,1685905062.659242,0.0,0.0,0.25,0.5,0.0,-3.036947727203369,-2.853989839553833,0.0,0.0,0.0,0,-60,,,
62,41770785,1685905062.759202,0.0,0.0,0.25,0.5,0.0,-3.1090080738067627,-3.060349225997925,0.0,0.0,0.0,0,-61,,,
63,41871578,1685905062.859995,0.0,0.0,0.25,0.5,0.0,-3.174715518951416,-3.026388645172119,0.0,0.0,0.0,0,-61,,,
64,41971538,1685905062.9599547,0.0,0.0,0.25,0.5,0.0,-3.233705997467041,-3.283350706100464,0.0,0.0,0.0,0,-60,,,
65,42071498,1685905063.0599148,0.0,0.0,0.25,0.5,0.0,-3.2898595333099365,-3.2341461181640625,0.0,0.0,0.0,0,-60,,,
66,42171458,1685905063.159875,0.0,0.0,0.25,0.5,0.0,-3.3444504737854004,-3.229602098464966,0.0,0.0,0.0,0,-59,,,
67,42271418,1685905063.259835,0.0,0.0,0.25,0.5,0.0,-3.403526306152344,-3.311061143875122,0.0,0.0,0.0,0,-59,,,
68,42371378,1685905063.3597949,0.0,0.0,0.25,0.5,0.0,-3.460003137588501,-3.5194666385650635,0.0,0.0,0.0,0,-59,,,
69,42471338,1685905063.4597547,0.0,0.0,0.25,0.5,0.0,-3.513084650039673,-3.7057502269744873,0.0,0.0,0.0,0,-59,,,
70,42571298,1685905063.5597148,0.0,0.0,0.25,0.5,0.0,-3.56827974319458,-3.710764408111572,0.0,0.0,0.0,0,-58,,,
71,42671258,1685905063.659675,0.0,0.0,0.25,0.5,0.0,-3.633921623229981,-3.809645175933838,0.0,0.0,0.0,0,-59,,,
72,42771218,1685905063.7596347,0.0,0.0,0.25,0.5,0.0,-3.709329128265381,-3.8241126537323,0.0,0.0,0.0,0,-60,,,
73,42871178,1685905063.8595948,0.0,0.0,0.25,0.5,0.0,-3.790762424468994,-3.8877129554748535,0.0,0.0,0.0,0,-62,,,
74,42971138,1685905063.959555,0.0,0.0,0.25,0.5,0.0,-3.8762221336364746,-3.981464385986328,0.0,0.0,0.0,0,-64,,,
75,43071098,1685905064.059515,0.0,0.0,0.25,0.5,0.0,-3.9621851444244394,-3.9930906295776367,0.0,0.0,0.0,0,-65,,,
76,43171058,1685905064.1594748,0.0,0.0,0.25,0.5,0.0,-4.048394203186035,-3.887207508087158,0.0,0.0,0.0,0,-67,,,
77,43271018,1685905064.2594347,0.0,0.0,0.25,0.5,0.0,-4.133843421936035,-3.997137308120728,0.0,0.0,0.0,0,-68,,,
78,43370978,1685905064.359395,0.0,0.0,0.25,0.5,0.0,-4.211982727050781,-3.962406635284424,0.0,0.0,0.0,0,-68,,,
79,43470938,1685905064.4593549,0.0,0.0,0.25,0.5,0.0,-4.2794060707092285,-4.322347640991211,0.0,0.0,0.0,0,-68,,,
80,43570898,1685905064.5593147,0.0,0.0,0.25,0.5,0.0,-4.338106155395508,-4.033215045928955,0.0,0.0,0.0,0,-67,,,
81,43670858,1685905064.6592748,0.0,0.0,0.25,0.5,0.0,-4.393983364105225,-4.173591136932373,0.0,0.0,0.0,0,-66,,,
82,43770818,1685905064.759235,0.0,0.0,0.25,0.5,0.0,-4.450214385986328,-4.418586730957031,0.0,0.0,0.0,0,-65,,,
83,43871611,1685905064.860028,0.0,0.0,0.25,0.5,0.0,-4.496750354766846,-4.482194900512695,0.0,0.0,0.0,0,-64,,,
84,43971571,1685905064.9599879,0.0,0.0,0.25,0.5,0.0,-4.543147563934326,-4.279388427734375,0.0,0.0,0.0,0,-63,,,
85,44071531,1685905065.059948,0.0,0.0,0.25,0.5,0.0,-4.59666919708252,-4.689602375030518,0.0,0.0,0.0,0,-62,,,
86,44171491,1685905065.1599078,0.0,0.0,0.25,0.5,0.0,-4.649552345275879,-4.442918300628662,0.0,0.0,0.0,0,-62,,,
87,44271451,1685905065.259868,0.0,0.0,0.25,0.5,0.0,-4.700807094573975,-4.831689357757568,0.0,0.0,0.0,0,-61,,,
88,44371411,1685905065.359828,0.0,0.0,0.25,0.5,0.0,-4.757198333740234,-4.894318580627441,0.0,0.0,0.0,0,-61,,,
89,44471371,1685905065.4597878,0.0,0.0,0.25,0.5,0.0,-4.81370735168457,-4.65597677230835,0.0,0.0,0.0,0,-61,,,
90,44571331,1685905065.559748,0.0,0.0,0.25,0.5,0.0,-4.882147312164307,-4.926024436950684,0.0,0.0,0.0,0,-61,,,
91,44671291,1685905065.659708,0.0,0.0,0.25,0.5,0.0,-4.952493190765381,-4.924374103546143,0.0,0.0,0.0,0,-62,,,
92,44771251,1685905065.7596679,0.0,0.0,0.25,0.5,0.0,-5.017932891845703,-5.164768218994141,0.0,0.0,0.0,0,-62,,,
93,44871211,1685905065.859628,0.0,0.0,0.25,0.5,0.0,-5.0849456787109375,-5.15302848815918,0.0,0.0,0.0,0,-63,,,
94,44971171,1685905065.9595878,0.0,0.0,0.25,0.5,0.0,-5.156358242034912,-4.987974166870117,0.0,0.0,0.0,0,-63,,,
95,45071131,1685905066.059548,0.0,0.0,0.25,0.5,0.0,-5.233362197875977,-5.238471984863281,0.0,0.0,0.0,0,-64,,,
96,45171091,1685905066.159508,0.0,0.0,0.25,0.5,0.0,-5.304964065551758,-5.254784107208252,0.0,0.0,0.0,0,-65,,,
97,45271051,1685905066.2594678,0.0,0.0,0.25,0.5,0.0,-5.3719892501831055,-5.333652019500732,0.0,0.0,0.0,0,-65,,,
98,45371011,1685905066.359428,0.0,0.0,0.25,0.5,0.0,-5.439099311828613,-5.474213123321533,0.0,0.0,0.0,0,-65,,,
99,45470971,1685905066.459388,0.0,0.0,0.25,0.5,0.0,-5.505196571350098,-5.427940845489502,0.0,0.0,0.0,0,-65,,,
100,45570931,1685905066.5593479,0.0,0.0,0.25,0.5,0.0,-5.57321834564209,-5.480241775512695,0.0,0.0,0.0,0,-65,,,
101,45670891,1685905066.659308,0.0,0.0,0.25,0.5,0.0,-5.641303539276123,-5.343835353851318,0.0,0.0,0.0,0,-65,,,
102,45770851,1685905066.7592678,0.0,0.0,0.25,0.5,0.0,-5.705948352813721,-5.520007133483887,0.0,0.0,0.0,0,-65,,,
103,45870811,1685905066.859228,0.0,0.0,0.25,0.5,0.0,-5.7618184089660645,-5.542100429534912,0.0,0.0,0.0,0,-64,,,
104,45971604,1685905066.960021,0.0,0.0,0.25,0.5,0.0,-5.810004234313965,-5.533355236053467,0.0,0.0,0.0,0,-63,,,
105,46071564,1685905067.0599809,0.0,0.0,0.25,0.5,0.0,-5.853959560394287,-5.8679280281066895,0.0,0.0,0.0,0,-62,,,
106,46171524,1685905067.1599407,0.0,0.0,0.25,0.5,0.0,-5.892465591430664,-5.731513977050781,0.0,0.0,0.0,0,-60,,,
107,46271484,1685905067.2599008,0.0,0.0,0.25,0.5,0.0,-5.9341559410095215,-5.929908275604248,0.0,0.0,0.0,0,-59,,,
108,46371444,1685905067.359861,0.0,0.0,0.25,0.5,0.0,-5.979758262634277,-5.87236213684082,0.0,0.0,0.0,0,-58,,,
109,46471404,1685905067.4598207,0.0,0.0,0.25,0.5,0.0,-6.0283637046813965,-6.019195556640625,0.0,0.0,0.0,0,-58,,,
110,46571364,1685905067.5597808,0.0,0.0,0.25,0.5,0.0,-6.079546928405762,-5.988739490509033,0.0,0.0,0.0,0,-57,,,
111,46671324,1685905067.6597407,0.0,0.0,0.25,0.5,0.0,-6.132296562194824,-6.223079681396484,0.0,0.0,0.0,0,-57,,,
112,46771284,1685905067.759701,0.0,0.0,0.25,0.5,0.0,-6.1865949630737305,-6.11803150177002,0.0,0.0,0.0,0,-57,,,
113,46871244,1685905067.8596609,0.0,0.0,0.25,0.5,0.0,-6.244120597839356,-6.222465515136719,0.0,0.0,0.0,0,-57,,,
114,46971204,1685905067.9596207,0.0,0.0,0.25,0.5,0.0,-6.30418586730957,-6.1681671142578125,0.0,0.0,0.0,0,-57,,,
115,47071164,1685905068.0595808,0.0,0.0,0.25,0.5,0.0,-6.3629584312438965,-6.5548014640808105,0.0,0.0,0.0,0,-57,,,
116,47171124,1685905068.159541,0.0,0.0,0.25,0.5,0.0,-6.418699741363525,-6.378023624420166,0.0,0.0,0.0,0,-57,,,
117,47271084,1685905068.2595007,0.0,0.0,0.25,0.5,0.0,-6.479013442993164,-6.371477127075195,0.0,0.0,0.0,0,-57,,,
118,47371044,1685905068.3594608,0.0,0.0,0.25,0.5,0.0,-6.544297695159912,-6.617599487304688,0.0,0.0,0.0,0,-58,,,
119,47471004,1685905068.4594207,0.0,0.0,0.25,0.5,0.0,-6.604686260223389,-6.617049694061279,0.0,0.0,0.0,0,-58,,,
120,47570964,1685905068.559381,0.0,0.0,0.25,0.5,0.0,-6.665502548217773,-6.809106349945068,0.0,0.0,0.0,0,-58,,,
121,47670924,1685905068.6593409,0.0,0.0,0.25,0.5,0.0,-6.729673862457275,-6.849380493164063,0.0,0.0,0.0,0,-58,,,
122,47770884,1685905068.7593007,0.0,0.0,0.25,0.5,0.0,-6.798406600952148,-6.654487609863281,0.0,0.0,0.0,0,-59,,,
123,47870844,1685905068.8592608,0.0,0.0,0.25,0.5,0.0,-6.873195171356201,-6.780099868774414,0.0,0.0,0.0,0,-60,,,
124,47970804,1685905068.959221,0.0,0.0,0.25,0.5,0.0,-6.943804264068604,-7.142838954925537,0.0,0.0,0.0,0,-61,,,
125,48071597,1685905069.060014,0.0,0.0,0.25,0.5,0.0,-7.006811618804932,-6.965383529663086,0.0,0.0,0.0,0,-60,,,
126,48171557,1685905069.1599739,0.0,0.0,0.25,0.5,0.0,-7.074029922485352,-7.123594760894775,0.0,0.0,0.0,0,-61,,,
127,48271517,1685905069.259934,0.0,0.0,0.25,0.5,0.0,-7.145349502563477,-6.938629627227783,0.0,0.0,0.0,0,-61,,,
128,48371477,1685905069.3598938,0.0,0.0,0.25,0.5,0.0,-7.214718818664551,-7.30694580078125,0.0,0.0,0.0,0,-62,,,
129,48471437,1685905069.459854,0.0,0.0,0.25,0.5,0.0,-7.279879093170166,-7.122623443603516,0.0,0.0,0.0,0,-62,,,
130,48571397,1685905069.559814,0.0,0.0,0.25,0.5,0.0,-7.341219902038574,-7.481048107147217,0.0,0.0,0.0,0,-62,,,
131,48671357,1685905069.6597738,0.0,0.0,0.25,0.5,0.0,-7.404324531555176,-7.347159385681152,0.0,0.0,0.0,0,-62,,,
132,48771317,1685905069.759734,0.0,0.0,0.25,0.5,0.0,-7.466832160949707,-7.372677803039551,0.0,0.0,0.0,0,-62,,,
133,48871277,1685905069.859694,0.0,0.0,0.25,0.5,0.0,-7.535205841064453,-7.681595325469971,0.0,0.0,0.0,0,-62,,,
134,48971237,1685905069.9596539,0.0,0.0,0.25,0.5,0.0,-7.599176406860352,-7.477178573608398,0.0,0.0,0.0,0,-62,,,
135,49071197,1685905070.059614,0.0,0.0,0.25,0.5,0.0,-7.664797306060791,-7.463607311248779,0.0,0.0,0.0,0,-62,,,
136,49171157,1685905070.1595736,0.0,0.0,0.25,0.5,0.0,-7.733770370483398,-7.648184776306152,0.0,0.0,0.0,0,-63,,,
137,49271117,1685905070.259534,0.0,0.0,0.25,0.5,0.0,-7.794271945953369,-7.8428850173950195,0.0,0.0,0.0,0,-63,,,
138,49371077,1685905070.359494,0.0,0.0,0.25,0.5,0.0,-7.84902286529541,-7.965016841888428,0.0,0.0,0.0,0,-62,,,
139,49471037,1685905070.4594538,0.0,0.0,0.25,0.5,0.0,-7.906820297241211,-7.915896892547607,0.0,0.0,0.0,0,-62,,,
140,49570997,1685905070.559414,0.0,0.0,0.25,0.5,0.0,-7.972623825073242,-8.12155818939209,0.0,0.0,0.0,0,-62,,,
141,49670957,1685905070.659374,0.0,0.0,0.25,0.5,0.0,-8.043691635131836,-7.988258361816406,0.0,0.0,0.0,0,-63,,,
142,49770917,1685905070.7593338,0.0,0.0,0.25,0.5,0.0,-8.117853164672852,-7.921872615814209,0.0,0.0,0.0,0,-64,,,
143,49870877,1685905070.859294,0.0,0.0,0.25,0.5,0.0,-8.194424629211426,-8.208918571472168,0.0,0.0,0.0,0,-64,,,
144,49970837,1685905070.959254,0.0,0.0,0.25,0.5,0.0,-8.262677192687988,-8.102869033813477,0.0,0.0,0.0,0,-65,,,
145,50070797,1685905071.0592139,0.0,0.0,0.25,0.5,0.0,-8.325489044189453,-8.058141708374023,0.0,0.0,0.0,0,-64,,,
146,50171590,1685905071.160007,0.0,0.0,0.25,0.5,0.0,-8.387677192687988,-8.496970176696777,0.0,0.0,0.0,0,-64,,,
147,50271550,1685905071.2599669,0.0,0.0,0.25,0.5,0.0,-8.440352439880371,-8.43355941772461,0.0,0.0,0.0,0,-63,,,
148,50371510,1685905071.3599267,0.0,0.0,0.25,0.5,0.0,-8.495146751403809,-8.353490829467773,0.0,0.0,0.0,0,-63,,,
149,50471470,1685905071.459887,0.0,0.0,0.25,0.5,0.0,-8.557848930358887,-8.6829252243042,0.0,0.0,0.0,0,-63,,,
150,50571430,1685905071.5598469,0.0,0.0,0.25,0.5,0.0,-8.618253707885742,-8.360982894897461,0.0,0.0,0.0,0,-63,,,
151,50671390,1685905071.6598067,0.0,0.0,0.25,0.5,0.0,-8.682265281677246,-8.527544975280762,0.0,0.0,0.0,0,-63,,,
152,50771350,1685905071.7597668,0.0,0.0,0.25,0.5,0.0,-8.744161605834961,-8.500824928283691,0.0,0.0,0.0,0,-63,,,
153,50871310,1685905071.859727,0.0,0.0,0.25,0.5,0.0,-8.797489166259766,-8.919458389282227,0.0,0.0,0.0,0,-62,,,
154,50971270,1685905071.9596868,0.0,0.0,0.25,0.5,0.0,-8.845586776733398,-8.963544845581055,0.0,0.0,0.0,0,-61,,,
155,51071230,1685905072.0596468,0.0,0.0,0.25,0.5,0.0,-8.897359848022461,-8.777627944946289,0.0,0.0,0.0,0,-60,,,
156,51171190,1685905072.1596067,0.0,0.0,0.25,0.5,0.0,-8.961251258850098,-8.758648872375488,0.0,0.0,0.0,0,-61,,,
157,51271150,1685905072.259567,0.0,0.0,0.25,0.5,0.0,-9.026177406311035,-8.84805679321289,0.0,0.0,0.0,0,-61,,,
158,51371110,1685905072.3595269,0.0,0.0,0.25,0.5,0.0,-9.08316421508789,-9.209614753723145,0.0,0.0,0.0,0,-61,,,
159,51471070,1685905072.4594867,0.0,0.0,0.25,0.5,0.0,-9.133317947387695,-8.915166854858398,0.0,0.0,0.0,0,-60,,,
160,51571030,1685905072.5594468,0.0,0.0,0.25,0.5,0.0,-9.188201904296877,-9.364435195922852,0.0,0.0,0.0,0,-60,,,
161,51670990,1685905072.659407,0.0,0.0,0.25,0.5,0.0,-9.244028091430664,-9.221949577331545,0.0,0.0,0.0,0,-59,,,
162,51770950,1685905072.7593668,0.0,0.0,0.25,0.5,0.0,-9.30280303955078,-9.489203453063965,0.0,0.0,0.0,0,-59,,,
163,51870910,1685905072.8593268,0.0,0.0,0.25,0.5,0.0,-9.368142127990724,-9.21514892578125,0.0,0.0,0.0,0,-60,,,
164,51970870,1685905072.9592867,0.0,0.0,0.25,0.5,0.0,-9.43869972229004,-9.526374816894531,0.0,0.0,0.0,0,-61,,,
165,52070830,1685905073.059247,0.0,0.0,0.25,0.5,0.0,-9.50852108001709,-9.596759796142578,0.0,0.0,0.0,0,-61,,,
166,52170790,1685905073.1592069,0.0,0.0,0.25,0.5,0.0,-9.576042175292969,-9.382542610168455,0.0,0.0,0.0,0,-62,,,
167,52271583,1685905073.26,0.0,0.0,0.25,0.5,0.0,-9.649019241333008,-9.755029678344728,0.0,0.0,0.0,0,-62,,,
168,52371543,1685905073.3599598,0.0,0.0,0.25,0.5,0.0,-9.71671199798584,-9.513936042785645,0.0,0.0,0.0,0,-63,,,
169,52471503,1685905073.45992,0.0,0.0,0.25,0.5,0.0,-9.781614303588867,-9.89799976348877,0.0,0.0,0.0,0,-63,,,
170,52571463,1685905073.55988,0.0,0.0,0.25,0.5,0.0,-9.846574783325195,-9.942486763000488,0.0,0.0,0.0,0,-63,,,
171,52671423,1685905073.6598399,0.0,0.0,0.25,0.5,0.0,-9.90784740447998,-9.672998428344728,0.0,0.0,0.0,0,-62,,,
172,52771383,1685905073.7598,0.0,0.0,0.25,0.5,0.0,-9.977842330932615,-9.871622085571287,0.0,0.0,0.0,0,-63,,,
173,52871343,1685905073.8597598,0.0,0.0,0.25,0.5,0.0,-10.045432090759276,-9.979820251464844,0.0,0.0,0.0,0,-63,,,
174,52971303,1685905073.95972,0.0,0.0,0.25,0.5,0.0,-10.10325527191162,-10.182586669921877,0.0,0.0,0.0,0,-63,,,
175,53071263,1685905074.05968,0.0,0.0,0.25,0.5,0.0,-10.160322189331056,-10.186338424682615,0.0,0.0,0.0,0,-62,,,
176,53171223,1685905074.1596398,0.0,0.0,0.25,0.5,0.0,-10.220507621765137,-10.11054801940918,0.0,0.0,0.0,0,-62,,,
177,53271183,1685905074.2596,0.0,0.0,0.25,0.5,0.0,-10.286787986755373,-10.15231704711914,0.0,0.0,0.0,0,-62,,,
178,53371143,1685905074.35956,0.0,0.0,0.5,0.5,0.0,-10.351035118103027,-10.11989688873291,0.0,0.0,0.0,0,-55,,,
179,53471103,1685905074.4595199,0.0,0.0,0.5,0.5,0.0,-10.395929336547852,-10.419337272644045,0.0,0.0,0.0,0,-41,,,
180,53571063,1685905074.55948,0.0,0.0,0.5,0.5,0.0,-10.42333698272705,-10.54408359527588,0.0,0.0,0.0,0,-32,,,
181,53671023,1685905074.6594398,0.0,0.0,0.5,0.5,0.0,-10.441535949707031,-10.374414443969728,0.0,0.0,0.0,0,-25,,,
182,53770983,1685905074.7594,0.0,0.0,0.5,0.5,0.0,-10.463543891906738,-10.32768440246582,0.0,0.0,0.0,0,-21,,,
183,53870943,1685905074.85936,0.0,0.0,0.5,0.5,0.0,-10.486473083496094,-10.610767364501951,0.0,0.0,0.0,0,-19,,,
184,53970903,1685905074.9593198,0.0,0.0,0.5,0.5,0.0,-10.501666069030762,-10.591638565063477,0.0,0.0,0.0,0,-16,,,
185,54070863,1685905075.05928,0.0,0.0,0.5,0.5,0.0,-10.514593124389648,-10.439814567565918,0.0,0.0,0.0,0,-14,,,
186,54170823,1685905075.15924,0.0,0.0,0.5,0.5,0.0,-10.533411979675291,-10.57624626159668,0.0,0.0,0.0,0,-13,,,
187,54270783,1685905075.2591999,0.0,0.0,0.5,0.5,0.0,-10.550997734069824,-10.597925186157228,0.0,0.0,0.0,0,-12,,,
188,54371576,1685905075.3599927,0.0,0.0,0.5,0.5,0.0,-10.564623832702637,-10.565776824951172,0.0,0.0,0.0,0,-11,,,
189,54471536,1685905075.4599528,0.0,0.0,0.5,0.5,0.0,-10.579184532165527,-10.43544101715088,0.0,0.0,0.0,0,-10,,,
190,54571496,1685905075.5599127,0.0,0.0,0.5,0.5,0.0,-10.593297958374023,-10.385713577270508,0.0,0.0,0.0,0,-9,,,
191,54671456,1685905075.659873,0.0,0.0,0.5,0.5,0.0,-10.602115631103516,-10.385858535766602,0.0,0.0,0.0,0,-8,,,
192,54771416,1685905075.7598329,0.0,0.0,0.5,0.5,0.0,-10.601075172424316,-10.399200439453123,0.0,0.0,0.0,0,-7,,,
193,54871376,1685905075.8597927,0.0,0.0,0.5,0.5,0.0,-10.590754508972168,-10.441701889038086,0.0,0.0,0.0,0,-4,,,
194,54971336,1685905075.9597528,0.0,0.0,0.5,0.5,0.0,-10.57386589050293,-10.34119987487793,0.0,0.0,0.0,0,-2,,,
195,55071296,1685905076.059713,0.0,0.0,0.5,0.5,0.0,-10.553686141967772,-10.538535118103027,0.0,0.0,0.0,0,0,,,
196,55171256,1685905076.1596727,0.0,0.0,0.5,0.5,0.0,-10.530661582946776,-10.472484588623049,0.0,0.0,0.0,0,1,,,
197,55271216,1685905076.2596328,0.0,0.0,0.5,0.5,0.0,-10.507088661193848,-10.530713081359863,0.0,0.0,0.0,0,3,,,
198,55371176,1685905076.359593,0.0,0.0,0.5,0.5,0.0,-10.488834381103516,-10.507225036621094,0.0,0.0,0.0,0,4,,,
199,55471136,1685905076.459553,0.0,0.0,0.5,0.5,0.0,-10.473834037780762,-10.577554702758787,0.0,0.0,0.0,0,5,,,
200,55571096,1685905076.5595129,0.0,0.0,0.5,0.5,0.0,-10.463085174560549,-10.619580268859863,0.0,0.0,0.0,0,6,,,
201,55671056,1685905076.6594727,0.0,0.0,0.5,0.5,0.0,-10.456343650817873,-10.696381568908691,0.0,0.0,0.0,0,7,,,
202,55771016,1685905076.7594328,0.0,0.0,0.5,0.5,0.0,-10.45589828491211,-10.397022247314451,0.0,0.0,0.0,0,7,,,
203,55870976,1685905076.859393,0.0,0.0,0.5,0.5,0.0,-10.462932586669922,-10.688610076904297,0.0,0.0,0.0,0,6,,,
204,55970936,1685905076.9593527,0.0,0.0,0.5,0.5,0.0,-10.470995903015137,-10.382400512695312,0.0,0.0,0.0,0,6,,,
205,56070896,1685905077.0593128,0.0,0.0,0.5,0.5,0.0,-10.47601318359375,-10.752113342285156,0.0,0.0,0.0,0,6,,,
206,56170856,1685905077.159273,0.0,0.0,0.5,0.5,0.0,-10.481518745422363,-10.484570503234863,0.0,0.0,0.0,0,5,,,
207,56270816,1685905077.259233,0.0,0.0,0.5,0.5,0.0,-10.484962463378906,-10.596847534179688,0.0,0.0,0.0,0,5,,,
208,56371609,1685905077.360026,0.0,0.0,0.5,0.5,0.0,-10.494348526000977,-10.425713539123535,0.0,0.0,0.0,0,5,,,
209,56471569,1685905077.459986,0.0,0.0,0.5,0.5,0.0,-10.499342918395996,-10.532772064208984,0.0,0.0,0.0,0,5,,,
210,56571529,1685905077.5599458,0.0,0.0,0.5,0.5,0.0,-10.50060749053955,-10.60756015777588,0.0,0.0,0.0,0,5,,,
211,56671489,1685905077.659906,0.0,0.0,0.5,0.5,0.0,-10.49771213531494,-10.697364807128906,0.0,0.0,0.0,0,5,,,
212,56771449,1685905077.759866,0.0,0.0,0.5,0.5,0.0,-10.496861457824709,-10.53431510925293,0.0,0.0,0.0,0,6,,,
213,56871409,1685905077.8598258,0.0,0.0,0.5,0.5,0.0,-10.501873016357422,-10.412690162658691,0.0,0.0,0.0,0,5,,,
214,56971369,1685905077.959786,0.0,0.0,0.5,0.5,0.0,-10.508713722229004,-10.480408668518066,0.0,0.0,0.0,0,5,,,
215,57071329,1685905078.059746,0.0,0.0,0.5,0.5,0.0,-10.509143829345703,-10.408793449401855,0.0,0.0,0.0,0,5,,,
216,57171289,1685905078.1597059,0.0,0.0,0.5,0.5,0.0,-10.50381088256836,-10.38632869720459,0.0,0.0,0.0,0,5,,,
217,57271249,1685905078.259666,0.0,0.0,0.5,0.5,0.0,-10.49419403076172,-10.404288291931152,0.0,0.0,0.0,0,6,,,
218,57371209,1685905078.3596258,0.0,0.0,0.5,0.5,0.0,-10.479239463806152,-10.570643424987791,0.0,0.0,0.0,0,7,,,
219,57471169,1685905078.459586,0.0,0.0,0.5,0.5,0.0,-10.461339950561523,-10.415812492370604,0.0,0.0,0.0,0,8,,,
220,57571129,1685905078.559546,0.0,0.0,0.5,0.5,0.0,-10.445664405822754,-10.432806968688965,0.0,0.0,0.0,0,8,,,
221,57671089,1685905078.6595058,0.0,0.0,0.5,0.5,0.0,-10.434314727783203,-10.39168930053711,0.0,0.0,0.0,0,9,,,
222,57771049,1685905078.759466,0.0,0.0,0.5,0.5,0.0,-10.421897888183594,-10.3662109375,0.0,0.0,0.0,0,9,,,
223,57871009,1685905078.859426,0.0,0.0,0.5,0.5,0.0,-10.409053802490234,-10.55461311340332,0.0,0.0,0.0,0,9,,,
224,57970969,1685905078.9593859,0.0,0.0,0.5,0.5,0.0,-10.394535064697266,-10.436686515808104,0.0,0.0,0.0,0,10,,,
225,58070929,1685905079.059346,0.0,0.0,0.5,0.5,0.0,-10.382725715637209,-10.544745445251465,0.0,0.0,0.0,0,10,,,
226,58170889,1685905079.1593058,0.0,0.0,0.5,0.5,0.0,-10.3770112991333,-10.276566505432127,0.0,0.0,0.0,0,9,,,
227,58270849,1685905079.259266,0.0,0.0,0.5,0.5,0.0,-10.37452793121338,-10.596247673034668,0.0,0.0,0.0,0,9,,,
228,58370809,1685905079.359226,0.0,0.0,0.5,0.5,0.0,-10.372430801391602,-10.401480674743652,0.0,0.0,0.0,0,8,,,
229,58471602,1685905079.4600189,0.0,0.0,0.5,0.5,0.0,-10.368982315063477,-10.46372890472412,0.0,0.0,0.0,0,8,,,
230,58571562,1685905079.5599787,0.0,0.0,0.5,0.5,0.0,-10.37121868133545,-10.36526870727539,0.0,0.0,0.0,0,8,,,
231,58671522,1685905079.6599388,0.0,0.0,0.5,0.5,0.0,-10.372446060180664,-10.258399963378906,0.0,0.0,0.0,0,7,,,
232,58771482,1685905079.759899,0.0,0.0,0.5,0.5,0.0,-10.373069763183594,-10.289068222045898,0.0,0.0,0.0,0,7,,,
233,58871442,1685905079.8598588,0.0,0.0,0.5,0.5,0.0,-10.367864608764648,-10.153801918029783,0.0,0.0,0.0,0,7,,,
234,58971402,1685905079.9598188,0.0,0.0,0.5,0.5,0.0,-10.355854034423828,-10.347352981567385,0.0,0.0,0.0,0,7,,,
235,59071362,1685905080.0597787,0.0,0.0,0.5,0.5,0.0,-10.337516784667969,-10.500269889831545,0.0,0.0,0.0,0,8,,,
236,59108000,1685905080.0597787,0.0,0.0,0.5,0.5,0.0,-10.337516784667969,-10.500269889831545,0.0,0.0,0.0,0,8,-20.0,-10.37496700278583,9.53003299721417
237,59171322,1685905080.159739,0.0,0.0,0.5,0.5,0.0,-10.315105438232422,-10.47657585144043,0.0,9.52,0.0,0,9,-20.0,-10.37496700278583,9.53003299721417
238,59209000,1685905080.159739,0.0,0.0,0.5,0.5,0.0,-10.315105438232422,-10.47657585144043,0.0,9.52,0.0,0,9,-20.0,-10.373191065619732,9.531808934380267
239,59271282,1685905080.2596989,0.0,0.0,0.5,0.5,0.0,-10.300248146057127,-10.241241455078123,0.0,9.52,0.0,0,9,-20.0,-10.373191065619732,9.531808934380267
240,59310000,1685905080.2596989,0.0,0.0,0.5,0.5,0.0,-10.300248146057127,-10.241241455078123,0.0,9.52,0.0,0,9,-20.0,-10.37236464914728,9.532635350852718
241,59371242,1685905080.3596587,0.0,0.0,0.5,0.5,0.0,-10.296099662780762,-10.232413291931152,0.0,9.52,0.0,0,9,-20.0,-10.37236464914728,9.532635350852718
242,59413000,1685905080.3596587,0.0,0.0,0.5,0.5,0.0,-10.296099662780762,-10.232413291931152,0.0,9.52,0.0,0,9,-20.0,-10.3715088009056,9.5334911990944
243,59471202,1685905080.4596188,0.0,0.0,0.5,0.5,0.0,-10.29417324066162,-10.097823143005373,0.0,9.52,0.0,0,8,-20.0,-10.3715088009056,9.5334911990944
244,59513000,1685905080.4596188,0.0,0.0,0.5,0.5,0.0,-10.29417324066162,-10.097823143005373,0.0,9.52,0.0,0,8,-20.0,-10.370623685053909,9.534376314946092
245,59571162,1685905080.559579,0.0,0.0,0.5,0.5,0.0,-10.286382675170898,-10.251180648803713,0.0,9.52,0.0,0,8,-20.0,-10.370623685053909,9.534376314946092
246,59617000,1685905080.559579,0.0,0.0,0.5,0.5,0.0,-10.286382675170898,-10.251180648803713,0.0,9.52,0.0,0,8,-20.0,-10.369709370740258,9.53529062925974
247,59671122,1685905080.6595387,0.0,0.0,0.5,0.5,0.0,-10.271618843078612,-10.314007759094238,0.0,9.52,0.0,0,9,-20.0,-10.369709370740258,9.53529062925974
248,59717000,1685905080.6595387,0.0,0.0,0.5,0.5,0.0,-10.271618843078612,-10.314007759094238,0.0,9.52,0.0,0,9,-20.0,-10.359580297273467,9.545419702726532
249,59771082,1685905080.7594988,0.0,0.0,0.5,0.5,0.0,-10.2512788772583,-10.315799713134766,0.0,9.53,0.0,0,10,-20.0,-10.359580297273467,9.545419702726532
250,59818000,1685905080.7594988,0.0,0.0,0.5,0.5,0.0,-10.2512788772583,-10.315799713134766,0.0,9.53,0.0,0,10,-20.0,-10.343329685158963,9.561670314841036
251,59871042,1685905080.8594587,0.0,0.0,0.5,0.5,0.0,-10.234076499938965,-10.205207824707031,0.0,9.55,0.0,0,10,-20.0,-10.343329685158963,9.561670314841036
252,59922000,1685905080.8594587,0.0,0.0,0.5,0.5,0.0,-10.234076499938965,-10.205207824707031,0.0,9.55,0.0,0,10,-20.0,-10.327263171090843,9.577736828909156
253,59971002,1685905080.959419,0.0,0.0,0.5,0.5,0.0,-10.22189712524414,-10.274128913879396,0.0,9.56,0.0,0,10,-20.0,-10.327263171090843,9.577736828909156
254,60022000,1685905080.959419,0.0,0.0,0.5,0.5,0.0,-10.22189712524414,-10.274128913879396,0.0,9.56,0.0,0,10,-20.0,-10.316519867272715,9.588480132727284
255,60070962,1685905081.0593789,0.0,0.0,0.5,0.5,0.0,-10.211666107177734,-10.368559837341309,0.0,9.57,0.0,0,10,-20.0,-10.316519867272715,9.588480132727284
256,60126000,1685905081.0593789,0.0,0.0,0.5,0.5,0.0,-10.211666107177734,-10.368559837341309,0.0,9.57,0.0,0,10,-20.0,-10.305447059468404,9.599552940531597
257,60170922,1685905081.1593387,0.3977085053920746,0.0,0.4708678424358368,0.5,-10.168072700500488,-10.201393127441406,-10.034585952758787,9.53,9.58,0.0,9,10,-20.0,-10.305447059468404,9.599552940531597
258,60226000,1685905081.1593387,0.3977085053920746,0.0,0.4708678424358368,0.5,-10.168072700500488,-10.201393127441406,-10.034585952758787,9.53,9.58,0.0,9,10,-20.0,-10.295262325242168,9.609737674757833
259,60270882,1685905081.2592988,0.4829066693782806,0.0,0.4061788320541382,0.5,-10.168395042419434,-10.197388648986816,-10.404152870178224,9.53,9.59,0.0,8,6,-20.0,-10.295262325242168,9.609737674757833
260,60326000,1685905081.2592988,0.4829066693782806,0.0,0.4061788320541382,0.5,-10.168395042419434,-10.197388648986816,-10.404152870178224,9.53,9.59,0.0,8,6,-20.0,-10.288589617335871,9.616410382664128
261,60370842,1685905081.359259,0.483158528804779,0.0,0.4409329295158386,0.5,-10.169456481933594,-10.196078300476074,-10.023605346679688,9.53,9.6,0.0,6,4,-20.0,-10.288589617335871,9.616410382664128
262,60435000,1685905081.359259,0.483158528804779,0.0,0.4409329295158386,0.5,-10.169456481933594,-10.196078300476074,-10.023605346679688,9.53,9.6,0.0,6,4,-20.0,-10.2796955624439,9.6253044375561
263,60470802,1685905081.4592187,0.4700687527656555,0.0,0.4187384843826294,0.5,-10.17136573791504,-10.19342041015625,-10.182368278503418,9.53,9.61,0.0,4,3,-20.0,-10.2796955624439,9.6253044375561
264,60536000,1685905081.4592187,0.4700687527656555,0.0,0.4187384843826294,0.5,-10.17136573791504,-10.19342041015625,-10.182368278503418,9.53,9.61,0.0,4,3,-20.0,-10.264325105209805,9.640674894790196
265,60571595,1685905081.5600119,0.4810593724250793,0.0,0.4427777528762817,0.5,-10.174175262451172,-10.194214820861816,-10.037772178649902,9.53,9.63,0.0,2,1,-20.0,-10.264325105209805,9.640674894790196
266,60642000,1685905081.5600119,0.4810593724250793,0.0,0.4427777528762817,0.5,-10.174175262451172,-10.194214820861816,-10.037772178649902,9.53,9.63,0.0,2,1,-20.0,-10.24810951864057,9.65689048135943
267,60671555,1685905081.659972,0.4574161767959595,0.0,0.4094318449497223,0.5,-10.178001403808594,-10.18953800201416,-10.226395606994627,9.53,9.64,0.0,0,0,-20.0,-10.24810951864057,9.65689048135943
268,60742000,1685905081.659972,0.4574161767959595,0.0,0.4094318449497223,0.5,-10.178001403808594,-10.18953800201416,-10.226395606994627,9.53,9.64,0.0,0,0,-20.0,-10.233060776437595,9.671939223562404
269,60771515,1685905081.7599318,0.4523028135299682,0.0,0.3961996734142303,0.5,-10.182966232299805,-10.183697700500488,-10.189985275268556,9.53,9.66,0.0,-5,-2,-20.0,-10.233060776437595,9.671939223562404
270,60843000,1685905081.7599318,0.4523028135299682,0.0,0.3961996734142303,0.5,-10.182966232299805,-10.183697700500488,-10.189985275268556,9.53,9.66,0.0,-5,-2,-20.0,-10.219030518397297,9.685969481602704
271,60871475,1685905081.859892,0.4585781097412109,0.0,0.3794050216674804,0.5,-10.189164161682127,-10.180978775024414,-10.15841007232666,9.53,9.67,0.0,-9,-6,-20.0,-10.219030518397297,9.685969481602704
272,60952000,1685905081.859892,0.4585781097412109,0.0,0.3794050216674804,0.5,-10.189164161682127,-10.180978775024414,-10.15841007232666,9.53,9.67,0.0,-9,-6,-20.0,-10.20672397625077,9.69827602374923
273,60971435,1685905081.959852,0.467226892709732,0.0,0.3917605578899383,0.5,-10.196682929992676,-10.186309814453123,-10.186924934387209,9.53,9.68,0.0,-11,-10,-20.0,-10.20672397625077,9.69827602374923
274,61052000,1685905081.959852,0.467226892709732,0.0,0.3917605578899383,0.5,-10.196682929992676,-10.186309814453123,-10.186924934387209,9.53,9.68,0.0,-11,-10,-20.0,-10.203326142689162,9.701673857310835
275,61071395,1685905082.0598118,0.4711101949214935,0.0,0.4053430557250976,0.5,-10.205522537231444,-10.195716857910156,-10.370713233947754,9.53,9.69,0.0,-12,-12,-20.0,-10.203326142689162,9.701673857310835
276,61166000,1685905082.0598118,0.4711101949214935,0.0,0.4053430557250976,0.5,-10.205522537231444,-10.195716857910156,-10.370713233947754,9.53,9.69,0.0,-12,-12,-20.0,-10.199500267707078,9.70549973229292
277,61171355,1685905082.159772,0.4714193940162658,0.0,0.4098260700702667,0.5,-10.215673446655272,-10.20746898651123,-10.327980995178224,9.53,9.69,0.0,-13,-14,-20.0,-10.199500267707078,9.70549973229292
278,61266000,1685905082.159772,0.4714193940162658,0.0,0.4098260700702667,0.5,-10.215673446655272,-10.20746898651123,-10.327980995178224,9.53,9.69,0.0,-13,-14,-20.0,-10.19651451322745,9.708485486772547
279,61271315,1685905082.259732,0.4854000210762024,0.0,0.4199655652046203,0.5,-10.227052688598633,-10.226282119750977,-10.41449737548828,9.53,9.69,0.0,-12,-15,-20.0,-10.19651451322745,9.708485486772547
280,61371275,1685905082.3596919,0.5189789533615112,0.0,0.467738538980484,0.5,-10.239498138427734,-10.252272605895996,-10.444440841674805,9.53,9.69,0.0,-9,-15,-20.0,-10.19651451322745,9.708485486772547
281,61380000,1685905082.3596919,0.5189789533615112,0.0,0.467738538980484,0.5,-10.239498138427734,-10.252272605895996,-10.444440841674805,9.53,9.69,0.0,-9,-15,-20.0,-10.194058369858649,9.71094163014135
282,61471235,1685905082.459652,0.5784096121788025,0.0,0.5442953705787659,0.5,-10.252878189086914,-10.2819242477417,-10.298626899719238,9.53,9.7,0.0,-5,-14,-20.0,-10.194058369858649,9.71094163014135
283,61480000,1685905082.459652,0.5784096121788025,0.0,0.5442953705787659,0.5,-10.252878189086914,-10.2819242477417,-10.298626899719238,9.53,9.7,0.0,-5,-14,-20.0,-10.191248447779303,9.713751552220696
284,61571195,1685905082.5596118,0.5719226598739624,0.0,0.6081682443618774,0.5,-10.26717758178711,-10.314319610595703,-10.428597450256348,9.53,9.7,0.0,0,-11,-20.0,-10.191248447779303,9.713751552220696
285,61581000,1685905082.5596118,0.5719226598739624,0.0,0.6081682443618774,0.5,-10.26717758178711,-10.314319610595703,-10.428597450256348,9.53,9.7,0.0,0,-11,-20.0,-10.187479664096823,9.717520335903174
286,61671155,1685905082.659572,0.5540836453437805,0.0,0.612388014793396,0.5,-10.282303810119627,-10.340450286865234,-10.48389720916748,9.53,9.7,0.0,1,-6,-20.0,-10.187479664096823,9.717520335903174
287,61685000,1685905082.659572,0.5540836453437805,0.0,0.612388014793396,0.5,-10.282303810119627,-10.340450286865234,-10.48389720916748,9.53,9.7,0.0,1,-6,-20.0,-10.183561736431168,9.721438263568832
288,61771115,1685905082.759532,0.5337048768997192,0.0,0.5767341256141663,0.5,-10.29815673828125,-10.359216690063477,-10.401654243469238,9.53,9.71,0.0,2,-2,-20.0,-10.183561736431168,9.721438263568832
289,61786000,1685905082.759532,0.5337048768997192,0.0,0.5767341256141663,0.5,-10.29815673828125,-10.359216690063477,-10.401654243469238,9.53,9.71,0.0,2,-2,-20.0,-10.18433103045604,9.72066896954396
290,61871075,1685905082.8594918,0.5241792798042297,0.0,0.5486705303192139,0.5,-10.314757347106934,-10.37710189819336,-10.430238723754885,9.53,9.71,0.0,1,-1,-20.0,-10.18433103045604,9.72066896954396
291,61895000,1685905082.8594918,0.5241792798042297,0.0,0.5486705303192139,0.5,-10.314757347106934,-10.37710189819336,-10.430238723754885,9.53,9.71,0.0,1,-1,-20.0,-10.193887029793151,9.711112970206848
292,61971035,1685905082.959452,0.5166788697242737,0.0,0.5374966263771057,0.5,-10.332013130187988,-10.392855644226074,-10.493864059448242,9.53,9.7,0.0,0,-1,-20.0,-10.193887029793151,9.711112970206848
293,61996000,1685905082.959452,0.5166788697242737,0.0,0.5374966263771057,0.5,-10.332013130187988,-10.392855644226074,-10.493864059448242,9.53,9.7,0.0,0,-1,-20.0,-10.207386153200478,9.697613846799522
294,62070995,1685905083.059412,0.4993524551391601,0.0,0.5194898843765259,0.5,-10.349684715270996,-10.405256271362305,-10.41793441772461,9.53,9.68,0.0,-1,-1,-20.0,-10.207386153200478,9.697613846799522
295,62096000,1685905083.059412,0.4993524551391601,0.0,0.5194898843765259,0.5,-10.349684715270996,-10.405256271362305,-10.41793441772461,9.53,9.68,0.0,-1,-1,-20.0,-10.230383135161071,9.674616864838928
296,62170955,1685905083.1593719,0.4685166478157043,0.0,0.4801313579082489,0.5,-10.367419242858888,-10.41743278503418,-10.264859199523926,9.53,9.66,0.0,-2,-1,-20.0,-10.230383135161071,9.674616864838928
297,62200000,1685905083.1593719,0.4685166478157043,0.0,0.4801313579082489,0.5,-10.367419242858888,-10.41743278503418,-10.264859199523926,9.53,9.66,0.0,-2,-1,-20.0,-10.254382756063102,9.650617243936898
298,62270915,1685905083.259332,0.4661460220813751,0.0,0.4533353149890899,0.5,-10.384857177734377,-10.428492546081545,-10.233229637145996,9.53,9.64,0.0,-4,-2,-20.0,-10.254382756063102,9.650617243936898
299,62300000,1685905083.259332,0.4661460220813751,0.0,0.4533353149890899,0.5,-10.384857177734377,-10.428492546081545,-10.233229637145996,9.53,9.64,0.0,-4,-2,-20.0,-10.279447308623377,9.625552691376624
300,62370875,1685905083.3592916,0.4440839886665344,0.0,0.4406907856464386,0.5,-10.401678085327148,-10.432565689086914,-10.164642333984377,9.53,9.61,0.0,-7,-2,-20.0,-10.279447308623377,9.625552691376624
301,62403000,1685905083.3592916,0.4440839886665344,0.0,0.4406907856464386,0.5,-10.401678085327148,-10.432565689086914,-10.164642333984377,9.53,9.61,0.0,-7,-2,-20.0,-10.305233760935543,9.599766239064454
302,62470835,1685905083.4592519,0.414166510105133,0.0,0.396911084651947,0.5,-10.41749668121338,-10.427589416503906,-10.247381210327148,9.53,9.58,0.0,-12,-3,-20.0,-10.305233760935543,9.599766239064454
303,62503000,1685905083.4592519,0.414166510105133,0.0,0.396911084651947,0.5,-10.41749668121338,-10.427589416503906,-10.247381210327148,9.53,9.58,0.0,-12,-3,-20.0,-10.33004437639712,9.57495562360288
304,62570795,1685905083.559212,0.4032793045043945,0.0,0.3684301376342773,0.5,-10.43195915222168,-10.416128158569336,-10.208130836486816,9.53,9.56,0.0,-18,-7,-20.0,-10.33004437639712,9.57495562360288
305,62604000,1685905083.559212,0.4032793045043945,0.0,0.3684301376342773,0.5,-10.43195915222168,-10.416128158569336,-10.208130836486816,9.53,9.56,0.0,-18,-7,-20.0,-10.35378906309308,9.55121093690692
306,62671588,1685905083.6600049,0.4013296663761139,0.0,0.3531212508678436,0.5,-10.444870948791504,-10.404644012451172,-10.09703540802002,9.53,9.54,0.0,-24,-12,-20.0,-10.35378906309308,9.55121093690692
307,62707000,1685905083.6600049,0.4013296663761139,0.0,0.3531212508678436,0.5,-10.444870948791504,-10.404644012451172,-10.09703540802002,9.53,9.54,0.0,-24,-12,-20.0,-10.376370128429718,9.52862987157028
308,62771548,1685905083.7599647,0.4003641605377197,0.0,0.3561316132545471,0.5,-10.456079483032228,-10.39723014831543,-10.378098487854004,9.53,9.51,0.0,-27,-18,-20.0,-10.376370128429718,9.52862987157028
309,62807000,1685905083.7599647,0.4003641605377197,0.0,0.3561316132545471,0.5,-10.456079483032228,-10.39723014831543,-10.378098487854004,9.53,9.51,0.0,-27,-18,-20.0,-10.38767657511173,9.51732342488827
310,62871508,1685905083.8599248,0.3943023681640625,0.0,0.3530214428901672,0.5,-10.465380668640137,-10.3900146484375,-10.168577194213867,9.53,9.5,0.0,-31,-21,-20.0,-10.38767657511173,9.51732342488827
311,62911000,1685905083.8599248,0.3943023681640625,0.0,0.3530214428901672,0.5,-10.465380668640137,-10.3900146484375,-10.168577194213867,9.53,9.5,0.0,-31,-21,-20.0,-10.399395633054027,9.50560436694597
312,62971468,1685905083.959885,0.407571017742157,0.0,0.3474258184432983,0.5,-10.47279453277588,-10.388799667358398,-10.397059440612791,9.53,9.49,0.0,-31,-24,-20.0,-10.399395633054027,9.50560436694597
313,63011000,1685905083.959885,0.407571017742157,0.0,0.3474258184432983,0.5,-10.47279453277588,-10.388799667358398,-10.397059440612791,9.53,9.49,0.0,-31,-24,-20.0,-10.410735428937688,9.494264571062311
314,63071428,1685905084.0598447,0.4203196167945862,0.0,0.370972990989685,0.5,-10.478397369384766,-10.39526081085205,-10.28519058227539,9.53,9.48,0.0,-29,-25,-20.0,-10.410735428937688,9.494264571062311
315,63115000,1685905084.0598447,0.4203196167945862,0.0,0.370972990989685,0.5,-10.478397369384766,-10.39526081085205,-10.28519058227539,9.53,9.48,0.0,-29,-25,-20.0,-10.422630243389596,9.482369756610405
316,63171388,1685905084.1598048,0.4325900077819824,0.0,0.3819089829921722,0.5,-10.482280731201172,-10.403680801391602,-10.310199737548828,9.53,9.47,0.0,-26,-25,-20.0,-10.422630243389596,9.482369756610405
317,63215000,1685905084.1598048,0.4325900077819824,0.0,0.3819089829921722,0.5,-10.482280731201172,-10.403680801391602,-10.310199737548828,9.53,9.47,0.0,-26,-25,-20.0,-10.431684689454483,9.473315310545514
318,63271348,1685905084.259765,0.454867959022522,0.0,0.4174002707004547,0.5,-10.484505653381348,-10.41667938232422,-10.227588653564451,9.53,9.46,0.0,-21,-22,-20.0,-10.431684689454483,9.473315310545514
319,63316000,1685905084.259765,0.454867959022522,0.0,0.4174002707004547,0.5,-10.484505653381348,-10.41667938232422,-10.227588653564451,9.53,9.46,0.0,-21,-22,-20.0,-10.424689677994936,9.480310322005062
320,63371308,1685905084.359725,0.4666169881820678,0.0,0.4443872570991516,0.5,-10.485150337219238,-10.426855087280272,-10.377141952514648,9.53,9.47,0.0,-17,-19,-20.0,-10.424689677994936,9.480310322005062
321,63419000,1685905084.359725,0.4666169881820678,0.0,0.4443872570991516,0.5,-10.485150337219238,-10.426855087280272,-10.377141952514648,9.53,9.47,0.0,-17,-19,-20.0,-10.417495777067044,9.487504222932955
322,63471268,1685905084.4596848,0.4657662808895111,0.0,0.4556483626365661,0.5,-10.484461784362791,-10.431951522827148,-10.485807418823242,9.53,9.47,0.0,-14,-15,-20.0,-10.417495777067044,9.487504222932955
323,63519000,1685905084.4596848,0.4657662808895111,0.0,0.4556483626365661,0.5,-10.484461784362791,-10.431951522827148,-10.485807418823242,9.53,9.47,0.0,-14,-15,-20.0,-10.410081732418382,9.494918267581616
324,63571228,1685905084.5596447,0.4502381980419159,0.0,0.4347825646400451,0.5,-10.482722282409668,-10.432400703430176,-10.695182800292969,9.53,9.48,0.0,-12,-12,-20.0,-10.410081732418382,9.494918267581616
325,63622000,1685905084.5596447,0.4502381980419159,0.0,0.4347825646400451,0.5,-10.482722282409668,-10.432400703430176,-10.695182800292969,9.53,9.48,0.0,-12,-12,-20.0,-10.399552431777384,9.505447568222614
326,63671188,1685905084.659605,0.4680524468421936,0.0,0.4314518570899963,0.5,-10.480159759521484,-10.436558723449709,-10.349225997924805,9.53,9.49,0.0,-10,-11,-20.0,-10.399552431777384,9.505447568222614
327,63723000,1685905084.659605,0.4680524468421936,0.0,0.4314518570899963,0.5,-10.480159759521484,-10.436558723449709,-10.349225997924805,9.53,9.49,0.0,-10,-11,-20.0,-10.390984777843617,9.514015222156385
328,63771148,1685905084.7595649,0.5158548951148987,0.0,0.4720040559768677,0.5,-10.477056503295898,-10.450754165649414,-10.477835655212402,9.53,9.5,0.0,-4,-10,-20.0,-10.390984777843617,9.514015222156385
329,63823000,1685905084.7595649,0.5158548951148987,0.0,0.4720040559768677,0.5,-10.477056503295898,-10.450754165649414,-10.477835655212402,9.53,9.5,0.0,-4,-10,-20.0,-10.39387934546461,9.51112065453539
330,63871108,1685905084.8595247,0.5960912704467773,0.0,0.6108486652374268,0.5,-10.473657608032228,-10.469204902648926,-10.500635147094728,9.53,9.5,0.0,2,-8,-20.0,-10.39387934546461,9.51112065453539
331,63930000,1685905084.8595247,0.5960912704467773,0.0,0.6108486652374268,0.5,-10.473657608032228,-10.469204902648926,-10.500635147094728,9.53,9.5,0.0,2,-8,-20.0,-10.39800389517788,9.506996104822118
332,63971068,1685905084.9594848,0.5506100058555603,0.0,0.6095385551452637,0.5,-10.470102310180664,-10.477422714233398,-10.538926124572754,9.53,9.49,0.0,5,-1,-20.0,-10.39800389517788,9.506996104822118
333,64030000,1685905084.9594848,0.5506100058555603,0.0,0.6095385551452637,0.5,-10.470102310180664,-10.477422714233398,-10.538926124572754,9.53,9.49,0.0,5,-1,-20.0,-10.407518347112813,9.497481652887188
334,64071028,1685905085.059445,0.5333908200263977,0.0,0.5906255841255188,0.5,-10.466353416442873,-10.480402946472168,-10.578536987304688,9.53,9.48,0.0,8,2,-20.0,-10.407518347112813,9.497481652887188
335,64133000,1685905085.059445,0.5333908200263977,0.0,0.5906255841255188,0.5,-10.466353416442873,-10.480402946472168,-10.578536987304688,9.53,9.48,0.0,8,2,-20.0,-10.417304344737929,9.487695655262073
336,64170988,1685905085.1594048,0.5248507261276245,0.0,0.5723361372947693,0.5,-10.462279319763184,-10.4804048538208,-10.488384246826172,9.53,9.47,0.0,9,6,-20.0,-10.417304344737929,9.487695655262073
337,64234000,1685905085.1594048,0.5248507261276245,0.0,0.5723361372947693,0.5,-10.462279319763184,-10.4804048538208,-10.488384246826172,9.53,9.47,0.0,9,6,-20.0,-10.425884016800646,9.479115983199351
338,64270948,1685905085.2593648,0.5265040993690491,0.0,0.565147340297699,0.5,-10.45775032043457,-10.479898452758787,-10.494599342346191,9.53,9.46,0.0,11,8,-20.0,-10.425884016800646,9.479115983199351
339,64334000,1685905085.2593648,0.5265040993690491,0.0,0.565147340297699,0.5,-10.45775032043457,-10.479898452758787,-10.494599342346191,9.53,9.46,0.0,11,8,-20.0,-10.429518243107507,9.47548175689249
340,64370908,1685905085.3593247,0.5274679064750671,0.0,0.5713229775428772,0.5,-10.45265769958496,-10.477826118469238,-10.50526523590088,9.53,9.46,0.0,12,10,-20.0,-10.429518243107507,9.47548175689249
341,64437000,1685905085.3593247,0.5274679064750671,0.0,0.5713229775428772,0.5,-10.45265769958496,-10.477826118469238,-10.50526523590088,9.53,9.46,0.0,12,10,-20.0,-10.434490290168736,9.470509709831264
342,64470868,1685905085.459285,0.5152748823165894,0.0,0.5576881766319275,0.5,-10.446982383728027,-10.47117519378662,-10.495266914367676,9.53,9.46,0.0,13,11,-20.0,-10.434490290168736,9.470509709831264
343,64538000,1685905085.459285,0.5152748823165894,0.0,0.5576881766319275,0.5,-10.446982383728027,-10.47117519378662,-10.495266914367676,9.53,9.46,0.0,13,11,-20.0,-10.445882133988093,9.459117866011908
344,64570828,1685905085.5592449,0.5040963888168335,0.0,0.535716712474823,0.5,-10.44079303741455,-10.46204948425293,-10.405517578125,9.53,9.44,0.0,12,12,-20.0,-10.445882133988093,9.459117866011908
345,64641000,1685905085.5592449,0.5040963888168335,0.0,0.535716712474823,0.5,-10.44079303741455,-10.46204948425293,-10.405517578125,9.53,9.44,0.0,12,12,-20.0,-10.457596937148317,9.447403062851684
346,64670788,1685905085.6592047,0.5053503513336182,0.0,0.5288048386573792,0.5,-10.434017181396484,-10.452016830444336,-10.440474510192873,9.53,9.43,0.0,12,12,-20.0,-10.457596937148317,9.447403062851684
347,64741000,1685905085.6592047,0.5053503513336182,0.0,0.5288048386573792,0.5,-10.434017181396484,-10.452016830444336,-10.440474510192873,9.53,9.43,0.0,12,12,-20.0,-10.468336546166386,9.436663453833614
348,64771581,1685905085.7599978,0.501378059387207,0.0,0.5269299149513245,0.5,-10.42648696899414,-10.439735412597656,-10.381109237670898,9.53,9.42,0.0,11,12,-20.0,-10.468336546166386,9.436663453833614
349,64841000,1685905085.7599978,0.501378059387207,0.0,0.5269299149513245,0.5,-10.42648696899414,-10.439735412597656,-10.381109237670898,9.53,9.42,0.0,11,12,-20.0,-10.474775363309538,9.43022463669046
350,64871541,1685905085.859958,0.4729450047016144,0.0,0.5005117654800415,0.5,-10.41812515258789,-10.424559593200684,-10.48124885559082,9.53,9.42,0.0,10,13,-20.0,-10.474775363309538,9.43022463669046
351,64945000,1685905085.859958,0.4729450047016144,0.0,0.5005117654800415,0.5,-10.41812515258789,-10.424559593200684,-10.48124885559082,9.53,9.42,0.0,10,13,-20.0,-10.480542553798289,9.424457446201712
352,64971501,1685905085.959918,0.4470304548740387,0.0,0.4450825750827789,0.5,-10.408947944641112,-10.407933235168455,-10.528965950012209,9.53,9.41,0.0,9,13,-20.0,-10.480542553798289,9.424457446201712
353,65045000,1685905085.959918,0.4470304548740387,0.0,0.4450825750827789,0.5,-10.408947944641112,-10.407933235168455,-10.528965950012209,9.53,9.41,0.0,9,13,-20.0,-10.479892958261674,9.425107041738324
354,65071461,1685905086.0598779,0.455899715423584,0.0,0.4256450533866882,0.5,-10.3989839553833,-10.392168045043944,-10.391472816467283,9.53,9.41,0.0,8,11,-20.0,-10.479892958261674,9.425107041738324
355,65148000,1685905086.0598779,0.455899715423584,0.0,0.4256450533866882,0.5,-10.3989839553833,-10.392168045043944,-10.391472816467283,9.53,9.41,0.0,8,11,-20.0,-10.479223746596096,9.425776253403903
356,65171421,1685905086.159838,0.4826850891113281,0.0,0.4465568661689758,0.5,-10.38825798034668,-10.383245468139648,-10.64723300933838,9.53,9.41,0.0,9,10,-20.0,-10.479223746596096,9.425776253403903
357,65249000,1685905086.159838,0.4826850891113281,0.0,0.4465568661689758,0.5,-10.38825798034668,-10.383245468139648,-10.64723300933838,9.53,9.41,0.0,9,10,-20.0,-10.477447310172623,9.427552689827376
358,65271381,1685905086.2597978,0.5252866148948669,0.0,0.5031847953796387,0.5,-10.37686538696289,-10.377779960632324,-10.555438995361328,9.53,9.41,0.0,11,9,-20.0,-10.477447310172623,9.427552689827376
359,65349000,1685905086.2597978,0.5252866148948669,0.0,0.5031847953796387,0.5,-10.37686538696289,-10.377779960632324,-10.555438995361328,9.53,9.41,0.0,11,9,-20.0,-10.467599822465942,9.437400177534055
360,65371341,1685905086.359758,0.5551000833511353,0.0,0.5731026530265808,0.5,-10.36489486694336,-10.375635147094728,-10.379937171936035,9.53,9.42,0.0,15,10,-20.0,-10.467599822465942,9.437400177534055
361,65452000,1685905086.359758,0.5551000833511353,0.0,0.5731026530265808,0.5,-10.36489486694336,-10.375635147094728,-10.379937171936035,9.53,9.42,0.0,15,10,-20.0,-10.45739464236645,9.447605357633549
362,65471301,1685905086.459718,0.5686820149421692,0.0,0.6194178462028503,0.5,-10.352505683898926,-10.38049602508545,-10.325117111206056,9.53,9.43,0.0,20,13,-20.0,-10.45739464236645,9.447605357633549
363,65553000,1685905086.459718,0.5686820149421692,0.0,0.6194178462028503,0.5,-10.352505683898926,-10.38049602508545,-10.325117111206056,9.53,9.43,0.0,20,13,-20.0,-10.44687552906774,9.458124470932258
364,65571261,1685905086.5596778,0.5611280798912048,0.0,0.6332336664199829,0.5,-10.339913368225098,-10.381333351135254,-10.602389335632324,9.53,9.44,0.0,25,17,-20.0,-10.44687552906774,9.458124470932258
365,65656000,1685905086.5596778,0.5611280798912048,0.0,0.6332336664199829,0.5,-10.339913368225098,-10.381333351135254,-10.602389335632324,9.53,9.44,0.0,25,17,-20.0,-10.436036427157006,9.468963572842991
366,65671221,1685905086.659638,0.5432459115982056,0.0,0.6127973794937134,0.5,-10.32732391357422,-10.36783218383789,-10.534944534301758,9.53,9.45,0.0,24,21,-20.0,-10.436036427157006,9.468963572842991
367,65756000,1685905086.659638,0.5432459115982056,0.0,0.6127973794937134,0.5,-10.32732391357422,-10.36783218383789,-10.534944534301758,9.53,9.45,0.0,24,21,-20.0,-10.424462668215645,9.480537331784356
368,65771181,1685905086.759598,0.5407997369766235,0.0,0.578313410282135,0.5,-10.314905166625977,-10.35364055633545,-10.247732162475586,9.53,9.47,0.0,23,22,-20.0,-10.424462668215645,9.480537331784356
369,65860000,1685905086.759598,0.5407997369766235,0.0,0.578313410282135,0.5,-10.314905166625977,-10.35364055633545,-10.247732162475586,9.53,9.47,0.0,23,22,-20.0,-10.40477451006311,9.50022548993689
370,65871141,1685905086.8595579,0.5621711015701294,0.0,0.5888816714286804,0.5,-10.302881240844728,-10.346179962158203,-10.303645133972168,9.53,9.49,0.0,24,21,-20.0,-10.40477451006311,9.50022548993689
371,65960000,1685905086.8595579,0.5621711015701294,0.0,0.5888816714286804,0.5,-10.302881240844728,-10.346179962158203,-10.303645133972168,9.53,9.49,0.0,24,21,-20.0,-10.387518083914514,9.517481916085485
372,65971101,1685905086.959518,0.550896942615509,0.0,0.6012385487556458,0.5,-10.291526794433594,-10.3338623046875,-10.20854949951172,9.53,9.5,0.0,23,21,-20.0,-10.387518083914514,9.517481916085485
373,66060000,1685905086.959518,0.550896942615509,0.0,0.6012385487556458,0.5,-10.291526794433594,-10.3338623046875,-10.20854949951172,9.53,9.5,0.0,23,21,-20.0,-10.38327462219384,9.52172537780616
374,66071061,1685905087.0594778,0.518951952457428,0.0,0.5611799955368042,0.5,-10.281027793884276,-10.312979698181152,-10.273927688598633,9.53,9.51,0.0,19,21,-20.0,-10.38327462219384,9.52172537780616
375,66163000,1685905087.0594778,0.518951952457428,0.0,0.5611799955368042,0.5,-10.281027793884276,-10.312979698181152,-10.273927688598633,9.53,9.51,0.0,19,21,-20.0,-10.378906159994354,9.526093840005643
376,66171021,1685905087.159438,0.4620456993579864,0.0,0.4920330047607422,0.5,-10.271442413330078,-10.287489891052246,-10.195335388183594,9.53,9.51,0.0,13,19,-20.0,-10.378906159994354,9.526093840005643
377,66264000,1685905087.159438,0.4620456993579864,0.0,0.4920330047607422,0.5,-10.271442413330078,-10.287489891052246,-10.195335388183594,9.53,9.51,0.0,13,19,-20.0,-10.375326911847631,9.529673088152366
378,66270981,1685905087.259398,0.4401531815528869,0.0,0.3843728601932525,0.5,-10.262740135192873,-10.26109504699707,-10.416289329528809,9.53,9.51,0.0,7,16,-20.0,-10.375326911847631,9.529673088152366
379,66367000,1685905087.259398,0.4401531815528869,0.0,0.3843728601932525,0.5,-10.262740135192873,-10.26109504699707,-10.416289329528809,9.53,9.51,0.0,7,16,-20.0,-10.376413764937714,9.528586235062283
380,66370941,1685905087.3593578,0.4434912800788879,0.0,0.3759826421737671,0.5,-10.25481414794922,-10.238622665405272,-10.202777862548828,9.53,9.51,0.0,2,10,-20.0,-10.376413764937714,9.528586235062283
381,66467000,1685905087.3593578,0.4434912800788879,0.0,0.3759826421737671,0.5,-10.25481414794922,-10.238622665405272,-10.202777862548828,9.53,9.51,0.0,2,10,-20.0,-10.375389795010893,9.529610204989108
382,66470901,1685905087.459318,0.4652564525604248,0.0,0.3842884004116058,0.5,-10.247554779052734,-10.22673225402832,-10.224738121032717,9.53,9.51,0.0,0,5,-20.0,-10.375389795010893,9.529610204989108
383,66568000,1685905087.459318,0.4652564525604248,0.0,0.3842884004116058,0.5,-10.247554779052734,-10.22673225402832,-10.224738121032717,9.53,9.51,0.0,0,5,-20.0,-10.359621065828842,9.545378934171158
384,66570861,1685905087.559278,0.4861415028572082,0.0,0.4306787252426147,0.5,-10.240867614746094,-10.223361015319824,-10.107373237609863,9.53,9.51,0.0,1,2,-20.0,-10.359621065828842,9.545378934171158
385,66670821,1685905087.6592379,0.4898550510406494,0.0,0.4533689618110657,0.5,-10.23470973968506,-10.220460891723633,-10.397537231445312,9.53,9.53,0.0,1,1,-20.0,-10.359621065828842,9.545378934171158
386,66671000,1685905087.6592379,0.4898550510406494,0.0,0.4533689618110657,0.5,-10.23470973968506,-10.220460891723633,-10.397537231445312,9.53,9.53,0.0,1,1,-20.0,-10.343694257765378,9.56130574223462
387,66770781,1685905087.759198,0.4792473316192627,0.0,0.4549154937267303,0.5,-10.229267120361328,-10.214924812316896,-10.194687843322754,9.53,9.55,0.0,0,1,-20.0,-10.343694257765378,9.56130574223462
388,66771000,1685905087.759198,0.4792473316192627,0.0,0.4549154937267303,0.5,-10.229267120361328,-10.214924812316896,-10.194687843322754,9.53,9.55,0.0,0,1,-20.0,-10.330477995259647,9.57452200474035
389,66871574,1685905087.8599908,0.4812196493148803,0.0,0.4282996952533722,0.5,-10.22476577758789,-10.213228225708008,-10.10067367553711,9.53,9.56,0.0,0,0,-20.0,-10.330477995259647,9.57452200474035
390,66874000,1685905087.8599908,0.4812196493148803,0.0,0.4282996952533722,0.5,-10.22476577758789,-10.213228225708008,-10.10067367553711,9.53,9.56,0.0,0,0,-20.0,-10.31688552364371,9.588114476356289
391,66971534,1685905087.9599507,0.5075192451477051,0.0,0.4646864533424377,0.5,-10.221285820007324,-10.21678638458252,-10.116607666015623,9.53,9.57,0.0,1,0,-20.0,-10.31688552364371,9.588114476356289
392,66975000,1685905087.9599507,0.5075192451477051,0.0,0.4646864533424377,0.5,-10.221285820007324,-10.21678638458252,-10.116607666015623,9.53,9.57,0.0,1,0,-20.0,-10.301554600446645,9.603445399553356
393,67071494,1685905088.059911,0.487232893705368,0.0,0.4720299541950226,0.5,-10.21887493133545,-10.215384483337402,-10.441393852233888,9.53,9.59,0.0,0,0,-20.0,-10.301554600446645,9.603445399553356
394,67075000,1685905088.059911,0.487232893705368,0.0,0.4720299541950226,0.5,-10.21887493133545,-10.215384483337402,-10.441393852233888,9.53,9.59,0.0,0,0,-20.0,-10.2707572894186,9.6342427105814
395,67171454,1685905088.1598709,0.4527709484100342,0.0,0.4208997189998626,0.5,-10.217700958251951,-10.208473205566406,-10.173553466796877,9.53,9.62,0.0,-2,0,-20.0,-10.2707572894186,9.6342427105814
396,67178000,1685905088.1598709,0.4527709484100342,0.0,0.4208997189998626,0.5,-10.217700958251951,-10.208473205566406,-10.173553466796877,9.53,9.62,0.0,-2,0,-20.0,-10.24205356063388,9.66294643936612
397,67271414,1685905088.2598307,0.483802855014801,0.0,0.3951323628425598,0.5,-10.218064308166504,-10.209463119506836,-10.322731971740724,9.53,9.65,0.0,-3,-2,-20.0,-10.24205356063388,9.66294643936612
398,67279000,1685905088.2598307,0.483802855014801,0.0,0.3951323628425598,0.5,-10.218064308166504,-10.209463119506836,-10.322731971740724,9.53,9.65,0.0,-3,-2,-20.0,-10.23528316753181,9.66971683246819
399,67371374,1685905088.3597908,0.5016151666641235,0.0,0.4413011074066162,0.5,-10.220213890075684,-10.218475341796877,-10.09481716156006,9.53,9.65,0.0,-3,-5,-20.0,-10.23528316753181,9.66971683246819
400,67382000,1685905088.3597908,0.5016151666641235,0.0,0.4413011074066162,0.5,-10.220213890075684,-10.218475341796877,-10.09481716156006,9.53,9.65,0.0,-3,-5,-20.0,-10.228314534695611,9.676685465304386
401,67471334,1685905088.459751,0.5050645470619202,0.0,0.4602468013763428,0.5,-10.224040985107422,-10.229209899902344,-10.202070236206056,9.53,9.66,0.0,-3,-5,-20.0,-10.228314534695611,9.676685465304386
402,67482000,1685905088.459751,0.5050645470619202,0.0,0.4602468013763428,0.5,-10.224040985107422,-10.229209899902344,-10.202070236206056,9.53,9.66,0.0,-3,-5,-20.0,-10.22178704240916,9.68321295759084
403,67571294,1685905088.5597107,0.497566819190979,0.0,0.4765667617321014,0.5,-10.22945499420166,-10.237546920776367,-10.447853088378906,9.53,9.67,0.0,-3,-5,-20.0,-10.22178704240916,9.68321295759084
404,67583000,1685905088.5597107,0.497566819190979,0.0,0.4765667617321014,0.5,-10.22945499420166,-10.237546920776367,-10.447853088378906,9.53,9.67,0.0,-3,-5,-20.0,-10.217013282314117,9.687986717685884
405,67671254,1685905088.6596708,0.4622675478458404,0.0,0.4360314011573791,0.5,-10.23638153076172,-10.240673065185549,-10.217756271362305,9.53,9.67,0.0,-6,-5,-20.0,-10.217013282314117,9.687986717685884
406,67686000,1685905088.6596708,0.4622675478458404,0.0,0.4360314011573791,0.5,-10.23638153076172,-10.240673065185549,-10.217756271362305,9.53,9.67,0.0,-6,-5,-20.0,-10.212725029247329,9.69227497075267
407,67771214,1685905088.759631,0.4821897447109222,0.0,0.4121088087558746,0.5,-10.244672775268556,-10.250771522521973,-10.156140327453612,9.53,9.68,0.0,-7,-7,-20.0,-10.212725029247329,9.69227497075267
408,67786000,1685905088.759631,0.4821897447109222,0.0,0.4121088087558746,0.5,-10.244672775268556,-10.250771522521973,-10.156140327453612,9.53,9.68,0.0,-7,-7,-20.0,-10.213023259132116,9.691976740867885
