TimeUS,terrain_z,sub_z,rf
59108000,-20.0,-10.37496700278583,9.53003299721417
59209000,-20.0,-10.373191065619732,9.531808934380267
59310000,-20.0,-10.372364649147281,9.532635350852718
59413000,-20.0,-10.3715088009056,9.5334911990944
59513000,-20.0,-10.370623685053907,9.534376314946092
59617000,-20.0,-10.369709370740258,9.535290629259741
59717000,-20.0,-10.359580297273467,9.545419702726532
59818000,-20.0,-10.343329685158963,9.561670314841036
59922000,-20.0,-10.327263171090843,9.577736828909156
60022000,-20.0,-10.316519867272715,9.588480132727284
60126000,-20.0,-10.305447059468404,9.599552940531595
60226000,-20.0,-10.295262325242168,9.609737674757831
60326000,-20.0,-10.288589617335871,9.616410382664128
60435000,-20.0,-10.2796955624439,9.6253044375561
60536000,-20.0,-10.264325105209805,9.640674894790195
60642000,-20.0,-10.24810951864057,9.65689048135943
60742000,-20.0,-10.233060776437595,9.671939223562404
60843000,-20.0,-10.219030518397295,9.685969481602704
60952000,-20.0,-10.20672397625077,9.69827602374923
61052000,-20.0,-10.203326142689162,9.701673857310837
61166000,-20.0,-10.199500267707078,9.705499732292921
61266000,-20.0,-10.19651451322745,9.708485486772549
61380000,-20.0,-10.194058369858649,9.71094163014135
61480000,-20.0,-10.191248447779303,9.713751552220696
61581000,-20.0,-10.187479664096825,9.717520335903174
61685000,-20.0,-10.183561736431168,9.721438263568832
61786000,-20.0,-10.18433103045604,9.72066896954396
61895000,-20.0,-10.193887029793151,9.711112970206848
61996000,-20.0,-10.207386153200478,9.697613846799522
62096000,-20.0,-10.230383135161071,9.674616864838928
62200000,-20.0,-10.254382756063102,9.650617243936898
62300000,-20.0,-10.279447308623375,9.625552691376624
62403000,-20.0,-10.305233760935545,9.599766239064454
62503000,-20.0,-10.33004437639712,9.574955623602879
62604000,-20.0,-10.35378906309308,9.55121093690692
62707000,-20.0,-10.376370128429718,9.528629871570281
62807000,-20.0,-10.38767657511173,9.51732342488827
62911000,-20.0,-10.399395633054029,9.50560436694597
63011000,-20.0,-10.410735428937688,9.494264571062311
63115000,-20.0,-10.422630243389596,9.482369756610403
63215000,-20.0,-10.431684689454485,9.473315310545514
63316000,-20.0,-10.424689677994937,9.480310322005062
63419000,-20.0,-10.417495777067044,9.487504222932955
63519000,-20.0,-10.410081732418382,9.494918267581617
63622000,-20.0,-10.399552431777385,9.505447568222614
63723000,-20.0,-10.390984777843617,9.514015222156383
63823000,-20.0,-10.39387934546461,9.51112065453539
63930000,-20.0,-10.398003895177881,9.506996104822118
64030000,-20.0,-10.407518347112811,9.497481652887188
64133000,-20.0,-10.417304344737927,9.487695655262073
64234000,-20.0,-10.425884016800646,9.479115983199353
64334000,-20.0,-10.429518243107509,9.47548175689249
64437000,-20.0,-10.434490290168736,9.470509709831264
64538000,-20.0,-10.445882133988093,9.459117866011907
64641000,-20.0,-10.457596937148317,9.447403062851683
64741000,-20.0,-10.468336546166386,9.436663453833614
64841000,-20.0,-10.474775363309538,9.430224636690461
64945000,-20.0,-10.480542553798287,9.424457446201712
65045000,-20.0,-10.479892958261674,9.425107041738325
65148000,-20.0,-10.479223746596096,9.425776253403903
65249000,-20.0,-10.477447310172623,9.427552689827376
65349000,-20.0,-10.467599822465942,9.437400177534057
65452000,-20.0,-10.45739464236645,9.447605357633549
65553000,-20.0,-10.446875529067741,9.458124470932258
65656000,-20.0,-10.436036427157006,9.468963572842993
65756000,-20.0,-10.424462668215643,9.480537331784356
65860000,-20.0,-10.40477451006311,9.50022548993689
65960000,-20.0,-10.387518083914514,9.517481916085485
66060000,-20.0,-10.38327462219384,9.52172537780616
66163000,-20.0,-10.378906159994354,9.526093840005645
66264000,-20.0,-10.375326911847633,9.529673088152366
66367000,-20.0,-10.376413764937714,9.528586235062285
66467000,-20.0,-10.375389795010891,9.529610204989108
66568000,-20.0,-10.359621065828842,9.545378934171158
66671000,-20.0,-10.343694257765378,9.561305742234621
66771000,-20.0,-10.330477995259649,9.57452200474035
66874000,-20.0,-10.31688552364371,9.588114476356289
66975000,-20.0,-10.301554600446643,9.603445399553356
67075000,-20.0,-10.270757289418599,9.6342427105814
67178000,-20.0,-10.24205356063388,9.66294643936612
67279000,-20.0,-10.23528316753181,9.66971683246819
67382000,-20.0,-10.228314534695613,9.676685465304386
67482000,-20.0,-10.22178704240916,9.68321295759084
67583000,-20.0,-10.217013282314117,9.687986717685883
67686000,-20.0,-10.212725029247329,9.69227497075267
67786000,-20.0,-10.213023259132116,9.691976740867883
67889000,-20.0,-10.213329962326952,9.691670037673047
67990000,-20.0,-10.21381474447456,9.69118525552544
68090000,-20.0,-10.215681357283586,9.689318642716414
68193000,-20.0,-10.218220492259746,9.686779507740253
68293000,-20.0,-10.225300570821737,9.679699429178262
68397000,-20.0,-10.232592919124594,9.672407080875406
68497000,-20.0,-10.240321021776584,9.664678978223415
68597000,-20.0,-10.252855597401155,9.652144402598845
68701000,-20.0,-10.264803364895316,9.640196635104683
68802000,-20.0,-10.269291780101872,9.635708219898127
68905000,-20.0,-10.27390962378381,9.63109037621619
69005000,-20.0,-10.278962968828699,9.6260370311713
69106000,-20.0,-10.287856958747339,9.61714304125266
69209000,-20.0,-10.298376880247716,9.606623119752284
69309000,-20.0,-10.317729645533056,9.587270354466943
69413000,-19.97,-10.337656599745202,9.537343400254796
69513000,-19.95,-10.358147469459505,9.496852530540494
69616000,-19.92,-10.38773868896413,9.43726131103587
69717000,-19.9,-10.414323746164513,9.390676253835485
69817000,-19.88,-10.426666153597665,9.358333846402333
69920000,-19.85,-10.439380027588582,9.315619972411419
70021000,-19.82,-10.450001307107947,9.274998692892053
70126000,-19.8,-10.448772941499382,9.256227058500619
70226000,-19.77,-10.447217610055668,9.22778238994433
70326000,-19.75,-10.443347938621208,9.211652061378791
70430000,-19.72,-10.441592527268872,9.183407472731126
70530000,-19.7,-10.453636609493396,9.151363390506603
70633000,-19.67,-10.46602930545995,9.108970694540051
70733000,-19.65,-10.47677927518868,9.078220724811318
70834000,-19.62,-10.479372562663514,9.045627437336487
70937000,-19.6,-10.479794088357687,9.025205911642313
71037000,-19.57,-10.464100628431465,9.010899371568534
71141000,-19.55,-10.447907593370475,9.007092406629525
71241000,-19.52,-10.430073340124311,8.994926659875688
71342000,-19.5,-10.39718006525134,9.007819934748658
71445000,-19.47,-10.363649340011374,9.011350659988624
71545000,-19.45,-10.333731367236007,9.021268632763991
71649000,-19.42,-10.302889982686994,9.022110017313008
71749000,-19.4,-10.270484551373686,9.034515448626312
71849000,-19.38,-10.221340351614536,9.063659648385462
71953000,-19.35,-10.173877288133248,9.081122711866753
72053000,-19.32,-10.149300352881085,9.075699647118915
72157000,-19.3,-10.123954722399255,9.081045277600746
72257000,-19.27,-10.09759586444903,9.07740413555097
72361000,-19.25,-10.05738387054793,9.097616129452069
72461000,-19.22,-10.019064954767279,9.10593504523272
72562000,-19.2,-9.983888786232326,9.121111213767673
72665000,-19.17,-9.947697372662347,9.127302627337654
72765000,-19.15,-9.90797208289546,9.147027917104538
72869000,-19.12,-9.835804139000645,9.189195860999355
72969000,-19.1,-9.766958867293893,9.238041132706108
73070000,-19.07,-9.704518223684962,9.270481776315037
73173000,-19.05,-9.643171321122473,9.311828678877527
73273000,-19.02,-9.6025538123589,9.322446187641098
73377000,-19.0,-9.560667757654466,9.344332242345534
73477000,-18.97,-9.517765187624228,9.35723481237577
73577000,-18.95,-9.459236072642701,9.395763927357297
73681000,-18.93,-9.402941630181333,9.432058369818666
73781000,-18.9,-9.375934684503543,9.429065315496455
73884000,-18.88,-9.348042367284267,9.436957632715732
73985000,-18.85,-9.31702467449247,9.43797532550753
74085000,-18.82,-9.258747776293102,9.466252223706897
74188000,-18.8,-9.203060377629317,9.501939622370683
74289000,-18.77,-9.177405406281252,9.497594593718746
74392000,-18.75,-9.150996192630975,9.504003807369024
74492000,-18.72,-9.123124915555312,9.501875084444686
74593000,-18.7,-9.079705953148725,9.525294046851274
74696000,-18.67,-9.038792891246823,9.536207108753178
74796000,-18.65,-9.025970703246925,9.529029296753073
74899000,-18.62,-9.0127648186057,9.512235181394301
75000000,-18.6,-8.998373780687915,9.506626219312086
75100000,-18.57,-8.972703794334148,9.502296205665852
75203000,-18.55,-8.945650512148061,9.509349487851939
75304000,-18.52,-8.914273611430522,9.510726388569477
75407000,-18.5,-8.882022808065866,9.522977191934134
75507000,-18.47,-8.851303639403676,9.523696360596322
75611000,-18.45,-8.82451682681205,9.530483173187948
75711000,-18.42,-8.801096654944345,9.523903345055656
75811000,-18.4,-8.79614339973643,9.508856600263568
75914000,-18.38,-8.791049075533984,9.493950924466015
76015000,-18.35,-8.784527978599012,9.470472021400989
76119000,-18.32,-8.765943202724065,9.459056797275935
76220000,-18.3,-8.747058912537865,9.457941087462135
76320000,-18.27,-8.72136797203697,9.453632027963028
76423000,-18.25,-8.697639937975332,9.457360062024668
76524000,-18.22,-8.691200847482847,9.433799152517151
76627000,-18.2,-8.684543581250098,9.4204564187499
76728000,-18.17,-8.677212328581756,9.397787671418245
76828000,-18.15,-8.664474447909306,9.390525552090692
76931000,-18.12,-8.652798625977404,9.372201374022596
77031000,-18.1,-8.651278072928639,9.353721927071362
77136000,-18.07,-8.649693564189427,9.325306435810573
77236000,-18.05,-8.648810275761777,9.306189724238223
77336000,-18.02,-8.651925246969983,9.273074753030016
77440000,-18.0,-8.653697925691558,9.251302074308441
77540000,-17.98,-8.645943662693025,9.239056337306975
77643000,-17.95,-8.637970493778171,9.217029506221827
77744000,-17.92,-8.628554178601059,9.196445821398942
77844000,-17.9,-8.608297612203668,9.19670238779633
77950000,-17.88,-8.588482988067968,9.19651701193203
78051000,-17.85,-8.578942165047408,9.176057834952593
78154000,-17.82,-8.569131888278816,9.155868111721183
78254000,-17.8,-8.556834892490913,9.148165107509087
78355000,-17.77,-8.529279001505053,9.145720998494946
78458000,-17.75,-8.501890388781641,9.153109611218358
78558000,-17.73,-8.480581585205005,9.154418414794995
78661000,-17.7,-8.458664374068036,9.146335625931963
78761000,-17.67,-8.436504722709763,9.138495277290238
78865000,-17.65,-8.407714502732073,9.147285497267925
78965000,-17.62,-8.38036277059816,9.144637229401841
79065000,-17.6,-8.357447044028785,9.147552955971216
79169000,-17.57,-8.333850895515559,9.141149104484441
79269000,-17.55,-8.309064786258835,9.145935213741165
79372000,-17.52,-8.26918545082689,9.155814549173108
79473000,-17.5,-8.229425156205828,9.175574843794172
79573000,-17.47,-8.18192599785049,9.193074002149508
79676000,-17.45,-8.133020116216516,9.221979883783483
79776000,-17.42,-8.08468034481826,9.240319655181741
79880000,-17.4,-8.034901542990152,9.270098457009846
79980000,-17.38,-7.984702027276205,9.300297972723794
80081000,-17.35,-7.921119895094415,9.333880104905587
80184000,-17.32,-7.860514613775645,9.364485386224354
80284000,-17.3,-7.834191164500371,9.370808835499629
80387000,-17.27,-7.8070542176628885,9.367945782337111
80488000,-17.25,-7.778380587598527,9.376619412401473
80588000,-17.22,-7.733131421649973,9.391868578350026
80691000,-17.2,-7.68799113470829,9.417008865291708
80791000,-17.17,-7.653689630412838,9.421310369587163
80895000,-17.15,-7.618424963038995,9.436575036961003
80995000,-17.12,-7.584791436636692,9.440208563363308
81095000,-17.1,-7.5558394773073525,9.44916052269265
81198000,-17.07,-7.526921181650531,9.448078818349469
81299000,-17.05,-7.504781455894164,9.450218544105836
81405000,-17.02,-7.48132236023461,9.443677639765388
81506000,-17.0,-7.456360580006139,9.44863941999386
81611000,-16.97,-7.4136203298440595,9.461379670155939
81711000,-16.95,-7.374236173320199,9.4807638266798
81811000,-16.92,-7.341707717878996,9.483292282121004
81914000,-16.9,-7.308263939514393,9.496736060485604
82015000,-16.88,-7.275444804507849,9.50955519549215
82122000,-16.85,-7.238460042519454,9.516539957480548
82223000,-16.82,-7.205558262487294,9.519441737512706
82323000,-16.8,-7.179253715303867,9.525746284696133
82427000,-16.77,-7.1550807310976134,9.519919268902386
82527000,-16.75,-7.1453635930453,9.5096364069547
82630000,-16.72,-7.135369200949514,9.489630799050484
82731000,-16.7,-7.126892182455677,9.478107817544322
82831000,-16.67,-7.1244928258629034,9.450507174137098
82934000,-16.65,-7.120742940853906,9.434257059146093
83035000,-16.62,-7.109098437600957,9.415901562399045
83138000,-16.6,-7.097101838533729,9.407898161466273
83238000,-16.57,-7.085537619936234,9.389462380063765
83339000,-16.55,-7.0744643063689185,9.380535693631082
83442000,-16.52,-7.063667157726391,9.361332842273608
83542000,-16.5,-7.057518233418671,9.347481766581328
83646000,-16.47,-7.051184870465151,9.323815129534848
83746000,-16.45,-7.042186650212605,9.312813349787394
83846000,-16.42,-7.013570393812113,9.311429606187888
83950000,-16.4,-6.985631182147374,9.319368817852624
84050000,-16.38,-6.969352536684748,9.31564746331525
84154000,-16.35,-6.952545259782129,9.302454740217872
84254000,-16.32,-6.937330599268929,9.28766940073107
84354000,-16.3,-6.929176383955418,9.275823616044581
84458000,-16.27,-6.920852265705199,9.254147734294799
84558000,-16.25,-6.913146562873593,9.241853437126407
84661000,-16.22,-6.905211505769609,9.21978849423039
84762000,-16.2,-6.896687720632586,9.208312279367414
84865000,-16.17,-6.88199686048932,9.193003139510681
84966000,-16.15,-6.867376455007237,9.18762354499276
85066000,-16.12,-6.8499034819021,9.1750965180979
85169000,-16.1,-6.831875836272818,9.173124163727183
85270000,-16.07,-6.811355516358556,9.163644483641443
85373000,-16.05,-6.7689157002704645,9.186084299729535
85474000,-16.02,-6.728059497948559,9.19694050205144
85574000,-16.0,-6.689085020135927,9.215914979864072
85677000,-16.0,-6.650936994500666,9.254063005499333
85778000,-16.0,-6.627002952821885,9.277997047178115
85881000,-16.0,-6.602324739779288,9.302675260220711
85981000,-16.0,-6.576672517373374,9.328327482626625
86082000,-16.0,-6.53910042090466,9.36589957909534
86185000,-16.0,-6.501341090543377,9.403658909456622
86285000,-16.0,-6.470530970417509,9.43446902958249
86389000,-16.0,-6.438790396916483,9.466209603083517
86489000,-16.0,-6.407090558766795,9.497909441233205
86589000,-16.0,-6.369078615692491,9.535921384307509
86692000,-16.0,-6.331373629643037,9.573626370356962
86793000,-16.0,-6.304279941640056,9.600720058359943
86896000,-16.0,-6.276365414421206,9.628634585578792
86996000,-16.0,-6.245098620210971,9.659901379789028
87097000,-16.0,-6.182987687720156,9.722012312279842
87200000,-16.0,-6.122452974881212,9.782547025118786
87300000,-16.0,-6.08712610740062,9.817873892599378
87403000,-16.0,-6.050798717870988,9.854201282129011
87504000,-16.0,-6.016143676040948,9.888856323959052
87604000,-16.0,-5.986244743387592,9.918755256612409
87708000,-16.0,-5.957773259130708,9.947226740869292
87809000,-16.0,-5.947447377178134,9.957552622821865
87912000,-16.0,-5.936814543313685,9.968185456686316
88012000,-16.0,-5.929845099422041,9.975154900577959
88118000,-16.0,-5.945320571469192,9.959679428530807
88218000,-16.0,-5.958990811532195,9.946009188467803
88319000,-16.0,-5.967231939150426,9.937768060849573
88422000,-16.0,-5.97572349317694,9.92927650682306
88523000,-16.0,-5.985794293015826,9.919205706984174
88626000,-16.0,-6.006687946478604,9.898312053521396
88726000,-16.0,-6.027861318422737,9.877138681577263
88827000,-16.0,-6.053791792338199,9.8512082076618
88930000,-16.0,-6.082366252762854,9.822633747237147
89030000,-16.0,-6.122592949824701,9.7824070501753
89134000,-16.0,-6.164049014241468,9.740950985758532
89234000,-16.0,-6.205895601975551,9.699104398024447
89334000,-16.0,-6.259011447290005,9.645988552709994
89438000,-16.0,-6.310283196406668,9.59471680359333
89538000,-16.0,-6.3360961228426405,9.568903877157359
89641000,-16.0,-6.362668020281522,9.542331979718478
89742000,-16.0,-6.389915171153565,9.515084828846435
89842000,-16.0,-6.427444381149123,9.477555618850877
89946000,-16.0,-6.464500140367277,9.440499859632721
90046000,-16.0,-6.488879569406372,9.416120430593628
90150000,-16.0,-6.513998223245743,9.391001776754257
90250000,-16.0,-6.540916675568547,9.364083324431453
90350000,-16.0,-6.585050096293087,9.319949903706911
90454000,-16.0,-6.62865851665509,9.27634148334491
90554000,-16.0,-6.658550294358408,9.246449705641592
90657000,-16.0,-6.689340800377793,9.215659199622207
90758000,-16.0,-6.71811270249345,9.18688729750655
90861000,-16.0,-6.7401060110717514,9.164893988928247
90962000,-16.0,-6.75824952479601,9.146750475203989
91062000,-16.0,-6.754792657652653,9.150207342347345
91165000,-16.0,-6.751228993441895,9.153771006558104
91266000,-16.0,-6.7457276928654135,9.159272307134586
91369000,-16.0,-6.725682622130168,9.17931737786983
91470000,-16.0,-6.70347078362907,9.201529216370929
91570000,-16.0,-6.662790210812056,9.242209789187944
91674000,-16.0,-6.621876339250348,9.28312366074965
91774000,-16.0,-6.588485241799923,9.316514758200077
91877000,-16.0,-6.554098996287859,9.35090100371214
91978000,-16.0,-6.520080722160971,9.384919277839028
92078000,-16.0,-6.481811573904324,9.423188426095676
92181000,-16.0,-6.4454265818377685,9.45957341816223
92282000,-16.0,-6.4300442671450515,9.474955732854948
92385000,-16.0,-6.414213445722565,9.490786554277435
92485000,-16.0,-6.396425714068206,9.508574285931793
92586000,-16.0,-6.361918234660638,9.54308176533936
92689000,-16.0,-6.3286317621569665,9.576368237843033
92789000,-16.0,-6.311594134677576,9.593405865322422
92893000,-16.0,-6.294066828533942,9.610933171466057
92993000,-16.0,-6.275416764957818,9.629583235042181
93093000,-16.0,-6.245148263520727,9.659851736479272
93197000,-16.0,-6.215429862869992,9.689570137130007
93297000,-16.0,-6.196380483140907,9.708619516859093
93400000,-16.0,-6.176752609478466,9.728247390521533
93501000,-16.0,-6.15569517579741,9.74930482420259
93601000,-16.0,-6.120577393299402,9.784422606700597
93704000,-16.0,-6.087628312903779,9.817371687096221
93805000,-16.0,-6.077741434753628,9.827258565246371
93908000,-16.0,-6.067546942482635,9.837453057517363
94008000,-16.0,-6.059762076692814,9.845237923307186
94113000,-16.0,-6.067020053921206,9.837979946078795
94213000,-16.0,-6.07391938586867,9.831080614131329
94314000,-16.0,-6.080459447348479,9.82454055265152
94417000,-16.0,-6.0871928768471095,9.81780712315289
94517000,-16.0,-6.09356928531975,9.81143071468025
94621000,-16.0,-6.099106773254058,9.805893226745942
94721000,-16.0,-6.104126607689164,9.800873392310836
94822000,-16.0,-6.107077171048853,9.797922828951146
94925000,-16.0,-6.110824078155428,9.794175921844571
95026000,-16.0,-6.118886249969116,9.786113750030884
95129000,-16.0,-6.127200905908359,9.77779909409164
95229000,-16.0,-6.138872494900537,9.766127505099464
95330000,-16.0,-6.173919071457385,9.731080928542616
95433000,-16.0,-6.209475888691441,9.69552411130856
95533000,-16.0,-6.241100555486325,9.663899444513675
95637000,-16.0,-6.273672431328277,9.631327568671724
95737000,-16.0,-6.306914921567717,9.598085078432282
95837000,-16.02,-6.35161884153887,9.57338115846113
95940000,-16.05,-6.395880254044252,9.559119745955748
96041000,-16.08,-6.426980320163121,9.558019679836876
96144000,-16.1,-6.45907415259618,9.54592584740382
96245000,-16.12,-6.492297093517961,9.532702906482038
96345000,-16.15,-6.540078949360947,9.514921050639051
96448000,-16.17,-6.585176175308202,9.489823824691799
96549000,-16.2,-6.600895430541385,9.504104569458613
96652000,-16.23,-6.617085735270444,9.517914264729557
96752000,-16.25,-6.633156909832228,9.521843090167772
96853000,-16.27,-6.651716649054946,9.523283350945052
96956000,-16.3,-6.670772828668023,9.534227171331978
97057000,-16.33,-6.688781340247025,9.546218659752972
97160000,-16.35,-6.70738479646317,9.54761520353683
97261000,-16.38,-6.723512440790723,9.561487559209274
97364000,-16.4,-6.72739384903503,9.577606150964968
97464000,-16.42,-6.729970735136802,9.595029264863198
97565000,-16.45,-6.724724099526894,9.630275900473103
97668000,-16.48,-6.719316868014158,9.665683131985842
97768000,-16.5,-6.713564119769427,9.691435880230573
97872000,-16.52,-6.7041555534639174,9.720844446536082
97972000,-16.55,-6.694725046666499,9.760274953333502
98073000,-16.58,-6.6831748991765405,9.801825100823457
98176000,-16.6,-6.6719778759379045,9.833022124062095
98276000,-16.62,-6.665495627170293,9.859504372829706
98380000,-16.65,-6.658819006300145,9.896180993699852
98480000,-16.67,-6.652902748553396,9.922097251446605
98580000,-16.7,-6.650756040870443,9.954243959129554
98684000,-16.73,-6.650419328771715,9.984580671228285
98784000,-16.75,-6.662863171169816,9.992136828830184
98887000,-16.77,-6.675669474241282,9.999330525758717
98988000,-16.8,-6.690341754715423,10.014658245284577
99088000,-16.83,-6.720852805045024,10.014147194954974
99192000,-16.85,-6.7508488984005455,10.004151101599456
99292000,-16.88,-6.770750642551971,10.014249357448028
99395000,-16.9,-6.79124124297687,10.013758757023128
99496000,-16.92,-6.814131321489328,10.010868678510674
99596000,-16.95,-6.857813445334751,9.997186554665248
99699000,-16.98,-6.901058191326478,9.983941808673523
99799000,-17.0,-6.9309515520120835,9.974048447987917
99903000,-17.03,-6.961726939428438,9.973273060571563
100003000,-17.05,-6.994608317999922,9.960391682000077
100104000,-17.08,-7.0489096942862535,9.936090305713744
100207000,-17.1,-7.103115335843478,9.901884664156523
100307000,-17.12,-7.1450147260635894,9.879985273936411
100410000,-17.15,-7.18816796461446,9.866832035385537
100511000,-17.17,-7.231031473457174,9.843968526542827
100616000,-17.2,-7.283081337487515,9.821918662512482
100716000,-17.23,-7.3284175011723836,9.806582498827616
100817000,-17.25,-7.348778740519527,9.806221259480472
100920000,-17.28,-7.369763184882717,9.815236815117283
101020000,-17.3,-7.393489925046025,9.811510074953974
101125000,-17.33,-7.438794978418913,9.796205021581086
101225000,-17.35,-7.482737755407485,9.772262244592516
101325000,-17.38,-7.528301027301513,9.756698972698485
101429000,-17.4,-7.572947715722493,9.732052284277506
101529000,-17.42,-7.602950376124065,9.722049623875936
101632000,-17.45,-7.633849436096483,9.721150563903516
101733000,-17.48,-7.667573854909526,9.717426145090473
101833000,-17.5,-7.725481843026045,9.679518156973954
101936000,-17.53,-7.781861676393494,9.653138323606507
102037000,-17.55,-7.81449834174417,9.64050165825583
102140000,-17.58,-7.848124464602566,9.636875535397431
102240000,-17.6,-7.881866271004178,9.623133728995823
102341000,-17.62,-7.923471304211928,9.601528695788073
102444000,-17.65,-7.963353601557941,9.591646398442057
102545000,-17.67,-7.98150784219703,9.593492157802972
102649000,-17.7,-8.00044820774943,9.604551792250568
102750000,-17.73,-8.022825776549697,9.612174223450303
102850000,-17.75,-8.071287913726831,9.583712086273168
102953000,-17.78,-8.116840936811666,9.568159063188334
103054000,-17.8,-8.134521878057763,9.570478121942237
103157000,-17.83,-8.152781236962756,9.582218763037242
103258000,-17.85,-8.170278745173512,9.584721254826489
103363000,-17.88,-8.187525949171354,9.597474050828644
103463000,-17.9,-8.201884659373773,9.603115340626225
103564000,-17.92,-8.204460596604182,9.620539403395819
103667000,-17.95,-8.207113569848804,9.647886430151194
103767000,-17.98,-8.212737625417173,9.672262374582827
103871000,-18.0,-8.236526590917382,9.668473409082617
103971000,-18.02,-8.259532616611306,9.665467383388693
104072000,-18.05,-8.282361662579612,9.672638337420388
104175000,-18.08,-8.303899555810178,9.68110044418982
104275000,-18.1,-8.31212888305569,9.69287111694431
104379000,-18.12,-8.320605266349665,9.704394733650336
104479000,-18.15,-8.327374491466179,9.72762550853382
104579000,-18.18,-8.324240608651039,9.76075939134896
104683000,-18.2,-8.322621046854719,9.78237895314528
104783000,-18.23,-8.33211150325355,9.80288849674645
104886000,-18.25,-8.341891638002261,9.813108361997738
104987000,-18.27,-8.35196330551303,9.82303669448697
105087000,-18.3,-8.366059154882883,9.838940845117117
105191000,-18.33,-8.380282396857794,9.854717603142204
105291000,-18.35,-8.392194765538115,9.862805234461886
105394000,-18.38,-8.404468624787539,9.88053137521246
105495000,-18.4,-8.418261360983673,9.886738639016325
105595000,-18.43,-8.444803311741495,9.890196688258504
105699000,-18.45,-8.470639620324988,9.88436037967501
105799000,-18.48,-8.485408908013406,9.899591091986593
105902000,-18.5,-8.500647143861384,9.904352856138615
106003000,-18.53,-8.517440931680232,9.917559068319768
106103000,-18.55,-8.548014923274161,9.906985076725839
106207000,-18.58,-8.577392700127335,9.907607299872662
106307000,-18.6,-8.592180303135102,9.912819696864899
106410000,-18.62,-8.607411849126162,9.917588150873838
106511000,-18.65,-8.6254180559688,9.929581944031199
106614000,-18.68,-8.666302788389357,9.918697211610642
106714000,-18.7,-8.704397881172897,9.900602118827102
106815000,-18.73,-8.732186711020402,9.902813288979598
106918000,-18.75,-8.76082430771379,9.89417569228621
107019000,-18.78,-8.79062111826482,9.89437888173518
107122000,-18.8,-8.83571203794127,9.86928796205873
107222000,-18.83,-8.879774452392681,9.855225547607317
107323000,-18.85,-8.926508674717876,9.828491325282124
107426000,-18.88,-8.972945346448247,9.812054653551751
107527000,-18.9,-9.00701553852369,9.797984461476307
107630000,-18.93,-9.042037977177833,9.792962022822167
107730000,-18.95,-9.078218347148375,9.776781652851623
107831000,-18.98,-9.128974314492886,9.756025685507113
107934000,-19.0,-9.178257597042728,9.72674240295727
108034000,-19.03,-9.205855088388775,9.729144911611225
108138000,-19.05,-9.234319883736847,9.720680116263154
108238000,-19.08,-9.264593907414916,9.720406092585081
108338000,-19.1,-9.313499830592802,9.691500169407199
108442000,-19.12,-9.362160299650585,9.662839700349416
108542000,-19.15,-9.397619132941765,9.657380867058233
108646000,-19.18,-9.434457669661366,9.650542330338633
108746000,-19.2,-9.469299963885664,9.635700036114335
108847000,-19.23,-9.500202823603479,9.634797176396521
108952000,-19.25,-9.529617562237146,9.625382437762854
109052000,-19.28,-9.541110915931016,9.643889084068984
109156000,-19.3,-9.55296679076036,9.65203320923964
109256000,-19.33,-9.568478458791075,9.666521541208922
109362000,-19.35,-9.608363108593174,9.646636891406827
109462000,-19.38,-9.646356053738685,9.638643946261313
109563000,-19.4,-9.685195659424634,9.619804340575364
109666000,-19.43,-9.725212583620975,9.609787416379024
109766000,-19.45,-9.762733012992376,9.592266987007623
109872000,-19.48,-9.795113427056926,9.589886572943074
109972000,-19.5,-9.825206196346208,9.579793803653791
110073000,-19.53,-9.852186420415563,9.582813579584437
110176000,-19.55,-9.876495722486736,9.578504277513264
110276000,-19.58,-9.881912035139429,9.603087964860569
110381000,-19.6,-9.88758213326979,9.61741786673021
110482000,-19.62,-9.892724684894132,9.632275315105868
110582000,-19.65,-9.896484126695855,9.658515873304143
110685000,-19.68,-9.899266287649459,9.68573371235054
110785000,-19.7,-9.895726675975782,9.709273324024217
110889000,-19.73,-9.892079266811923,9.742920733188077
110989000,-19.75,-9.890452001620424,9.764547998379575
111090000,-19.78,-9.90044801869144,9.78455198130856
111193000,-19.8,-9.910189525754518,9.794810474245482
111293000,-19.83,-9.916083750571055,9.818916249428943
111396000,-19.85,-9.922147854602922,9.832852145397078
111497000,-19.88,-9.928933183766047,9.856066816233952
111597000,-19.9,-9.942003616692377,9.862996383307621
111700000,-19.93,-9.954428458786289,9.88057154121371
111801000,-19.95,-9.959270869826984,9.895729130173015
111904000,-19.98,-9.96425923608753,9.92074076391247
112005000,-20.0,-9.97040012109716,9.934599878902839
112105000,-20.0,-9.985647184450777,9.919352815549223
112208000,-20.0,-10.002953591485253,9.902046408514746
112309000,-20.0,-10.031172110699057,9.873827889300943
112412000,-20.0,-10.060241112908782,9.844758887091217
112513000,-20.0,-10.089701360207957,9.815298639792042
112616000,-20.0,-10.128760357353388,9.776239642646612
112716000,-20.0,-10.164983871263026,9.740016128736974
112817000,-20.0,-10.189578619006511,9.715421380993488
112920000,-20.0,-10.214920334571044,9.690079665428955
113021000,-20.0,-10.24276531252139,9.662234687478609
113124000,-20.0,-10.293888866560968,9.611111133439032
113224000,-20.0,-10.34402226497004,9.56097773502996
113325000,-20.0,-10.398193043737336,9.506806956262663
113428000,-20.0,-10.449931903677838,9.455068096322162
113528000,-20.0,-10.474581176526478,9.430418823473522
113632000,-20.0,-10.499961236032217,9.405038763967783
113732000,-20.0,-10.525626651929697,9.379373348070303
113832000,-20.0,-10.558245211689275,9.346754788310724
113936000,-20.0,-10.590382289632334,9.314617710367665
114036000,-20.0,-10.61182291333525,9.29317708666475
114139000,-20.0,-10.633906931540102,9.271093068459898
114240000,-20.0,-10.655393579352278,9.249606420647721
114340000,-20.0,-10.677238077719274,9.227761922280726
114445000,-20.0,-10.69825687750493,9.20674312249507
114545000,-20.0,-10.707661388824192,9.197338611175807
114648000,-20.0,-10.717345067279187,9.187654932720813
114749000,-20.0,-10.722927242685374,9.182072757314625
114849000,-20.0,-10.704619834723166,9.200380165276833
114953000,-20.0,-10.685716723352432,9.219283276647568
115053000,-20.0,-10.66785999624886,9.23714000375114
115157000,-20.0,-10.64943411099706,9.25556588900294
115257000,-20.0,-10.629665111645803,9.275334888354196
115361000,-20.0,-10.596605057848556,9.308394942151443
115462000,-20.0,-10.568288226765963,9.336711773234036
115562000,-20.0,-10.560726080619268,9.344273919380731
115665000,-20.0,-10.552942177714272,9.352057822285728
115766000,-20.0,-10.54391685594545,9.361083144054549
115869000,-20.0,-10.525387322451294,9.379612677548705
115970000,-20.0,-10.503797057780222,9.401202942219777
116070000,-20.0,-10.459270833192102,9.445729166807897
116173000,-20.0,-10.416317708436152,9.488682291563848
116274000,-20.0,-10.39293742550602,9.51206257449398
116377000,-20.0,-10.36886046602094,9.536139533979059
116478000,-20.0,-10.34339179356011,9.561608206439889
116578000,-20.0,-10.303683601305236,9.601316398694763
116681000,-20.0,-10.264244414988429,9.64075558501157
116782000,-20.0,-10.236217863122555,9.668782136877445
116885000,-20.0,-10.207347108725036,9.697652891274963
116986000,-20.0,-10.177023844875773,9.727976155124226
117086000,-20.0,-10.130872107354474,9.774127892645526
117189000,-20.0,-10.085950985030038,9.819049014969961
117290000,-20.0,-10.058779570233877,9.846220429766122
117393000,-20.0,-10.030808454842283,9.874191545157716
117493000,-20.0,-10.005438746427538,9.899561253572461
117594000,-20.0,-9.992541400513854,9.912458599486145
117697000,-20.0,-9.981453913146382,9.923546086853618
117797000,-20.0,-9.986102823212248,9.918897176787752
117900000,-20.0,-9.99088895747317,9.91411104252683
118001000,-20.0,-9.995473752318725,9.909526247681274
118101000,-20.0,-9.999622835213959,9.90537716478604
118204000,-20.0,-10.00656647688839,9.89843352311161
118305000,-20.0,-10.032422179173425,9.872577820826574
118408000,-20.0,-10.059110212207925,9.845889787792075
118509000,-20.0,-10.085756424098795,9.819243575901204
118612000,-20.0,-10.119008899141058,9.785991100858942
118713000,-20.0,-10.150232884614576,9.754767115385423
118813000,-20.0,-10.175099690919032,9.729900309080968
118916000,-20.0,-10.200699157602905,9.704300842397094
119017000,-20.0,-10.229226532478569,9.67577346752143
119120000,-20.0,-10.283718415211865,9.621281584788134
119221000,-20.0,-10.334732073938868,9.570267926061131
119321000,-20.0,-10.373942250947213,9.531057749052787
119424000,-20.0,-10.412425958025484,9.492574041974516
119525000,-20.0,-10.437711162441092,9.467288837558907
119628000,-20.0,-10.463823917354937,9.441176082645063
119729000,-20.0,-10.489483875953177,9.415516124046823
119829000,-20.0,-10.517731905683725,9.387268094316275
119933000,-20.0,-10.545158237953526,9.359841762046473
120033000,-20.0,-10.560708263075517,9.344291736924482
120136000,-20.0,-10.576712804045112,9.328287195954887
120237000,-20.0,-10.591106538843526,9.313893461156473
120337000,-20.0,-10.598120536893964,9.306879463106036
120440000,-20.0,-10.604380430983698,9.300619569016302
120541000,-20.0,-10.603853688282397,9.301146311717602
120645000,-20.0,-10.603308032657395,9.301691967342604
120745000,-20.0,-10.604601642219107,9.300398357780892
120845000,-20.0,-10.617883432317234,9.287116567682766
120950000,-20.0,-10.630882506755722,9.274117493244278
121050000,-20.0,-10.63826102115964,9.26673897884036
121154000,-20.0,-10.645857719136222,9.259142280863777
121254000,-20.0,-10.648480589081968,9.256519410918031
121355000,-20.0,-10.623432754631969,9.28156724536803
121458000,-20.0,-10.597482957029204,9.307517042970796
121558000,-20.0,-10.571449170738736,9.333550829261263
121662000,-20.0,-10.544663159545829,9.36033684045417
121762000,-20.0,-10.520361379846012,9.384638620153988
121867000,-20.0,-10.506727544364697,9.398272455635302
121967000,-20.0,-10.494311121488414,9.410688878511586
122068000,-20.0,-10.485454799037171,9.419545200962828
122171000,-20.0,-10.476332071212157,9.428667928787842
122272000,-19.97,-10.46475695460742,9.410243045392578
122375000,-19.95,-10.436098691476305,9.418901308523694
122475000,-19.92,-10.4040651617558,9.4209348382442
122576000,-19.9,-10.347271189197967,9.457728810802031
122679000,-19.88,-10.292463449222522,9.492536550777476
122779000,-19.85,-10.261601068808114,9.493398931191887
122883000,-19.82,-10.229800908808786,9.495199091191214
122983000,-19.8,-10.19847687396064,9.50652312603936
123084000,-19.77,-10.163907614221491,9.511092385778507
123187000,-19.75,-10.13235099199965,9.52264900800035
123287000,-19.72,-10.12918053624953,9.495819463750468
123390000,-19.7,-10.125914087784881,9.479085912215117
123491000,-19.67,-10.122375287835562,9.45262471216444
123591000,-19.65,-10.116292394465694,9.438707605534304
123694000,-19.62,-10.10876327329313,9.41623672670687
123795000,-19.6,-10.092614655328587,9.412385344671414
123898000,-19.57,-10.075975809885847,9.399024190114153
123999000,-19.55,-10.056427880390403,9.398572119609597
124099000,-19.52,-10.013479685120977,9.411520314879022
124202000,-19.5,-9.973231998941364,9.431768001058636
124303000,-19.47,-9.96078595530257,9.414214044697427
124406000,-19.45,-9.947979128058089,9.40702087194191
124506000,-19.42,-9.936292010901454,9.388707989098547
124610000,-19.4,-9.929669098178469,9.37533090182153
124710000,-19.38,-9.922867702676072,9.362132297323926
124811000,-19.35,-9.913426964987172,9.341573035012829
124914000,-19.32,-9.903701231842637,9.321298768157362
125015000,-19.3,-9.895004173862418,9.309995826137582
125120000,-19.27,-9.891004688072941,9.283995311927058
125220000,-19.25,-9.886537604719894,9.268462395280105
125321000,-19.22,-9.878410069208456,9.246589930791542
125424000,-19.2,-9.8684786946283,9.2365213053717
125524000,-19.17,-9.84988261393512,9.22511738606488
125628000,-19.15,-9.830760461214446,9.224239538785552
125728000,-19.12,-9.811157991017035,9.213842008982965
125828000,-19.1,-9.785617403855179,9.219382596144822
125932000,-19.07,-9.759670209512214,9.215329790487786
126032000,-19.05,-9.736690314362997,9.218309685637003
126135000,-19.02,-9.713025569282443,9.211974430717556
126236000,-19.0,-9.688100629583845,9.216899370416154
126336000,-18.97,-9.649431839211672,9.225568160788326
126440000,-18.95,-9.612294738850798,9.2427052611492
126540000,-18.93,-9.595259746784324,9.239740253215675
126644000,-18.9,-9.577710645398186,9.227289354601812
126744000,-18.88,-9.558681846211474,9.226318153788524
126844000,-18.85,-9.526444235458177,9.228555764541824
126948000,-18.82,-9.493721039191781,9.231278960808218
127048000,-18.8,-9.465738199676952,9.239261800323048
127152000,-18.77,-9.436895339490817,9.238104660509181
127252000,-18.75,-9.405683271026327,9.249316728973673
127352000,-18.72,-9.352855874015562,9.272144125984436
127456000,-18.7,-9.301325562048074,9.303674437951925
127556000,-18.67,-9.271129820374941,9.30387017962506
127660000,-18.65,-9.240045356698463,9.314954643301535
127760000,-18.62,-9.208358143051445,9.316641856948555
127863000,-18.6,-9.165356546190162,9.339643453809838
127964000,-18.57,-9.125449121704138,9.349550878295862
128064000,-18.55,-9.098011949245477,9.356988050754524
128167000,-18.52,-9.069769556979681,9.355230443020318
128268000,-18.5,-9.03911049007835,9.365889509921649
128371000,-18.47,-8.984059475324088,9.39094052467591
128471000,-18.45,-8.931531757058373,9.423468242941626
128572000,-18.42,-8.885427934054407,9.439572065945594
128675000,-18.4,-8.838968830531881,9.466031169468117
128776000,-18.38,-8.801091829607142,9.483908170392857
128879000,-18.35,-8.762067468905089,9.492932531094912
128979000,-18.32,-8.726309956293456,9.498690043706544
129080000,-18.3,-8.705057356154507,9.499942643845493
129183000,-18.27,-8.684288146077241,9.490711853922758
129284000,-18.25,-8.67116411965781,9.48383588034219
129387000,-18.22,-8.657657812497808,9.46734218750219
129487000,-18.2,-8.644202582520176,9.460797417479823
129588000,-18.17,-8.62851683179616,9.44648316820384
129691000,-18.15,-8.612919437940326,9.442080562059672
129792000,-18.12,-8.601498497462392,9.423501502537608
129895000,-18.1,-8.589730742147914,9.415269257852087
129995000,-18.07,-8.576778107064163,9.398221892935837
130096000,-18.05,-8.553443449803067,9.401556550196933
130200000,-18.02,-8.529899049493476,9.395100950506523
130300000,-18.0,-8.510199107073781,9.394800892926218
130403000,-17.98,-8.489910452152907,9.395089547847093
130504000,-17.95,-8.467489828722535,9.387510171277464
130604000,-17.92,-8.427425863651628,9.397574136348373
130707000,-17.9,-8.388582462687726,9.416417537312272
130808000,-17.88,-8.366129720272895,9.418870279727104
130911000,-17.85,-8.34300292349151,9.411997076508491
131011000,-17.82,-8.322432008820027,9.402567991179973
131115000,-17.8,-8.314547733007252,9.390452266992748
131215000,-17.77,-8.307983227987313,9.367016772012686
131316000,-17.75,-8.308685871673207,9.346314128326792
131419000,-17.73,-8.309408893261217,9.325591106738782
131519000,-17.7,-8.308355816527245,9.296644183472754
131626000,-17.67,-8.294557298217525,9.280442701782476
131727000,-17.65,-8.279527949177252,9.275472050822746
131827000,-17.62,-8.254042900452589,9.270957099547411
131930000,-17.6,-8.230122232587362,9.274877767412638
132031000,-17.57,-8.218915346793576,9.256084653206424
132134000,-17.55,-8.207355966356927,9.247644033643073
132235000,-17.52,-8.195033207855516,9.229966792144483
132335000,-17.5,-8.176939605026073,9.228060394973927
132443000,-17.47,-8.15703259803724,9.217967401962758
132544000,-17.45,-8.136199753124686,9.218800246875313
132651000,-17.42,-8.114062516081308,9.210937483918693
132751000,-17.4,-8.09285220155033,9.212147798449667
132851000,-17.38,-8.070134859793196,9.214865140206802
132955000,-17.35,-8.046067388436926,9.208932611563075
133055000,-17.32,-8.020307768005608,9.204692231994391
133159000,-17.3,-7.993730716035869,9.21126928396413
133259000,-17.27,-7.965750625918888,9.20924937408111
133363000,-17.25,-7.926455339302037,9.228544660697962
133463000,-17.22,-7.888758391732333,9.236241608267665
133563000,-17.2,-7.853107745131804,9.251892254868194
133667000,-17.17,-7.816383384899683,9.258616615100317
133767000,-17.15,-7.779211383436447,9.27578861656355
133871000,-17.12,-7.730260702394177,9.294739297605824
133971000,-17.1,-7.682282942246739,9.32271705775326
134072000,-17.07,-7.6300133127787575,9.344986687221242
134175000,-17.05,-7.578769716039733,9.376230283960266
134276000,-17.02,-7.545145015759877,9.379854984240122
134379000,-17.0,-7.510367376862963,9.394632623137037
134480000,-16.97,-7.4765382864223815,9.398461713577616
134580000,-16.95,-7.441312544312371,9.413687455687628
134684000,-16.92,-7.4057695523811145,9.419230447618887
134784000,-16.9,-7.376039409213339,9.428960590786659
134887000,-16.88,-7.345460637703806,9.439539362296193
134988000,-16.85,-7.313962005874437,9.441037994125564
135088000,-16.82,-7.270714216408162,9.454285783591837
135191000,-16.8,-7.229290205762673,9.475709794237327
135292000,-16.77,-7.208948497430309,9.46605150256969
135395000,-16.75,-7.18800997474921,9.466990025250789
135495000,-16.72,-7.167417580855312,9.457582419144687
135596000,-16.7,-7.145020826502797,9.459979173497201
135703000,-16.67,-7.122244507697651,9.45275549230235
135803000,-16.65,-7.106637659416531,9.448362340583467
135907000,-16.62,-7.090555748610496,9.434444251389504
136007000,-16.6,-7.071629077350005,9.433370922649996
136111000,-16.57,-7.034773661822395,9.440226338177604
136211000,-16.55,-7.002328598548447,9.452671401451553
136312000,-16.52,-6.985253940545801,9.439746059454198
136415000,-16.5,-6.967654732429905,9.437345267570095
136516000,-16.47,-6.949733983945281,9.425266016054717
136619000,-16.45,-6.926081534596035,9.428918465403964
136719000,-16.42,-6.903696717359552,9.42130328264045
136820000,-16.4,-6.884856604086873,9.420143395913124
136924000,-16.38,-6.8672772219618,9.417722778038199
137024000,-16.35,-6.8626949705637195,9.392305029436281
137128000,-16.32,-6.857955763299847,9.367044236700153
137228000,-16.3,-6.852370687035778,9.352629312964222
137329000,-16.27,-6.840663578024016,9.334336421975982
137432000,-16.25,-6.82821683174246,9.32678316825754
137533000,-16.22,-6.813700527006838,9.311299472993161
137636000,-16.2,-6.79873232442461,9.30626767557539
137736000,-16.17,-6.784777184965121,9.29022281503488
137837000,-16.15,-6.774313839672017,9.280686160327981
137940000,-16.12,-6.763201816995675,9.261798183004325
138041000,-16.1,-6.750341545817113,9.254658454182888
138144000,-16.07,-6.737071176248107,9.237928823751892
138245000,-16.05,-6.723070263026012,9.231929736973987
138345000,-16.02,-6.7016721209095165,9.223327879090482
138449000,-16.0,-6.680553285743515,9.224446714256485
138549000,-16.0,-6.665984074443615,9.239015925556386
138653000,-16.0,-6.650970844866852,9.254029155133148
138753000,-16.0,-6.635017508059364,9.269982491940636
138853000,-16.0,-6.610074121264874,9.294925878735127
138959000,-16.0,-6.5820781388793055,9.322921861120694
139060000,-16.0,-6.547002124331704,9.357997875668294
139163000,-16.0,-6.51091357999277,9.394086420007229
139263000,-16.0,-6.474706691588584,9.430293308411416
139367000,-16.0,-6.430803394743377,9.474196605256623
139467000,-16.0,-6.390839992403104,9.514160007596894
139568000,-16.0,-6.364905917488888,9.540094082511112
139671000,-16.0,-6.338172895945201,9.566827104054799
139772000,-16.0,-6.308742022954644,9.596257977045356
139875000,-16.0,-6.255516886713066,9.649483113286934
139976000,-16.0,-6.20602559513434,9.698974404865659
140076000,-16.0,-6.168442673688905,9.736557326311095
140180000,-16.0,-6.132107786133426,9.772892213866573
140280000,-16.0,-6.111082442588708,9.793917557411293
140383000,-16.0,-6.08945330947045,9.81554669052955
140484000,-16.0,-6.067666907215023,9.837333092784975
140584000,-16.0,-6.0407818531214605,9.864218146878539
140688000,-16.0,-6.015244588006586,9.889755411993415
140788000,-16.0,-6.005335149143061,9.899664850856938
140891000,-16.0,-5.9951329605297285,9.90986703947027
140991000,-16.0,-5.986922519505833,9.918077480494167
141092000,-16.0,-5.990404308044003,9.914595691955997
141195000,-16.0,-5.996171939441797,9.908828060558202
141295000,-16.0,-6.016780296038973,9.888219703961026
141399000,-16.0,-6.038024124368341,9.866975875631658
141499000,-16.0,-6.059710889066826,9.845289110933173
141600000,-16.0,-6.0889629106283785,9.816037089371621
141703000,-16.0,-6.116944616215499,9.788055383784501
141803000,-16.0,-6.129580879651602,9.775419120348397
141907000,-16.0,-6.142602795458972,9.762397204541028
142007000,-16.0,-6.157794522481881,9.747205477518118
142107000,-16.0,-6.190830300403312,9.714169699596686
142211000,-16.0,-6.223453633390487,9.681546366609512
142311000,-16.0,-6.246046481195085,9.658953518804914
142414000,-16.0,-6.269317087059417,9.635682912940583
142515000,-16.0,-6.293142981986933,9.611857018013067
142618000,-16.0,-6.326620615666086,9.578379384333912
142719000,-16.0,-6.357538895108122,9.547461104891878
142819000,-16.0,-6.378082728639601,9.526917271360398
142923000,-16.0,-6.399265278335706,9.505734721664293
143023000,-16.0,-6.423569363151191,9.481430636848808
143127000,-16.0,-6.474219583040642,9.430780416959356
143227000,-16.0,-6.522895654271532,9.382104345728466
143327000,-16.0,-6.568591716543332,9.336408283456668
143431000,-16.0,-6.611524752961101,9.293475247038899
143531000,-16.0,-6.626498015771188,9.278501984228813
143634000,-16.0,-6.64188963226344,9.26311036773656
143735000,-16.0,-6.658064320998219,9.246935679001782
143835000,-16.0,-6.6826610521803635,9.222338947819635
143938000,-16.0,-6.706239244830138,9.198760755169863
144039000,-16.0,-6.717275551869798,9.187724448130203
144142000,-16.0,-6.728650556020921,9.17634944397908
144242000,-16.0,-6.737632962851204,9.167367037148795
144343000,-16.0,-6.732415484668458,9.172584515331542
144447000,-16.0,-6.7242937642267435,9.180706235773256
144548000,-16.0,-6.699464301311905,9.205535698688093
144651000,-16.0,-6.6739158232697955,9.231084176730205
144751000,-16.0,-6.648076036955173,9.256923963044827
144852000,-16.0,-6.6157381849769,9.2892618150231
144955000,-16.0,-6.58302922979933,9.32197077020067
145056000,-16.0,-6.555052462207762,9.349947537792238
145159000,-16.0,-6.526269465327767,9.378730534672233
145259000,-16.0,-6.496592081756945,9.408407918243055
145363000,-16.0,-6.454640935030133,9.450359064969867
145463000,-16.0,-6.416285642687731,9.488714357312269
145563000,-16.0,-6.3944293265847225,9.510570673415277
145666000,-16.0,-6.371970818178833,9.533029181821165
145767000,-16.0,-6.347626751817181,9.557373248182818
145870000,-16.0,-6.3043622427142205,9.60063775728578
145971000,-16.0,-6.261180206262514,9.643819793737485
146071000,-16.0,-6.209252014416839,9.69574798558316
146175000,-16.0,-6.158583902530114,9.746416097469885
146275000,-16.0,-6.12761502203481,9.77738497796519
146378000,-16.0,-6.095765007743661,9.809234992256338
146479000,-16.0,-6.0667022302950535,9.838297769704946
146579000,-16.0,-6.050494792649319,9.85450520735068
146682000,-16.0,-6.03543634124204,9.86956365875796
146783000,-16.0,-6.031921951958185,9.873078048041814
146886000,-16.0,-6.0283054127640945,9.876694587235905
146986000,-16.0,-6.0258586164153645,9.879141383584635
147087000,-16.0,-6.030933789163038,9.874066210836961
147190000,-16.0,-6.035751626432189,9.86924837356781
147291000,-16.0,-6.037679806444612,9.867320193555388
147394000,-16.0,-6.039664620266015,9.865335379733985
147494000,-16.0,-6.043112607888627,9.861887392111372
147595000,-16.0,-6.056926440472085,9.848073559527913
147698000,-16.0,-6.070766946931301,9.834233053068699
147798000,-16.0,-6.081787064554449,9.82321293544555
147902000,-16.0,-6.0931262715722,9.8118737284278
148002000,-16.0,-6.107580871611571,9.797419128388428
148102000,-16.0,-6.146320012319955,9.758679987680045
148206000,-16.0,-6.184508323017928,9.720491676982071
148306000,-16.0,-6.210600438384556,9.694399561615443
148409000,-16.0,-6.237442930633541,9.667557069366458
148510000,-16.0,-6.264702666168099,9.640297333831901
148615000,-16.0,-6.301952503962753,9.603047496037247
148716000,-16.02,-6.337179070347051,9.587820929652947
148816000,-16.05,-6.372010029218676,9.582989970781325
148920000,-16.08,-6.407851553018213,9.577148446981784
149020000,-16.1,-6.447972966048092,9.55702703395191
149123000,-16.12,-6.520195189878755,9.504804810121245
149224000,-16.15,-6.58473775597092,9.470262244029078
149324000,-16.17,-6.619242891969079,9.455757108030921
149427000,-16.2,-6.649873594280967,9.455126405719032
149528000,-16.23,-6.648012423233303,9.486987576766696
149631000,-16.25,-6.646099174871243,9.508900825128757
149732000,-16.27,-6.647094857724031,9.527905142275968
149832000,-16.3,-6.667517200235344,9.537482799764655
149936000,-16.33,-6.687997092010616,9.547002907989382
150036000,-16.35,-6.704580861510411,9.55041913848959
150140000,-16.38,-6.721687616933264,9.563312383066735
150240000,-16.4,-6.734455130460346,9.570544869539651
150340000,-16.42,-6.72296277278147,9.602037227218531
150444000,-16.45,-6.711889848037881,9.643110151962118
150544000,-16.48,-6.706115469156207,9.678884530843794
150648000,-16.5,-6.7001583675340095,9.70484163246599
150748000,-16.52,-6.695580471606535,9.729419528393464
150849000,-16.55,-6.69873676485383,9.75626323514617
150952000,-16.58,-6.700616891798117,9.784383108201881
151053000,-16.6,-6.693403780348065,9.811596219651936
151156000,-16.62,-6.6859913342688335,9.839008665731166
151256000,-16.65,-6.678431644066847,9.87656835593315
151357000,-16.67,-6.668520545524867,9.906479454475134
151460000,-16.7,-6.660887605005578,9.944112394994422
151560000,-16.73,-6.671038542396495,9.963961457603505
151663000,-16.75,-6.681473525748929,9.97352647425107
151764000,-16.77,-6.692554838989385,9.982445161010615
151867000,-16.8,-6.710817236935044,9.994182763064957
151968000,-16.83,-6.7293208454188935,10.005679154581104
152068000,-16.85,-6.753317210301755,10.001682789698245
152171000,-16.88,-6.777995783875625,10.007004216124374
152272000,-16.9,-6.80522915564313,9.999770844356869
152375000,-16.92,-6.85584542959154,9.969154570408461
152476000,-16.95,-6.903151438501453,9.951848561498545
152576000,-16.98,-6.938102469555127,9.946897530444874
152680000,-17.0,-6.97213822966526,9.932861770334739
152780000,-17.03,-6.992310204496959,9.94268979550304
152884000,-17.05,-7.013033452897124,9.941966547102876
152984000,-17.08,-7.034756873177555,9.950243126822443
153085000,-17.1,-7.066960605973616,9.938039394026385
153188000,-17.12,-7.100592362600459,9.924407637399542
153288000,-17.15,-7.136976833133142,9.918023166866856
153391000,-17.17,-7.1744249956063655,9.900575004393636
153492000,-17.2,-7.214259464303179,9.89074053569682
153592000,-17.23,-7.276969937775608,9.858030062224392
153696000,-17.25,-7.338988720701271,9.81601127929873
153796000,-17.28,-7.3817608743831835,9.803239125616818
153899000,-17.3,-7.425803756665267,9.779196243334733
154000000,-17.33,-7.470440774950834,9.764559225049164
154100000,-17.35,-7.528541267395555,9.726458732604446
154204000,-17.38,-7.585675477503535,9.699324522496463
154304000,-17.4,-7.623765010154317,9.68123498984568
154407000,-17.42,-7.66305549073126,9.661944509268741
154508000,-17.45,-7.701463491660137,9.653536508339862
154612000,-17.48,-7.743714980204108,9.641285019795893
154713000,-17.5,-7.783251480755868,9.62174851924413
154813000,-17.53,-7.816616264713599,9.618383735286402
154916000,-17.55,-7.850947030217329,9.604052969782671
155017000,-17.58,-7.885207547589244,9.599792452410755
155120000,-17.6,-7.926443470206028,9.578556529793973
155221000,-17.62,-7.962856218097929,9.562143781902071
155321000,-17.65,-7.977999221210469,9.577000778789529
155424000,-17.67,-7.992621561929812,9.582378438070188
155525000,-17.7,-8.000495640638606,9.604504359361393
155628000,-17.73,-8.008612375783677,9.626387624216322
155729000,-17.75,-8.01764676863061,9.637353231369389
155829000,-17.78,-8.034482576693186,9.650517423306814
155933000,-17.8,-8.05234560927474,9.65265439072526
156033000,-17.83,-8.073790516144008,9.66120948385599
156142000,-17.85,-8.097041038554938,9.657958961445063
156242000,-17.88,-8.118111187997576,9.666888812002423
156343000,-17.9,-8.137310965885135,9.667689034114863
156446000,-17.92,-8.153944155143389,9.671055844856612
156547000,-17.95,-8.15653757424064,9.69846242575936
156650000,-17.98,-8.159211120497922,9.725788879502078
156750000,-18.0,-8.165926123820718,9.739073876179281
156851000,-18.02,-8.190620116046377,9.734379883953622
156955000,-18.05,-8.21602952559615,9.73897047440385
157055000,-18.08,-8.239733417483901,9.745266582516097
157159000,-18.1,-8.264203956224664,9.740796043775337
157259000,-18.12,-8.284490720918173,9.740509279081827
157363000,-18.15,-8.283348912173114,9.771651087826884
157464000,-18.18,-8.282168180613315,9.802831819386684
157564000,-18.2,-8.280495269262666,9.824504730737333
157668000,-18.23,-8.278775915398729,9.856224084601271
157768000,-18.25,-8.28085568265381,9.87414431734619
157871000,-18.27,-8.306111537082845,9.868888462917154
157972000,-18.3,-8.33265804645235,9.87234195354765
158072000,-18.33,-8.372152917540571,9.862847082459426
158177000,-18.35,-8.411055154511079,9.843944845488922
158278000,-18.38,-8.434937565611989,9.85006243438801
158381000,-18.4,-8.459502477140552,9.845497522859446
158481000,-18.43,-8.48350531754665,9.85149468245335
158582000,-18.45,-8.50846233337423,9.84653766662577
158685000,-18.48,-8.53358935632717,9.85141064367283
158785000,-18.5,-8.554770003888523,9.850229996111477
158889000,-18.53,-8.576578117009987,9.858421882990013
158989000,-18.55,-8.598219156971428,9.856780843028572
159089000,-18.58,-8.62310699993961,9.861893000060387
159193000,-18.6,-8.648953814265841,9.85604618573416
159293000,-18.62,-8.67577623786495,9.84922376213505
159396000,-18.65,-8.703364289984986,9.851635710015012
159497000,-18.68,-8.733000640524011,9.851999359475988
159597000,-18.7,-8.781894178104928,9.823105821895071
159700000,-18.73,-8.829415204530466,9.805584795469533
159801000,-18.75,-8.857036639501322,9.797963360498677
159904000,-18.78,-8.885481784453873,9.799518215546128
160005000,-18.8,-8.91539799305146,9.78960200694854
160105000,-18.83,-8.961596782511986,9.773403217488012
160209000,-18.85,-9.00650092009591,9.748499079904091
160309000,-18.88,-9.033420167385696,9.751579832614302
160412000,-18.9,-9.061184457359008,9.74381554264099
160513000,-18.93,-9.0895096878307,9.745490312169299
160616000,-18.95,-9.128413250142353,9.726586749857645
160717000,-18.98,-9.164824796483062,9.720175203516938
160817000,-19.0,-9.192924986021923,9.712075013978076
160921000,-19.03,-9.221912391200968,9.713087608799032
161021000,-19.05,-9.252446011955286,9.702553988044714
161124000,-19.08,-9.300349568748166,9.684650431251832
161225000,-19.1,-9.345680006782604,9.659319993217396
161325000,-19.12,-9.38360946983746,9.64139053016254
161429000,-19.15,-9.4189028593443,9.636097140655698
161529000,-19.18,-9.429019901554653,9.655980098445346
161633000,-19.2,-9.439462734320417,9.665537265679582
161733000,-19.23,-9.452980472768967,9.682019527231033
161834000,-19.25,-9.488341105073161,9.666658894926838
161937000,-19.28,-9.522428215000168,9.662571784999832
162038000,-19.3,-9.540732153371605,9.664267846628395
162141000,-19.33,-9.559660067405087,9.67533993259491
162242000,-19.35,-9.578422072068655,9.676577927931346
162342000,-19.38,-9.600017547706692,9.684982452293307
162446000,-19.4,-9.621683719108454,9.683316280891544
162546000,-19.43,-9.639218163736878,9.695781836263121
162649000,-19.45,-9.657271885190355,9.697728114809644
162750000,-19.48,-9.675163468234585,9.709836531765415
162850000,-19.5,-9.695466166236859,9.70953383376314
162954000,-19.53,-9.71573221265144,9.71926778734856
163055000,-19.55,-9.730405041067677,9.724594958932324
163158000,-19.58,-9.74553979772743,9.739460202272568
163259000,-19.6,-9.762700827810434,9.742299172189567
163362000,-19.62,-9.796480838806485,9.728519161193516
163463000,-19.65,-9.826310041440408,9.72868995855959
163563000,-19.68,-9.838348107501037,9.746651892498962
163667000,-19.7,-9.850754403549285,9.754245596450714
163767000,-19.73,-9.864955169853843,9.770044830146157
163872000,-19.75,-9.893794041607617,9.761205958392383
163973000,-19.78,-9.919794725689204,9.765205274310796
164073000,-19.8,-9.937678986631903,9.767321013368097
164177000,-19.83,-9.955052406157181,9.779947593842817
164277000,-19.85,-9.966332948090528,9.788667051909473
164381000,-19.88,-9.97797457282893,9.807025427171068
164481000,-19.9,-9.988776985314793,9.816223014685205
164582000,-19.93,-9.99697247254959,9.838027527450409
164685000,-19.95,-10.006922864449912,9.848077135550087
164785000,-19.98,-10.025522592143544,9.859477407856456
164889000,-20.0,-10.044706467983824,9.860293532016176
164989000,-20.0,-10.066202513274254,9.838797486725746
165090000,-20.0,-10.106543630138383,9.798456369861617
165193000,-20.0,-10.146309063545129,9.75869093645487
165293000,-20.0,-10.173933674811119,9.73106632518888
165397000,-20.0,-10.202386087133208,9.702613912866791
165497000,-20.0,-10.231695939897698,9.673304060102302
165597000,-20.0,-10.272424602216939,9.63257539778306
165701000,-20.0,-10.312467579973815,9.592532420026185
165801000,-20.0,-10.338238497379264,9.566761502620736
165905000,-20.0,-10.364769461157511,9.540230538842488
166005000,-20.0,-10.39127313220131,9.51372686779869
166106000,-20.0,-10.422918854605213,9.482081145394787
166209000,-20.0,-10.454091270960776,9.450908729039224
166309000,-20.0,-10.475201709254044,9.429798290745955
166413000,-20.0,-10.49691843331787,9.40808156668213
166513000,-20.0,-10.517961240043824,9.387038759956175
166617000,-20.0,-10.53935472567622,9.365645274323779
166717000,-20.0,-10.559305268913395,9.345694731086605
166817000,-20.0,-10.57434909592748,9.330650904072519
166921000,-20.0,-10.589878314913408,9.315121685086591
167021000,-20.0,-10.604903277969786,9.300096722030213
167125000,-20.0,-10.620341572996793,9.284658427003206
167225000,-20.0,-10.63370289853866,9.27129710146134
167326000,-20.0,-10.637315017432355,9.267684982567644
167430000,-20.0,-10.639592471187509,9.26540752881249
167530000,-20.0,-10.63273961214584,9.272260387854159
167633000,-20.0,-10.625676468314216,9.279323531685783
167734000,-20.0,-10.61697292664461,9.288027073355389
167834000,-20.0,-10.5965832860606,9.3084167139394
167938000,-20.0,-10.576973426322123,9.328026573677876
168038000,-20.0,-10.56703687501896,9.337963124981039
168141000,-20.0,-10.55679260655905,9.34820739344095
168242000,-20.0,-10.547259986396142,9.357740013603857
168342000,-20.0,-10.540357495600158,9.364642504399841
168445000,-20.0,-10.531924075779152,9.373075924220847
168546000,-20.0,-10.514750218085272,9.390249781914727
168649000,-20.0,-10.49703451930257,9.40796548069743
168750000,-20.0,-10.476733585473035,9.428266414526965
168850000,-20.0,-10.435592315297312,9.469407684702688
168953000,-20.0,-10.393446738658307,9.511553261341692
169054000,-20.0,-10.353676917160673,9.551323082839327
169157000,-20.0,-10.312671185351293,9.592328814648706
169258000,-20.0,-10.273535667745726,9.631464332254273
169358000,-20.0,-10.238520427862769,9.66647957213723
169462000,-20.0,-10.205488218985163,9.699511781014836
169562000,-20.0,-10.192826279547408,9.712173720452592
169668000,-20.0,-10.179485556285533,9.725514443714466
169768000,-20.0,-10.166156887643375,9.738843112356625
169872000,-20.0,-10.148632188860827,9.756367811139173
169972000,-20.0,-10.131360381797181,9.773639618202818
170073000,-20.0,-10.112392967870337,9.792607032129663
170176000,-20.0,-10.092889055348612,9.812110944651387
170277000,-20.0,-10.075703830876174,9.829296169123825
170380000,-20.0,-10.067385414221464,9.837614585778535
170480000,-20.0,-10.061108192400324,9.843891807599675
170581000,-20.0,-10.065826085944492,9.839173914055507
170684000,-20.0,-10.07063944018556,9.834360559814439
170785000,-20.0,-10.075012514374597,9.829987485625402
170888000,-20.0,-10.07951579159123,9.825484208408769
170988000,-20.0,-10.086663196010303,9.818336803989697
171089000,-20.0,-10.112894815098551,9.792105184901448
171192000,-20.0,-10.139106404650736,9.765893595349263
171293000,-20.0,-10.159161401786905,9.745838598213094
171396000,-20.0,-10.179794745825903,9.725205254174096
171496000,-20.0,-10.201786144086393,9.703213855913607
171597000,-20.0,-10.236765423801401,9.668234576198598
171700000,-20.0,-10.27188344649393,9.633116553506069
171800000,-20.0,-10.300096482541905,9.604903517458094
