timestamp,TimeUS,ThI,ABst,ThO,ThH,DAlt,Alt,BAlt,DSAlt,SAlt,TAlt,DCRt,CRt
1678313206.67999983,599824000,0.0,0.0,0.5,0.5,0.0,0.019629325717687607,-0.28588807582855225,0.0,9.870000000000001,0.0,0,3
1678313206.77999997,599924000,0.0,0.0,0.5,0.5,0.0,0.024405326694250107,-0.05651427060365677,0.0,9.89,0.0,0,4
1678313206.87999988,600024000,0.0,0.0,0.5,0.5,0.0,0.029445495456457138,-0.17103596031665802,0.0,9.89,0.0,0,4
1678313206.98000002,600124000,0.0,0.0,0.5,0.5,0.0,0.03365596756339073,-0.1772799789905548,0.0,9.89,0.0,0,0
1678313207.07999992,600224000,0.0,0.0,0.5,0.5,0.0,0.030399169772863388,-0.1378978043794632,0.0,9.88,0.0,0,-5
1678313207.17999983,600324000,0.0,0.0,0.5,0.5,0.0,0.025534477084875107,-0.024344706907868385,0.0,9.870000000000001,0.0,0,-5
1678313207.27999997,600424000,0.0,0.0,0.4962500035762787,0.5,0.0,0.021259155124425888,-0.22158680856227875,0.0,9.86,0.0,0,-4
1678313207.37999988,600524000,0.0,0.0,0.30125001072883606,0.5,0.0,0.007232513278722763,-0.24785953760147095,0.0,9.870000000000001,0.0,0,-29
1678313207.48000002,600624000,0.0,0.0,0.25,0.5,0.0,-0.037969741970300674,-0.42393773794174194,0.0,9.84,0.0,0,-60
1678313207.57999992,600724000,0.0,0.0,0.25,0.5,0.0,-0.10597148537635803,-0.21156847476959229,0.0,9.77,0.0,0,-75
1678313207.67999983,600824000,0.0,0.0,0.25,0.5,0.0,-0.1821986734867096,-0.6026059985160828,0.0,9.69,0.0,0,-80
1678313207.77999997,600924000,0.0,0.0,0.25,0.5,0.0,-0.26125064492225647,-0.508105456829071,0.0,9.620000000000001,0.0,0,-81
1678313207.87999988,601024000,0.0,0.0,0.25,0.5,0.0,-0.3404170572757721,-0.6266226768493652,0.0,9.540000000000001,0.0,0,-82
1678313207.98000002,601124000,0.0,0.0,0.25,0.5,0.0,-0.4195310175418854,-0.7112160921096802,0.0,9.450000000000001,0.0,0,-82
1678313208.07999992,601224000,0.0,0.0,0.25,0.5,0.0,-0.4986173212528229,-0.5742119550704956,0.0,9.370000000000001,0.0,0,-81
1678313208.17999983,601324000,0.0,0.0,0.25,0.5,0.0,-0.5775663256645203,-0.659976065158844,0.0,9.27,0.0,0,-81
1678313208.27999997,601424000,0.0,0.0,0.25,0.5,0.0,-0.6571952700614929,-0.8472281694412231,0.0,9.19,0.0,0,-81
1678313208.37999988,601524000,0.0,0.0,0.25,0.5,0.0,-0.7369862794876099,-0.9351159930229187,0.0,9.11,0.0,0,-81
1678313208.48000002,601624000,0.0,0.0,0.25,0.5,0.0,-0.817205548286438,-0.9097835421562195,0.0,9.02,0.0,0,-81
1678313208.57999992,601724000,0.0,0.0,0.25,0.5,0.0,-0.8977043032646179,-1.2255815267562866,0.0,8.94,0.0,0,-81
1678313208.67999983,601824000,0.0,0.0,0.25,0.5,0.0,-0.978228747844696,-1.2975860834121704,0.0,8.870000000000001,0.0,0,-81
1678313208.77999997,601924000,0.0,0.0,0.25,0.5,0.0,-1.0593005418777466,-1.1347787380218506,0.0,8.8,0.0,0,-81
1678313208.87999988,602024000,0.0,0.0,0.25,0.5,0.0,-1.1401807069778442,-1.5901143550872803,0.0,8.71,0.0,0,-81
1678313208.98000002,602124000,0.0,0.0,0.25,0.5,0.0,-1.221152424812317,-1.3873708248138428,0.0,8.63,0.0,0,-81
1678313209.07999992,602224000,0.0,0.0,0.25,0.5,0.0,-1.3021488189697266,-1.3853687047958374,0.0,8.540000000000001,0.0,0,-81
1678313209.17999983,602324000,0.0,0.0,0.25,0.5,0.0,-1.3828288316726685,-1.733815312385559,0.0,8.47,0.0,0,-81
1678313209.27999997,602424000,0.0,0.0,0.25,0.5,0.0,-1.4640122652053833,-1.9085131883621216,0.0,8.370000000000001,0.0,0,-81
1678313209.37999988,602524000,0.0,0.0,0.25,0.5,0.0,-1.5448676347732544,-1.7446659803390503,0.0,8.3,0.0,0,-81
1678313209.48000002,602624000,0.0,0.0,0.25,0.5,0.0,-1.625956654548645,-2.0622947216033936,0.0,8.2,0.0,0,-81
1678313209.57999992,602724000,0.0,0.0,0.25,0.5,0.0,-1.70732843875885,-1.9790377616882324,0.0,8.13,0.0,0,-81
1678313209.67999983,602824000,0.0,0.0,0.25,0.5,0.0,-1.7886910438537598,-2.2603955268859863,0.0,8.040000000000001,0.0,0,-81
1678313209.77999997,602924000,0.0,0.0,0.25,0.5,0.0,-1.8703891038894653,-2.0509557723999023,0.0,7.97,0.0,0,-81
1678313209.87999988,603024000,0.0,0.0,0.25,0.5,0.0,-1.9519715309143066,-2.0932087898254395,0.0,7.890000000000001,0.0,0,-81
1678313209.98000002,603124000,0.0,0.0,0.25,0.5,0.0,-2.033818006515503,-2.5182158946990967,0.0,7.8,0.0,0,-81
1678313210.07999992,603224000,0.0,0.0,0.25,0.5,0.0,-2.115800142288208,-2.4524290561676025,0.0,7.72,0.0,0,-81
1678313210.17999983,603324000,0.0,0.0,0.25,0.5,0.0,-2.1976401805877686,-2.3450963497161865,0.0,7.640000000000001,0.0,0,-81
1678313210.27999997,603424000,0.0,0.0,0.25,0.5,0.0,-2.2797939777374268,-2.619332790374756,0.0,7.55,0.0,0,-81
1678313210.37999988,603524000,0.0,0.0,0.25,0.5,0.0,-2.3616573810577393,-2.582132577896118,0.0,7.47,0.0,0,-81
1678313210.48000002,603624000,0.0,0.0,0.25,0.5,0.0,-2.4437174797058105,-2.8792433738708496,0.0,7.390000000000001,0.0,0,-81
1678313210.57999992,603724000,0.0,0.0,0.25,0.5,0.0,-2.526036500930786,-2.93770170211792,0.0,7.3100000000000005,0.0,0,-81
1678313210.67999983,603824000,0.0,0.0,0.25,0.5,0.0,-2.608144521713257,-2.8057215213775635,0.0,7.23,0.0,0,-81
1678313210.77999997,603924000,0.0,0.0,0.25,0.5,0.0,-2.6905367374420166,-3.054661989212036,0.0,7.140000000000001,0.0,0,-81
1678313210.87999988,604024000,0.0,0.0,0.25,0.5,0.0,-2.7726283073425293,-3.2536184787750244,0.0,7.0600000000000005,0.0,0,-81
1678313210.98000002,604124000,0.0,0.0,0.25,0.5,0.0,-2.8548977375030518,-3.0610268115997314,0.0,6.97,0.0,0,-81
1678313211.07999992,604224000,0.0,0.0,0.25,0.5,0.0,-2.9373996257781982,-3.3972129821777344,0.0,6.890000000000001,0.0,0,-81
1678313211.17999983,604324000,0.0,0.0,0.25,0.5,0.0,-3.0198869705200195,-3.3294124603271484,0.0,6.82,0.0,0,-81
1678313211.27999997,604424000,0.0,0.0,0.25,0.5,0.0,-3.1027023792266846,-3.305259943008423,0.0,6.74,0.0,0,-81
1678313211.37999988,604524000,0.0,0.0,0.25,0.5,0.0,-3.1851141452789307,-3.494265079498291,0.0,6.65,0.0,0,-81
1678313211.48000002,604624000,0.0,0.0,0.25,0.5,0.0,-3.2676658630371094,-3.699099063873291,0.0,6.57,0.0,0,-81
1678313211.57999992,604724000,0.0,0.0,0.25,0.5,0.0,-3.350285530090332,-3.556896448135376,0.0,6.49,0.0,0,-81
1678313211.67999983,604824000,0.0,0.0,0.25,0.5,0.0,-3.4325361251831055,-3.7887628078460693,0.0,6.41,0.0,0,-81
1678313211.77999997,604924000,0.0,0.0,0.25,0.5,0.0,-3.5150980949401855,-3.855112314224243,0.0,6.32,0.0,0,-81
1678313211.87999988,605024000,0.0,0.0,0.5,0.5,0.0,-3.585780143737793,-3.875187397003174,0.0,6.25,0.0,0,-55
1678313211.98000002,605124000,0.0,0.0,0.5,0.5,0.0,-3.6325857639312744,-4.126228332519531,0.0,6.19,0.0,0,-39
1678313212.07999992,605224000,0.0,0.0,0.5,0.5,0.0,-3.667602777481079,-3.873974084854126,0.0,6.140000000000001,0.0,0,-30
1678313212.17999983,605324000,0.0,0.0,0.5,0.5,0.0,-3.695857048034668,-3.9161622524261475,0.0,6.11,0.0,0,-24
1678313212.27999997,605424000,0.0,0.0,0.5,0.5,0.0,-3.71985125541687,-4.1898698806762695,0.0,6.1000000000000005,0.0,0,-20
1678313212.37999988,605524000,0.0,0.0,0.5,0.5,0.0,-3.7408552169799805,-3.9430222511291504,0.0,6.09,0.0,0,-17
1678313212.48000002,605624000,0.0,0.0,0.5,0.5,0.0,-3.7592735290527344,-4.263062000274658,0.0,6.07,0.0,0,-15
1678313212.57999992,605724000,0.0,0.0,0.5,0.5,0.0,-3.775663137435913,-4.1946797370910645,0.0,6.0600000000000005,0.0,0,-13
1678313212.67999983,605824000,0.0,0.0,0.5,0.5,0.0,-3.7903730869293213,-3.949781656265259,0.0,6.04,0.0,0,-12
1678313212.77999997,605924000,0.0,0.0,0.5,0.5,0.0,-3.8034932613372803,-4.068952560424805,0.0,6.04,0.0,0,-10
1678313212.87999988,606024000,0.0,0.0,0.5,0.5,0.0,-3.8151824474334717,-4.205820083618164,0.0,6.0200000000000005,0.0,0,-9
1678313212.98000002,606124000,0.0,0.0,0.5,0.5,0.0,-3.8258731365203857,-4.373621463775635,0.0,6.01,0.0,0,-8
1678313213.07999992,606224000,0.0,0.0,0.5,0.5,0.0,-3.8355391025543213,-4.232278347015381,0.0,6.0,0.0,0,-8
1678313213.17999983,606324000,0.0,0.0,0.5,0.5,0.0,-3.844313383102417,-4.196555137634277,0.0,5.99,0.0,0,-7
1678313213.27999997,606424000,0.0,0.0,0.5,0.5,0.0,-3.8522822856903076,-4.189939498901367,0.0,5.99,0.0,0,-6
1678313213.37999988,606524000,0.0,0.0,0.5,0.5,0.0,-3.8597218990325928,-4.405247211456299,0.0,5.98,0.0,0,-6
1678313213.48000002,606624000,0.0,0.0,0.5,0.5,0.0,-3.8663909435272217,-4.030490398406982,0.0,5.98,0.0,0,-5
1678313213.57999992,606724000,0.0,0.0,0.5,0.5,0.0,-3.872544765472412,-4.250949382781982,0.0,5.96,0.0,0,-5
1678313213.67999983,606824000,0.0,0.0,0.5,0.5,0.0,-3.8780150413513184,-4.2931132316589355,0.0,5.97,0.0,0,-4
1678313213.77999997,606924000,0.0,0.0,0.5,0.5,0.0,-3.8829457759857178,-4.074014663696289,0.0,5.97,0.0,0,-4
1678313213.87999988,607024000,0.0,0.0,0.5,0.5,0.0,-3.887382745742798,-4.133390426635742,0.0,5.96,0.0,0,-3
1678313213.98000002,607124000,0.0,0.0,0.5,0.5,0.0,-3.891298532485962,-4.3112897872924805,0.0,5.97,0.0,0,-3
1678313214.07999992,607224000,0.0,0.0,0.5,0.5,0.0,-3.8952434062957764,-4.354986667633057,0.0,5.97,0.0,0,-3
1678313214.17999983,607324000,0.0,0.0,0.5,0.5,0.0,-3.8988804817199707,-4.298516273498535,0.0,5.96,0.0,0,-2
1678313214.27999997,607424000,0.0,0.0,0.5,0.5,0.0,-3.9019694328308105,-4.293858528137207,0.0,5.94,0.0,0,-2
1678313214.37999988,607524000,0.0,0.0,0.5,0.5,0.0,-3.904597282409668,-4.231047630310059,0.0,5.92,0.0,0,-2
1678313214.48000002,607624000,0.0,0.0,0.5,0.5,0.0,-3.9069955348968506,-4.169468879699707,0.0,5.93,0.0,0,-1
1678313214.57999992,607724000,0.0,0.0,0.5,0.5,0.0,-3.9090569019317627,-4.087940692901611,0.0,5.91,0.0,0,-1
1678313214.67999983,607824000,0.0,0.0,0.5,0.5,0.0,-3.9110829830169678,-4.0951409339904785,0.0,5.91,0.0,0,-1
1678313214.77999997,607924000,0.0,0.0,0.5,0.5,0.0,-3.91313099861145,-4.236333847045898,0.0,5.91,0.0,0,0
1678313214.87999988,608024000,0.0,0.0,0.5,0.5,0.0,-3.9160029888153076,-4.383477210998535,0.0,5.9,0.0,0,0
1678313214.98000002,608124000,0.0,0.0,0.5,0.5,0.0,-3.9187746047973633,-4.24649715423584,0.0,5.89,0.0,0,0
1678313215.07999992,608224000,0.0,0.0,0.5,0.5,0.0,-3.9213597774505615,-4.218642234802246,0.0,5.91,0.0,0,0
1678313215.17999983,608324000,0.0,0.0,0.5,0.5,0.0,-3.923208475112915,-4.072657108306885,0.0,5.92,0.0,0,0
1678313215.27999997,608424000,0.0,0.0,0.5,0.5,0.0,-3.9243040084838867,-4.107746124267578,0.0,5.94,0.0,0,0
1678313215.37999988,608524000,0.0,0.0,0.5,0.5,0.0,-3.924407482147217,-4.295816898345947,0.0,5.94,0.0,0,0
1678313215.48000002,608624000,0.0,0.0,0.5,0.5,0.0,-3.9232466220855713,-4.346463680267334,0.0,5.96,0.0,0,0
1678313215.57999992,608724000,0.0,0.0,0.5,0.5,0.0,-3.9214558601379395,-4.178267002105713,0.0,5.96,0.0,0,1
1678313215.67999983,608824000,0.0,0.0,0.5,0.5,0.0,-3.918520212173462,-4.381692409515381,0.0,5.96,0.0,0,1
1678313215.77999997,608924000,0.0,0.0,0.5,0.5,0.0,-3.914989471435547,-4.026537895202637,0.0,5.96,0.0,0,2
1678313215.87999988,609024000,0.0,0.0,0.5,0.5,0.0,-3.9107601642608643,-4.2089948654174805,0.0,5.97,0.0,0,2
1678313215.98000002,609124000,0.0,0.0,0.5,0.5,0.0,-3.906250476837158,-4.3291730880737305,0.0,5.98,0.0,0,2
1678313216.07999992,609224000,0.0,0.0,0.5,0.5,0.0,-3.9009437561035156,-4.094036102294922,0.0,5.98,0.0,0,3
1678313216.17999983,609324000,0.0,0.0,0.5,0.5,0.0,-3.894895315170288,-4.229830265045166,0.0,5.98,0.0,0,3
1678313216.27999997,609424000,0.0,0.0,0.5,0.5,0.0,-3.8888444900512695,-4.347437858581543,0.0,5.97,0.0,0,3
1678313216.37999988,609524000,0.0,0.0,0.5,0.5,0.0,-3.882624387741089,-4.146056175231934,0.0,5.98,0.0,0,3
1678313216.48000002,609624000,0.0,0.0,0.5,0.5,0.0,-3.876408338546753,-4.273513317108154,0.0,6.0,0.0,0,3
1678313216.57999992,609724000,0.0,0.0,0.5,0.5,0.0,-3.8701303005218506,-4.007414817810059,0.0,6.01,0.0,0,4
1678313216.67999983,609824000,0.0,0.0,0.5,0.5,0.0,-3.8633196353912354,-4.2275285720825195,0.0,6.0200000000000005,0.0,0,4
1678313216.77999997,609924000,0.0,0.0,0.5,0.5,0.0,-3.8559157848358154,-4.290606498718262,0.0,6.01,0.0,0,4
1678313216.87999988,610024000,0.0,0.0,0.5,0.5,0.0,-3.8486764430999756,-4.166075229644775,0.0,6.0,0.0,0,5
1678313216.98000002,610124000,0.0,0.0,0.5,0.5,0.0,-3.841613292694092,-4.096391201019287,0.0,6.01,0.0,0,5
1678313217.07999992,610224000,0.0,0.0,0.5,0.5,0.0,-3.834888458251953,-4.315098285675049,0.0,6.0200000000000005,0.0,0,5
1678313217.17999983,610324000,0.0,0.0,0.5,0.5,0.0,-3.8283281326293945,-4.24548864364624,0.0,6.03,0.0,0,5
1678313217.27999997,610424000,0.0,0.0,0.5,0.5,0.0,-3.821533679962158,-4.123228073120117,0.0,6.03,0.0,0,5
1678313217.37999988,610524000,0.0,0.0,0.5,0.5,0.0,-3.8145670890808105,-4.0028228759765625,0.0,6.03,0.0,0,5
1678313217.48000002,610624000,0.0,0.0,0.5,0.5,0.0,-3.8075335025787354,-4.029735565185547,0.0,6.05,0.0,0,5
1678313217.57999992,610724000,0.0,0.0,0.5,0.5,0.0,-3.8005211353302,-4.110884189605713,0.0,6.07,0.0,0,6
1678313217.67999983,610824000,0.0,0.0,0.5,0.5,0.0,-3.793431282043457,-4.00869083404541,0.0,6.07,0.0,0,6
1678313217.77999997,610924000,0.0,0.0,0.5,0.5,0.0,-3.786167860031128,-4.013335227966309,0.0,6.07,0.0,0,6
1678313217.87999988,611024000,0.0,0.0,0.46000000834465027,0.5,0.0,-3.7793965339660645,-4.069227695465088,0.0,6.07,0.0,0,3
1678313217.98000002,611124000,0.0,0.0,0.4375,0.5,0.0,-3.7789599895477295,-4.052443981170654,0.0,6.08,0.0,0,-5
1678313218.07999992,611224000,0.0,0.0,0.4337500035762787,0.5,0.0,-3.789489269256592,-4.042083263397217,0.0,6.08,0.0,0,-16
1678313218.17999983,611324000,0.0,0.0,0.4337500035762787,0.5,0.0,-3.8103175163269043,-4.252410888671875,0.0,6.05,0.0,0,-25
1678313218.27999997,611424000,0.0,0.0,0.4037500023841858,0.5,0.0,-3.839695692062378,-4.221214294433594,0.0,6.03,0.0,0,-35
1678313218.37999988,611524000,0.0,0.0,0.4025000035762787,0.5,0.0,-3.8777501583099365,-4.102931976318359,0.0,5.99,0.0,0,-42
1678313218.48000002,611624000,0.0,0.0,0.39625000953674316,0.5,0.0,-3.9215505123138428,-4.336434841156006,0.0,5.95,0.0,0,-47
1678313218.57999992,611724000,0.0,0.0,0.39625000953674316,0.5,0.0,-3.968899726867676,-4.182046413421631,0.0,5.9,0.0,0,-50
1678313218.67999983,611824000,0.0,0.0,0.39750000834465027,0.5,0.0,-4.017742156982422,-4.212218761444092,0.0,5.8500000000000005,0.0,0,-51
1678313218.77999997,611924000,0.0,0.0,0.39750000834465027,0.5,0.0,-4.067331314086914,-4.526968479156494,0.0,5.8,0.0,0,-51
1678313218.87999988,612024000,0.0,0.0,0.39625000953674316,0.5,0.0,-4.116955757141113,-4.425852298736572,0.0,5.74,0.0,0,-51
1678313218.98000002,612124000,0.0,0.0,0.39625000953674316,0.5,0.0,-4.167187690734863,-4.505684852600098,0.0,5.69,0.0,0,-52
1678313219.07999992,612224000,0.0,0.0,0.39625000953674316,0.5,0.0,-4.2177934646606445,-4.435294151306152,0.0,5.64,0.0,0,-52
1678313219.17999983,612324000,0.0,0.0,0.39625000953674316,0.5,0.0,-4.268354415893555,-4.638362407684326,0.0,5.58,0.0,0,-52
1678313219.27999997,612424000,0.0,0.0,0.39625000953674316,0.5,0.0,-4.319285869598389,-4.864050388336182,0.0,5.53,0.0,0,-52
1678313219.37999988,612524000,0.0,0.0,0.39625000953674316,0.5,0.0,-4.370363235473633,-4.676112651824951,0.0,5.48,0.0,0,-52
1678313219.48000002,612624000,0.0,0.0,0.39625000953674316,0.5,0.0,-4.4216628074646,-4.61830997467041,0.0,5.42,0.0,0,-52
1678313219.57999992,612724000,0.0,0.0,0.39625000953674316,0.5,0.0,-4.473207950592041,-4.641711711883545,0.0,5.37,0.0,0,-51
1678313219.67999983,612824000,0.0,0.0,0.39625000953674316,0.5,0.0,-4.524903297424316,-5.033703804016113,0.0,5.3100000000000005,0.0,0,-51
1678313219.77999997,612924000,0.0,0.0,0.39500001072883606,0.5,0.0,-4.576858997344971,-4.816365718841553,0.0,5.2700000000000005,0.0,0,-52
1678313219.87999988,613024000,0.0,0.0,0.39500001072883606,0.5,0.0,-4.62895393371582,-5.013760566711426,0.0,5.21,0.0,0,-52
1678313219.98000002,613124000,0.0,0.0,0.39500001072883606,0.5,0.0,-4.681118965148926,-5.145598888397217,0.0,5.16,0.0,0,-52
1678313220.07999992,613224000,0.0,0.0,0.39500001072883606,0.5,0.0,-4.733455657958984,-5.23788595199585,0.0,5.11,0.0,0,-52
1678313220.17999983,613324000,0.0,0.0,0.39500001072883606,0.5,0.0,-4.785641193389893,-5.322057723999023,0.0,5.05,0.0,0,-52
1678313220.27999997,613424000,0.0,0.0,0.39500001072883606,0.5,0.0,-4.837935447692871,-5.045751571655273,0.0,5.0,0.0,0,-52
1678313220.37999988,613524000,0.0,0.0,0.39375001192092896,0.5,0.0,-4.890203952789307,-5.254875659942627,0.0,4.95,0.0,0,-52
1678313220.48000002,613624000,0.0,0.0,0.39375001192092896,0.5,0.0,-4.942668914794922,-5.513023853302002,0.0,4.89,0.0,0,-52
1678313220.57999992,613724000,0.0,0.0,0.39375001192092896,0.5,0.0,-4.995358467102051,-5.476505756378174,0.0,4.8500000000000005,0.0,0,-52
1678313220.67999983,613824000,0.0,0.0,0.39375001192092896,0.5,0.0,-5.048111438751221,-5.5444746017456055,0.0,4.79,0.0,0,-52
1678313220.77999997,613924000,0.0,0.0,0.39375001192092896,0.5,0.0,-5.100965976715088,-5.578407287597656,0.0,4.73,0.0,0,-52
1678313220.87999988,614024000,0.0,0.0,0.39375001192092896,0.5,0.0,-5.1537885665893555,-5.524473190307617,0.0,4.68,0.0,0,-52
1678313220.98000002,614124000,0.0,0.0,0.39375001192092896,0.5,0.0,-5.20676326751709,-5.795817852020264,0.0,4.63,0.0,0,-52
1678313221.07999992,614224000,0.0,0.0,0.39375001192092896,0.5,0.0,-5.259963035583496,-5.675300598144531,0.0,4.58,0.0,0,-52
1678313221.17999983,614324000,0.0,0.0,0.39375001192092896,0.5,0.0,-5.313027858734131,-5.67415714263916,0.0,4.5200000000000005,0.0,0,-52
1678313221.27999997,614424000,0.0,0.0,0.39375001192092896,0.5,0.0,-5.3662214279174805,-5.581575393676758,0.0,4.47,0.0,0,-52
1678313221.37999988,614524000,0.0,0.0,0.39375001192092896,0.5,0.0,-5.419321060180664,-5.675906181335449,0.0,4.41,0.0,0,-52
1678313221.48000002,614624000,0.0,0.0,0.39375001192092896,0.5,0.0,-5.472523212432861,-5.776890754699707,0.0,4.36,0.0,0,-52
1678313221.57999992,614724000,0.0,0.0,0.39375001192092896,0.5,0.0,-5.525990962982178,-5.8587446212768555,0.0,4.3100000000000005,0.0,0,-52
1678313221.67999983,614824000,0.0,0.0,0.39375001192092896,0.5,0.0,-5.57939338684082,-5.973898887634277,0.0,4.25,0.0,0,-52
1678313221.77999997,614924000,0.0,0.0,0.39375001192092896,0.5,0.0,-5.632926940917969,-6.163458824157715,0.0,4.2,0.0,0,-52
1678313221.87999988,615024000,0.0,0.0,0.39375001192092896,0.5,0.0,-5.6864914894104,-6.161026954650879,0.0,4.15,0.0,0,-52
1678313221.98000002,615124000,0.0,0.0,0.39375001192092896,0.5,0.0,-5.7401909828186035,-6.053206920623779,0.0,4.09,0.0,0,-52
1678313222.07999992,615224000,0.0,0.0,0.39375001192092896,0.5,0.0,-5.793976306915283,-6.016008377075195,0.0,4.05,0.0,0,-52
1678313222.17999983,615324000,0.0,0.0,0.39375001192092896,0.5,0.0,-5.847631931304932,-6.387508869171143,0.0,3.99,0.0,0,-52
1678313222.27999997,615424000,0.0,0.0,0.39375001192092896,0.5,0.0,-5.901308059692383,-6.169821262359619,0.0,3.93,0.0,0,-52
1678313222.37999988,615524000,0.0,0.0,0.39375001192092896,0.5,0.0,-5.954791069030762,-6.173550605773926,0.0,3.89,0.0,0,-52
1678313222.48000002,615624000,0.0,0.0,0.39250001311302185,0.5,0.0,-6.008194923400879,-6.245614528656006,0.0,3.8200000000000003,0.0,0,-52
1678313222.57999992,615724000,0.0,0.0,0.39250001311302185,0.5,0.0,-6.061662673950195,-6.2553277015686035,0.0,3.7800000000000002,0.0,0,-53
1678313222.67999983,615824000,0.0,0.0,0.39125001430511475,0.5,0.0,-6.115235328674316,-6.6683855056762695,0.0,3.72,0.0,0,-53
1678313222.77999997,615924000,0.0,0.0,0.39125001430511475,0.5,0.0,-6.169144153594971,-6.468916416168213,0.0,3.67,0.0,0,-53
1678313222.87999988,616024000,0.0,0.0,0.39125001430511475,0.5,0.0,-6.223145484924316,-6.468592166900635,0.0,3.61,0.0,0,-53
1678313222.98000002,616124000,0.0,0.0,0.38999998569488525,0.5,0.0,-6.277464389801025,-6.571245193481445,0.0,3.5700000000000003,0.0,0,-53
1678313223.07999992,616224000,0.0,0.0,0.38999998569488525,0.5,0.0,-6.332079887390137,-6.6924591064453125,0.0,3.5100000000000002,0.0,0,-53
1678313223.17999983,616324000,0.0,0.0,0.38999998569488525,0.5,0.0,-6.386358737945557,-6.985604286193848,0.0,3.44,0.0,0,-53
1678313223.27999997,616424000,0.0,0.0,0.38999998569488525,0.5,0.0,-6.440704822540283,-6.832631587982178,0.0,3.39,0.0,0,-53
1678313223.37999988,616524000,0.0,0.0,0.38999998569488525,0.5,0.0,-6.4950714111328125,-6.927441120147705,0.0,3.34,0.0,0,-53
1678313223.48000002,616624000,0.0,0.0,0.38999998569488525,0.5,0.0,-6.549400329589844,-7.131523609161377,0.0,3.29,0.0,0,-53
1678313223.57999992,616724000,0.0,0.0,0.38999998569488525,0.5,0.0,-6.603865146636963,-6.924117565155029,0.0,3.24,0.0,0,-53
1678313223.67999983,616824000,0.0,0.0,0.38999998569488525,0.5,0.0,-6.658127784729004,-7.166346549987793,0.0,3.17,0.0,0,-53
1678313223.77999997,616924000,0.0,0.0,0.38874998688697815,0.5,0.0,-6.712466239929199,-7.082303047180176,0.0,3.13,0.0,0,-54
1678313223.87999988,617024000,0.0,0.0,0.38874998688697815,0.5,0.0,-6.767014503479004,-7.225096225738525,0.0,3.08,0.0,0,-54
1678313223.98000002,617124000,0.0,0.0,0.38874998688697815,0.5,0.0,-6.821619033813477,-7.437867641448975,0.0,3.0100000000000002,0.0,0,-54
1678313224.07999992,617224000,0.0,0.0,0.38874998688697815,0.5,0.0,-6.87608528137207,-7.375415325164795,0.0,2.96,0.0,0,-54
1678313224.17999983,617324000,0.0,0.0,0.38874998688697815,0.5,0.0,-6.930514335632324,-7.297094345092773,0.0,2.9,0.0,0,-54
1678313224.27999997,617424000,0.0,0.0,0.38874998688697815,0.5,0.0,-6.985233783721924,-7.425941467285156,0.0,2.85,0.0,0,-54
1678313224.37999988,617524000,0.0,0.0,0.38874998688697815,0.5,0.0,-7.039957523345947,-7.359625339508057,0.0,2.8000000000000003,0.0,0,-54
1678313224.48000002,617624000,0.0,0.0,0.38874998688697815,0.5,0.0,-7.094751358032227,-7.473519802093506,0.0,2.74,0.0,0,-54
1678313224.57999992,617724000,0.0,0.0,0.38874998688697815,0.5,0.0,-7.149529933929443,-7.5906829833984375,0.0,2.68,0.0,0,-54
1678313224.67999983,617824000,0.0,0.0,0.38874998688697815,0.5,0.0,-7.204212665557861,-7.72606897354126,0.0,2.63,0.0,0,-54
1678313224.77999997,617924000,0.0,0.0,0.38874998688697815,0.5,0.0,-7.259255409240723,-7.491636753082275,0.0,2.58,0.0,0,-54
1678313224.87999988,618024000,0.0,0.0,0.38874998688697815,0.5,0.0,-7.31415319442749,-7.872313499450684,0.0,2.5300000000000002,0.0,0,-54
1678313224.98000002,618124000,0.0,0.0,0.38874998688697815,0.5,0.0,-7.368969440460205,-7.915969371795654,0.0,2.47,0.0,0,-54
1678313225.07999992,618224000,0.0,0.0,0.38874998688697815,0.5,0.0,-7.42366886138916,-7.817147731781006,0.0,2.41,0.0,0,-54
1678313225.17999983,618324000,0.0,0.0,0.38874998688697815,0.5,0.0,-7.47819185256958,-8.085293769836426,0.0,2.36,0.0,0,-54
1678313225.27999997,618424000,0.0,0.0,0.38874998688697815,0.5,0.0,-7.53291654586792,-8.109489440917969,0.0,2.3000000000000003,0.0,0,-54
1678313225.37999988,618524000,0.0,0.0,0.38874998688697815,0.5,0.0,-7.587502956390381,-8.064277648925781,0.0,2.25,0.0,0,-54
1678313225.48000002,618624000,0.0,0.0,0.38874998688697815,0.5,0.0,-7.6421427726745605,-7.888350486755371,0.0,2.2,0.0,0,-54
1678313225.57999992,618724000,0.0,0.0,0.38874998688697815,0.5,0.0,-7.69687032699585,-8.040800094604492,0.0,2.14,0.0,0,-54
1678313225.67999983,618824000,0.0,0.0,0.38874998688697815,0.5,0.0,-7.751404285430908,-7.985250473022461,0.0,2.08,0.0,0,-54
1678313225.77999997,618924000,0.0,0.0,0.38874998688697815,0.5,0.0,-7.806164264678955,-8.235614776611328,0.0,2.0300000000000002,0.0,0,-54
1678313225.87999988,619024000,0.0,0.0,0.38874998688697815,0.5,0.0,-7.860903739929199,-8.205591201782227,0.0,1.98,0.0,0,-54
1678313225.98000002,619124000,0.0,0.0,0.38874998688697815,0.5,0.0,-7.915558338165283,-8.527108192443848,0.0,1.92,0.0,0,-54
1678313226.07999992,619224000,0.0,0.0,0.38874998688697815,0.5,0.0,-7.970197677612305,-8.49634075164795,0.0,1.87,0.0,0,-54
1678313226.17999983,619324000,0.0,0.0,0.38874998688697815,0.5,0.0,-8.024724006652832,-8.448144912719727,0.0,1.82,0.0,0,-54
1678313226.27999997,619424000,0.0,0.0,0.38874998688697815,0.5,0.0,-8.079412460327148,-8.627508163452148,0.0,1.76,0.0,0,-54
1678313226.37999988,619524000,0.0,0.0,0.38874998688697815,0.5,0.0,-8.133831977844238,-8.523458480834961,0.0,1.7,0.0,0,-54
1678313226.48000002,619624000,0.0,0.0,0.38874998688697815,0.5,0.0,-8.18820858001709,-8.69848918914795,0.0,1.6500000000000001,0.0,0,-54
1678313226.57999992,619724000,0.0,0.0,0.5,0.5,0.0,-8.23620891571045,-8.762800216674805,0.0,1.6,0.0,0,-40
1678313226.67999983,619824000,0.0,0.0,0.5,0.5,0.0,-8.271224975585938,-8.697696685791016,0.0,1.56,0.0,0,-30
1678313226.77999997,619924000,0.0,0.0,0.5,0.5,0.0,-8.298946380615234,-8.640996932983398,0.0,1.53,0.0,0,-24
1678313226.87999988,620024000,0.0,0.0,0.5,0.5,0.0,-8.32189655303955,-8.664349555969238,0.0,1.51,0.0,0,-20
1678313226.98000002,620124000,0.0,0.0,0.5,0.5,0.0,-8.3414306640625,-8.61019515991211,0.0,1.49,0.0,0,-17
1678313227.07999992,620224000,0.0,0.0,0.5,0.5,0.0,-8.358399391174316,-8.727599143981934,0.0,1.47,0.0,0,-15
1678313227.17999983,620324000,0.0,0.0,0.5,0.5,0.0,-8.373295783996582,-8.66245174407959,0.0,1.45,0.0,0,-13
1678313227.27999997,620424000,0.0,0.0,0.5,0.5,0.0,-8.386566162109375,-8.838761329650879,0.0,1.44,0.0,0,-11
1678313227.37999988,620524000,0.0,0.0,0.5,0.5,0.0,-8.39864444732666,-8.935677528381348,0.0,1.44,0.0,0,-10
1678313227.48000002,620624000,0.0,0.0,0.5,0.5,0.0,-8.409440040588379,-8.671955108642578,0.0,1.42,0.0,0,-9
1678313227.57999992,620724000,0.0,0.0,0.5,0.5,0.0,-8.419418334960938,-8.729312896728516,0.0,1.41,0.0,0,-8
1678313227.67999983,620824000,0.0,0.0,0.5,0.5,0.0,-8.428679466247559,-8.772283554077148,0.0,1.41,0.0,0,-7
1678313227.77999997,620924000,0.0,0.0,0.5,0.5,0.0,-8.437044143676758,-8.887371063232422,0.0,1.4000000000000001,0.0,0,-7
1678313227.87999988,621024000,0.4150241017341614,0.0,0.4946504831314087,0.5,-8.444579124450684,-8.444671630859375,-8.895183563232422,0.0,1.3900000000000001,0.0,-6,-6
1678313227.98000002,621124000,0.4928968846797943,0.0,0.5106889605522156,0.5,-8.449958801269531,-8.452737808227539,-8.870619773864746,0.0,1.3800000000000001,0.0,-3,-7
1678313228.07999992,621224000,0.5106616616249084,0.0,0.5096486210823059,0.5,-8.453559875488281,-8.459805488586426,-8.90224838256836,0.0,1.37,0.0,-1,-5
1678313228.17999983,621324000,0.5161573886871338,0.0,0.5071749091148376,0.5,-8.45596981048584,-8.464849472045898,-8.71938419342041,0.0,1.37,0.0,0,-3
1678313228.27999997,621424000,0.5016816854476929,0.0,0.5066379904747009,0.5,-8.4575834274292,-8.467803955078125,-9.066420555114746,0.0,1.37,0.0,1,-1
1678313228.37999988,621524000,0.5088207125663757,0.0,0.5042155981063843,0.5,-8.458661079406738,-8.46934986114502,-8.826417922973633,0.0,1.36,0.0,2,0
1678313228.48000002,621624000,0.4961662292480469,0.0,0.5039623379707336,0.5,-8.459382057189941,-8.46977710723877,-8.801222801208496,0.0,1.36,0.0,2,0
1678313228.57999992,621724000,0.4869983494281769,0.0,0.4963435232639313,0.5,-8.459863662719727,-8.469690322875977,-8.839498519897461,0.0,1.36,0.0,2,1
1678313228.67999983,621824000,0.47612789273262024,0.0,0.4834226369857788,0.5,-8.460186958312988,-8.468878746032715,-9.039424896240234,0.0,1.37,0.0,2,1
1678313228.77999997,621924000,0.486079603433609,0.0,0.47968414425849915,0.5,-8.460402488708496,-8.467788696289062,-8.811945915222168,0.0,1.37,0.0,2,1
1678313228.87999988,622024000,0.48781105875968933,0.0,0.482594758272171,0.5,-8.460546493530273,-8.466924667358398,-8.751751899719238,0.0,1.37,0.0,1,1
1678313228.98000002,622124000,0.48874977231025696,0.0,0.48536503314971924,0.5,-8.460643768310547,-8.466242790222168,-8.82818603515625,0.0,1.37,0.0,1,0
1678313229.07999992,622224000,0.4905059039592743,0.0,0.4873761832714081,0.5,-8.460708618164062,-8.46561336517334,-9.080723762512207,0.0,1.37,0.0,1,0
1678313229.17999983,622324000,0.4933154881000519,0.0,0.4903726577758789,0.5,-8.460750579833984,-8.465129852294922,-9.052746772766113,0.0,1.37,0.0,1,0
1678313229.27999997,622424000,0.49456027150154114,0.0,0.49333497881889343,0.5,-8.460779190063477,-8.464784622192383,-8.962150573730469,0.0,1.37,0.0,1,0
1678313229.37999988,622524000,0.4964071810245514,0.0,0.4955107867717743,0.5,-8.460803985595703,-8.46457290649414,-9.057670593261719,0.0,1.3800000000000001,0.0,1,0
1678313229.48000002,622624000,0.495845228433609,0.0,0.4965894818305969,0.5,-8.460816383361816,-8.464410781860352,-8.95850944519043,0.0,1.3800000000000001,0.0,1,0
1678313229.57999992,622724000,0.4975537955760956,0.0,0.49694496393203735,0.5,-8.46081829071045,-8.46412181854248,-8.997918128967285,0.0,1.3800000000000001,0.0,0,0
1678313229.67999983,622824000,0.49792006611824036,0.0,0.497334361076355,0.5,-8.46081829071045,-8.463789939880371,-8.95567798614502,0.0,1.3800000000000001,0.0,0,0
1678313229.77999997,622924000,0.4971068799495697,0.0,0.49719756841659546,0.5,-8.46081829071045,-8.463435173034668,-8.714754104614258,0.0,1.3800000000000001,0.0,0,0
1678313229.87999988,623024000,0.496694415807724,0.0,0.4971114993095398,0.5,-8.46081829071045,-8.463159561157227,-9.001487731933594,0.0,1.3800000000000001,0.0,0,0
1678313229.98000002,623124000,0.49643075466156006,0.0,0.4962927997112274,0.5,-8.46081829071045,-8.462870597839355,-8.982955932617188,0.0,1.3800000000000001,0.0,0,0
1678313230.07999992,623224000,0.4928280711174011,0.0,0.4960330128669739,0.5,-8.46081829071045,-8.462613105773926,-8.986342430114746,0.0,1.3800000000000001,0.0,0,0
1678313230.17999983,623324000,0.49442729353904724,0.0,0.494951069355011,0.5,-8.46081829071045,-8.462327003479004,-8.82515811920166,0.0,1.3800000000000001,0.0,0,0
1678313230.27999997,623424000,0.4960325062274933,0.0,0.494531512260437,0.5,-8.46081829071045,-8.462055206298828,-8.792993545532227,0.0,1.3800000000000001,0.0,0,0
1678313230.37999988,623524000,0.49595481157302856,0.0,0.49457913637161255,0.5,-8.46081829071045,-8.461806297302246,-8.909204483032227,0.0,1.3800000000000001,0.0,0,0
1678313230.48000002,623624000,0.4970929026603699,0.0,0.49484783411026,0.5,-8.46081829071045,-8.461596488952637,-8.772249221801758,0.0,1.3800000000000001,0.0,0,0
1678313230.57999992,623724000,0.4984598755836487,0.0,0.4952636957168579,0.5,-8.46081829071045,-8.461441993713379,-8.986119270324707,0.0,1.3800000000000001,0.0,0,0
1678313230.67999983,623824000,0.4972347915172577,0.0,0.49610769748687744,0.5,-8.46081829071045,-8.461362838745117,-8.772139549255371,0.0,1.3800000000000001,0.0,0,0
1678313230.77999997,623924000,0.49528294801712036,0.0,0.4964699447154999,0.5,-8.46081829071045,-8.461332321166992,-9.034161567687988,0.0,1.3800000000000001,0.0,0,0
1678313230.87999988,624024000,0.4952147901058197,0.0,0.49663442373275757,0.5,-8.46081829071045,-8.461343765258789,-8.79302978515625,0.0,1.3900000000000001,0.0,0,0
1678313230.98000002,624124000,0.4957791566848755,0.0,0.49667999148368835,0.5,-8.46081829071045,-8.461384773254395,-8.894378662109375,0.0,1.3900000000000001,0.0,0,0
1678313231.07999992,624224000,0.4952051043510437,0.0,0.4962015748023987,0.5,-8.46081829071045,-8.461419105529785,-8.966514587402344,0.0,1.3900000000000001,0.0,0,0
1678313231.17999983,624324000,0.4952714741230011,0.0,0.49584880471229553,0.5,-8.46081829071045,-8.461177825927734,-8.839914321899414,0.0,1.3900000000000001,0.0,0,0
1678313231.27999997,624424000,0.49502167105674744,0.0,0.49520546197891235,0.5,-8.46081829071045,-8.46085262298584,-8.689234733581543,0.0,1.3900000000000001,0.0,0,0
1678313231.37999988,624524000,0.494260311126709,0.0,0.495287150144577,0.5,-8.46081829071045,-8.460698127746582,-9.023518562316895,0.0,1.3900000000000001,0.0,0,0
1678313231.48000002,624624000,0.4938235580921173,0.0,0.49523061513900757,0.5,-8.46081829071045,-8.460685729980469,-9.01693058013916,0.0,1.3900000000000001,0.0,0,0
1678313231.57999992,624724000,0.49382075667381287,0.0,0.4952942430973053,0.5,-8.46081829071045,-8.460626602172852,-9.058268547058105,0.0,1.3900000000000001,0.0,0,0
1678313231.67999983,624824000,0.4935082495212555,0.0,0.49523401260375977,0.5,-8.46081829071045,-8.46047592163086,-8.795612335205078,0.0,1.3900000000000001,0.0,0,0
1678313231.77999997,624924000,0.49373504519462585,0.0,0.49517086148262024,0.5,-8.46081829071045,-8.460143089294434,-8.75343132019043,0.0,1.3800000000000001,0.0,0,0
1678313231.87999988,625024000,0.4971262514591217,0.0,0.4951061010360718,0.5,-8.46081829071045,-8.459884643554688,-9.079687118530273,0.0,1.3800000000000001,0.0,0,0
1678313231.98000002,625124000,0.4957641065120697,0.0,0.4953480362892151,0.5,-8.46081829071045,-8.459741592407227,-8.955747604370117,0.0,1.3900000000000001,0.0,0,0
1678313232.07999992,625224000,0.49617433547973633,0.0,0.4964343011379242,0.5,-8.46081829071045,-8.459918975830078,-9.021023750305176,0.0,1.3900000000000001,0.0,0,0
1678313232.17999983,625324000,0.4946070611476898,0.0,0.49663692712783813,0.5,-8.46081829071045,-8.46001148223877,-9.009805679321289,0.0,1.3800000000000001,0.0,0,0
1678313232.27999997,625424000,0.4938461184501648,0.0,0.4961712956428528,0.5,-8.46081829071045,-8.46010684967041,-9.089207649230957,0.0,1.3900000000000001,0.0,0,0
1678313232.37999988,625524000,0.49456676840782166,0.0,0.4959011375904083,0.5,-8.46081829071045,-8.460354804992676,-8.73933219909668,0.0,1.3900000000000001,0.0,0,0
1678313232.48000002,625624000,0.4952910840511322,0.0,0.4957175552845001,0.5,-8.46081829071045,-8.460433959960938,-9.05170726776123,0.0,1.3900000000000001,0.0,0,0
1678313232.57999992,625724000,0.4968922734260559,0.0,0.4954776465892792,0.5,-8.46081829071045,-8.460343360900879,-8.815852165222168,0.0,1.3800000000000001,0.0,0,0
1678313232.67999983,625824000,0.49622175097465515,0.0,0.4954123795032501,0.5,-8.46081829071045,-8.460286140441895,-8.951651573181152,0.0,1.3800000000000001,0.0,0,0
1678313232.77999997,625924000,0.4950844645500183,0.0,0.49534523487091064,0.5,-8.46081829071045,-8.46020221710205,-8.702950477600098,0.0,1.3800000000000001,0.0,0,0
1678313232.87999988,626024000,0.49547576904296875,0.0,0.49502038955688477,0.5,-8.46081829071045,-8.4602632522583,-9.085559844970703,0.0,1.3800000000000001,0.0,0,0
1678313232.98000002,626124000,0.49700728058815,0.0,0.49548962712287903,0.5,-8.46081829071045,-8.460394859313965,-8.936007499694824,0.0,1.3800000000000001,0.0,0,0
1678313233.07999992,626224000,0.4964974522590637,0.0,0.4958687126636505,0.5,-8.46081829071045,-8.460575103759766,-8.817035675048828,0.0,1.3800000000000001,0.0,0,0
1678313233.17999983,626324000,0.4963603615760803,0.0,0.4961085617542267,0.5,-8.46081829071045,-8.460737228393555,-8.877411842346191,0.0,1.3800000000000001,0.0,0,0
1678313233.27999997,626424000,0.4993821680545807,0.0,0.49650630354881287,0.5,-8.46081829071045,-8.46091365814209,-8.802639961242676,0.0,1.3800000000000001,0.0,0,0
1678313233.37999988,626524000,0.49830541014671326,0.0,0.49655112624168396,0.5,-8.46081829071045,-8.46104621887207,-9.01795768737793,0.0,1.3800000000000001,0.0,0,0
1678313233.48000002,626624000,0.4953143894672394,0.0,0.49635815620422363,0.5,-8.46081829071045,-8.461172103881836,-8.770906448364258,0.0,1.3800000000000001,0.0,0,0
1678313233.57999992,626724000,0.495404452085495,0.0,0.49614012241363525,0.5,-8.46081829071045,-8.461248397827148,-8.733555793762207,0.0,1.3900000000000001,0.0,0,0
1678313233.67999983,626824000,0.49663081765174866,0.0,0.495878666639328,0.5,-8.46081829071045,-8.46131420135498,-8.716691970825195,0.0,1.3900000000000001,0.0,0,0
1678313233.77999997,626924000,0.4964504539966583,0.0,0.4956362843513489,0.5,-8.46081829071045,-8.461149215698242,-8.89172077178955,0.0,1.3800000000000001,0.0,0,0
1678313233.87999988,627024000,0.49388545751571655,0.0,0.4952802062034607,0.5,-8.46081829071045,-8.46078109741211,-8.789371490478516,0.0,1.3800000000000001,0.0,0,0
1678313233.98000002,627124000,0.4976973533630371,0.0,0.4952244460582733,0.5,-8.46081829071045,-8.460582733154297,-9.021413803100586,0.0,1.3800000000000001,0.0,0,0
1678313234.07999992,627224000,0.49671268463134766,0.0,0.49562257528305054,0.5,-8.46081829071045,-8.460542678833008,-8.848855972290039,0.0,1.3900000000000001,0.0,0,0
1678313234.17999983,627324000,0.49663251638412476,0.0,0.4954463243484497,0.5,-8.46081829071045,-8.460598945617676,-8.761910438537598,0.0,1.3900000000000001,0.0,0,0
1678313234.27999997,627424000,0.49654296040534973,0.0,0.49581393599510193,0.5,-8.46081829071045,-8.460701942443848,-8.772396087646484,0.0,1.3800000000000001,0.0,0,0
1678313234.37999988,627524000,0.4961422085762024,0.0,0.49626490473747253,0.5,-8.46081829071045,-8.460515975952148,-8.932512283325195,0.0,1.3900000000000001,0.0,0,0
1678313234.48000002,627624000,0.4964793026447296,0.0,0.49611809849739075,0.5,-8.46081829071045,-8.460302352905273,-8.82535171508789,0.0,1.3900000000000001,0.0,0,0
1678313234.57999992,627724000,0.4964914917945862,0.0,0.4962039589881897,0.5,-8.46081829071045,-8.460000038146973,-8.902421951293945,0.0,1.3800000000000001,0.0,0,0
1678313234.67999983,627824000,0.4951397180557251,0.0,0.4954586625099182,0.5,-8.46081829071045,-8.45969295501709,-9.010306358337402,0.0,1.3800000000000001,0.0,0,0
1678313234.77999997,627924000,0.49549469351768494,0.0,0.49523112177848816,0.5,-8.46081829071045,-8.459656715393066,-8.99856185913086,0.0,1.3900000000000001,0.0,0,0
1678313234.87999988,628024000,0.4968073070049286,0.0,0.495891273021698,0.5,-8.46081829071045,-8.459837913513184,-8.698104858398438,0.0,1.3900000000000001,0.0,0,0
1678313234.98000002,628124000,0.4968254566192627,0.0,0.49592679738998413,0.5,-8.46081829071045,-8.46000862121582,-8.935872077941895,0.0,1.3800000000000001,0.0,0,0
1678313235.07999992,628224000,0.49656039476394653,0.0,0.49592944979667664,0.5,-8.46081829071045,-8.460208892822266,-8.953822135925293,0.0,1.3900000000000001,0.0,0,0
1678313235.17999983,628324000,0.4962436258792877,0.0,0.4958723783493042,0.5,-8.46081829071045,-8.460427284240723,-8.9717378616333,0.0,1.3800000000000001,0.0,0,0
1678313235.27999997,628424000,0.49376359581947327,0.0,0.49577727913856506,0.5,-8.46081829071045,-8.460626602172852,-8.694646835327148,0.0,1.3800000000000001,0.0,0,0
1678313235.37999988,628524000,0.4966510236263275,0.0,0.4962090849876404,0.5,-8.46081829071045,-8.460800170898438,-9.002361297607422,0.0,1.3900000000000001,0.0,0,0
1678313235.48000002,628624000,0.4962133765220642,0.0,0.49630430340766907,0.5,-8.46081829071045,-8.460936546325684,-8.847167015075684,0.0,1.3900000000000001,0.0,0,0
1678313235.57999992,628724000,0.4933883845806122,0.0,0.49614977836608887,0.5,-8.46081829071045,-8.46103286743164,-9.028700828552246,0.0,1.3800000000000001,0.0,0,0
1678313235.67999983,628824000,0.49372032284736633,0.0,0.49624115228652954,0.5,-8.46081829071045,-8.46109676361084,-8.748185157775879,0.0,1.3800000000000001,0.0,0,0
1678313235.77999997,628924000,0.49358218908309937,0.0,0.49609753489494324,0.5,-8.46081829071045,-8.461139678955078,-8.998061180114746,0.0,1.37,0.0,0,0
1678313235.87999988,629024000,0.4939696788787842,0.0,0.49585726857185364,0.5,-8.46081829071045,-8.461210250854492,-8.97321605682373,0.0,1.36,0.0,0,0
1678313235.98000002,629124000,0.4950486719608307,0.0,0.4958103895187378,0.5,-8.46081829071045,-8.46131420135498,-9.039048194885254,0.0,1.35,0.0,0,0
1678313236.07999992,629224000,0.49610239267349243,0.0,0.4964866042137146,0.5,-8.46081829071045,-8.462078094482422,-8.792232513427734,0.0,1.35,0.0,0,0
1678313236.17999983,629324000,0.49804338812828064,0.0,0.4970821738243103,0.5,-8.46081829071045,-8.462822914123535,-8.943260192871094,0.0,1.33,0.0,0,0
1678313236.27999997,629424000,0.498779296875,0.0,0.49713706970214844,0.5,-8.46081829071045,-8.463594436645508,-8.909757614135742,0.0,1.33,0.0,0,0
1678313236.37999988,629524000,0.5018780827522278,0.0,0.49793750047683716,0.5,-8.46081829071045,-8.465327262878418,-8.983954429626465,0.0,1.33,0.0,1,0
1678313236.48000002,629624000,0.502593457698822,0.0,0.49935728311538696,0.5,-8.46081829071045,-8.467594146728516,-8.93498706817627,0.0,1.35,0.0,2,1
1678313236.57999992,629724000,0.5032517313957214,0.0,0.500097930431366,0.5,-8.46081829071045,-8.46957778930664,-9.049874305725098,0.0,1.36,0.0,2,1
1678313236.67999983,629824000,0.5007212162017822,0.0,0.4997040927410126,0.5,-8.46081829071045,-8.470524787902832,-9.08346176147461,0.0,1.37,0.0,2,2
1678313236.77999997,629924000,0.4957495629787445,0.0,0.4979528486728668,0.5,-8.46081829071045,-8.470282554626465,-8.7418794631958,0.0,1.3900000000000001,0.0,2,2
1678313236.87999988,630024000,0.49627599120140076,0.0,0.49730169773101807,0.5,-8.46081829071045,-8.469161033630371,-8.745339393615723,0.0,1.4000000000000001,0.0,2,2
1678313236.98000002,630124000,0.4939442276954651,0.0,0.4951050579547882,0.5,-8.46081829071045,-8.467270851135254,-8.918375015258789,0.0,1.4000000000000001,0.0,1,2
1678313237.07999992,630224000,0.49270564317703247,0.0,0.49422645568847656,0.5,-8.46081829071045,-8.464949607849121,-9.033823013305664,0.0,1.4000000000000001,0.0,1,1
1678313237.17999983,630324000,0.4912213087081909,0.0,0.49387654662132263,0.5,-8.46081829071045,-8.462614059448242,-8.882887840270996,0.0,1.4000000000000001,0.0,0,1
1678313237.27999997,630424000,0.4936535656452179,0.0,0.49321192502975464,0.5,-8.46081829071045,-8.460749626159668,-9.037034034729004,0.0,1.41,0.0,0,0
1678313237.37999988,630524000,0.4937637448310852,0.0,0.49325212836265564,0.5,-8.46081829071045,-8.45921516418457,-8.790348052978516,0.0,1.41,0.0,0,0
1678313237.48000002,630624000,0.49612700939178467,0.0,0.49359020590782166,0.5,-8.46081829071045,-8.458232879638672,-8.687106132507324,0.0,1.41,0.0,0,0
1678313237.57999992,630724000,0.494145929813385,0.0,0.4934521019458771,0.5,-8.46081829071045,-8.457186698913574,-9.059232711791992,0.0,1.41,0.0,-1,0
1678313237.67999983,630824000,0.4963403046131134,0.0,0.49366357922554016,0.5,-8.46081829071045,-8.456548690795898,-8.696040153503418,0.0,1.41,0.0,-1,0
1678313237.77999997,630924000,0.4947502613067627,0.0,0.4935086667537689,0.5,-8.46081829071045,-8.455891609191895,-8.75007438659668,0.0,1.41,0.0,-1,-1
1678313237.87999988,631024000,0.49439603090286255,0.0,0.4937434196472168,0.5,-8.46081829071045,-8.455608367919922,-8.80655574798584,0.0,1.41,0.0,-1,-1
1678313237.98000002,631124000,0.49370306730270386,0.0,0.4940537214279175,0.5,-8.46081829071045,-8.455175399780273,-8.765413284301758,0.0,1.4000000000000001,0.0,-1,-1
1678313238.07999992,631224000,0.49332723021507263,0.0,0.49388909339904785,0.5,-8.46081829071045,-8.454941749572754,-8.846430778503418,0.0,1.4000000000000001,0.0,-1,-1
1678313238.17999983,631324000,0.49579310417175293,0.0,0.49469444155693054,0.5,-8.46081829071045,-8.45502758026123,-8.733864784240723,0.0,1.4000000000000001,0.0,-1,-1
1678313238.27999997,631424000,0.49814799427986145,0.0,0.4953147768974304,0.5,-8.46081829071045,-8.455339431762695,-8.97894287109375,0.0,1.4000000000000001,0.0,-1,-1
1678313238.37999988,631524000,0.49635154008865356,0.0,0.49519720673561096,0.5,-8.46081829071045,-8.455862998962402,-9.060409545898438,0.0,1.35,0.0,-1,-1
1678313238.48000002,631624000,0.49800974130630493,0.0,0.4961419403553009,0.5,-8.46081829071045,-8.456908226013184,-8.92411994934082,0.0,1.27,0.0,-1,-1
1678313238.57999992,631724000,0.5010046362876892,0.0,0.4974168539047241,0.5,-8.46081829071045,-8.459362983703613,-8.886614799499512,0.0,1.22,0.0,0,-1
1678313238.67999983,631824000,0.5044057369232178,0.0,0.5010851621627808,0.5,-8.46081829071045,-8.464476585388184,-8.877957344055176,0.0,1.17,0.0,1,0
1678313238.77999997,631924000,0.5111320614814758,0.0,0.5063687562942505,0.5,-8.46081829071045,-8.472020149230957,-8.777111053466797,0.0,1.11,0.0,3,0
1678313238.87999988,632024000,0.514320969581604,0.0,0.5111569166183472,0.5,-8.46081829071045,-8.481962203979492,-8.76676082611084,0.0,1.05,0.0,6,2
1678313238.98000002,632124000,0.5177655220031738,0.0,0.5150550603866577,0.5,-8.46081829071045,-8.49303913116455,-8.683106422424316,0.0,1.03,0.0,9,5
1678313239.07999992,632224000,0.520817756652832,0.0,0.5179290175437927,0.5,-8.46081829071045,-8.504980087280273,-8.91558837890625,0.0,1.01,0.0,13,8
1678313239.17999983,632324000,0.5209188461303711,0.0,0.5197180509567261,0.5,-8.46081829071045,-8.516434669494629,-8.998995780944824,0.0,1.0,0.0,16,11
1678313239.27999997,632424000,0.5235472321510315,0.0,0.5222887396812439,0.5,-8.46081829071045,-8.526256561279297,-8.994401931762695,0.0,0.99,0.0,19,14
1678313239.37999988,632524000,0.5205990672111511,0.0,0.5224087834358215,0.5,-8.46081829071045,-8.534295082092285,-8.725371360778809,0.0,0.98,0.0,22,17
1678313239.48000002,632624000,0.5234670639038086,0.0,0.524272084236145,0.5,-8.46081829071045,-8.539643287658691,-8.943340301513672,0.0,0.99,0.0,23,19
1678313239.57999992,632724000,0.5179743766784668,0.0,0.5200144648551941,0.5,-8.46081829071045,-8.539243698120117,-8.906744003295898,0.0,0.98,0.0,23,21
1678313239.67999983,632824000,0.5207853317260742,0.0,0.52023845911026,0.5,-8.46081829071045,-8.540924072265625,-8.829288482666016,0.0,1.0,0.0,24,21
1678313239.77999997,632924000,0.5246582627296448,0.0,0.5226097106933594,0.5,-8.46081829071045,-8.541962623596191,-8.74332332611084,0.0,1.0,0.0,24,21
1678313239.87999988,633024000,0.5273091197013855,0.0,0.5256034135818481,0.5,-8.46081829071045,-8.54349422454834,-8.555543899536133,0.0,0.98,0.0,24,22
1678313239.98000002,633124000,0.5272584557533264,0.0,0.526456356048584,0.5,-8.46081829071045,-8.54461669921875,-8.494507789611816,0.0,0.98,0.0,25,22
1678313240.07999992,633224000,0.5223451256752014,0.0,0.52765291929245,0.5,-8.46081829071045,-8.542374610900879,-8.55252742767334,0.0,0.97,0.0,24,22
1678313240.17999983,633324000,0.5220302939414978,0.0,0.5241466760635376,0.5,-8.46081829071045,-8.538480758666992,-8.500895500183105,0.0,0.97,0.0,23,22
1678313240.27999997,633424000,0.520398736000061,0.0,0.5197600722312927,0.5,-8.46081829071045,-8.533499717712402,-8.63175106048584,0.0,0.96,0.0,21,21
1678313240.37999988,633524000,0.5238122940063477,0.0,0.5224886536598206,0.5,-8.46081829071045,-8.53210735321045,-8.43804931640625,0.0,0.9400000000000001,0.0,21,20
1678313240.48000002,633624000,0.5254949927330017,0.0,0.5223695039749146,0.5,-8.46081829071045,-8.529973030090332,-8.583495140075684,0.0,0.96,0.0,20,19
1678313240.57999992,633724000,0.5241113901138306,0.0,0.5217075943946838,0.5,-8.46081829071045,-8.527863502502441,-8.347016334533691,0.0,0.96,0.0,20,19
1678313240.67999983,633824000,0.5198733806610107,0.0,0.5224214792251587,0.5,-8.46081829071045,-8.52548885345459,-8.222158432006836,0.0,0.97,0.0,19,18
1678313240.77999997,633924000,0.5337614417076111,0.0,0.5270534753799438,0.5,-8.46081829071045,-8.52795124053955,-8.413070678710938,0.0,0.97,0.0,20,18
1678313240.87999988,634024000,0.5306192636489868,0.0,0.5294816493988037,0.5,-8.46081829071045,-8.528557777404785,-8.45445728302002,0.0,0.97,0.0,20,18
1678313240.98000002,634124000,0.5412454009056091,0.0,0.5366153717041016,0.5,-8.46081829071045,-8.532845497131348,-8.498690605163574,0.0,0.98,0.0,21,18
1678313241.07999992,634224000,0.5384324789047241,0.0,0.5364468097686768,0.5,-8.46081829071045,-8.5331449508667,-8.182794570922852,0.0,0.98,0.0,21,19
1678313241.17999983,634324000,0.5435322523117065,0.0,0.5408062934875488,0.5,-8.46081829071045,-8.53563117980957,-8.18801212310791,0.0,1.0,0.0,22,19
1678313241.27999997,634424000,0.5424817800521851,0.0,0.5403123497962952,0.5,-8.46081829071045,-8.535073280334473,-8.344767570495605,0.0,1.01,0.0,22,20
1678313241.37999988,634524000,0.5493081212043762,0.0,0.5445168614387512,0.5,-8.46081829071045,-8.538654327392578,-8.002349853515625,0.0,1.06,0.0,23,20
1678313241.48000002,634624000,0.5518985986709595,0.0,0.5498844981193542,0.5,-8.46081829071045,-8.541205406188965,-8.069711685180664,0.0,1.12,0.0,24,21
1678313241.57999992,634724000,0.5539626479148865,0.0,0.5527780055999756,0.5,-8.46081829071045,-8.5420560836792,-8.161855697631836,0.0,1.19,0.0,24,21
1678313241.67999983,634824000,0.5503122806549072,0.0,0.5521833896636963,0.5,-8.46081829071045,-8.539173126220703,-8.16224193572998,0.0,1.24,0.0,23,22
1678313241.77999997,634924000,0.5420019626617432,0.0,0.5467212796211243,0.5,-8.46081829071045,-8.532556533813477,-8.168449401855469,0.0,1.3,0.0,21,21
1678313241.87999988,635024000,0.5315107703208923,0.0,0.5389859676361084,0.5,-8.46081829071045,-8.52279281616211,-8.053071022033691,0.0,1.35,0.0,18,20
1678313241.98000002,635124000,0.5218225121498108,0.0,0.5298287868499756,0.5,-8.46081829071045,-8.510915756225586,-7.918207168579102,0.0,1.41,0.0,15,18
1678313242.07999992,635224000,0.5111109614372253,0.0,0.5197057723999023,0.5,-8.46081829071045,-8.49729061126709,-7.97568941116333,0.0,1.45,0.0,10,15
1678313242.17999983,635324000,0.5028743743896484,0.0,0.5101322531700134,0.5,-8.46081829071045,-8.48356819152832,-7.962579727172852,0.0,1.5,0.0,6,11
1678313242.27999997,635424000,0.4941042363643646,0.0,0.5014234185218811,0.5,-8.46081829071045,-8.469698905944824,-7.877969741821289,0.0,1.54,0.0,2,8
1678313242.37999988,635524000,0.48984402418136597,0.0,0.49439090490341187,0.5,-8.46081829071045,-8.456722259521484,-7.910869121551514,0.0,1.58,0.0,-1,4
1678313242.48000002,635624000,0.48470625281333923,0.0,0.4891495108604431,0.5,-8.46081829071045,-8.444509506225586,-7.764626979827881,0.0,1.62,0.0,-4,0
1678313242.57999992,635724000,0.48328450322151184,0.0,0.485297292470932,0.5,-8.46081829071045,-8.433484077453613,-7.506203651428223,0.0,1.6600000000000001,0.0,-8,-2
1678313242.67999983,635824000,0.48122289776802063,0.0,0.48264965415000916,0.5,-8.46081829071045,-8.423094749450684,-7.58393669128418,0.0,1.69,0.0,-11,-5
1678313242.77999997,635924000,0.47990721464157104,0.0,0.4814052879810333,0.5,-8.46081829071045,-8.414324760437012,-7.735568523406982,0.0,1.72,0.0,-13,-8
1678313242.87999988,636024000,0.48215657472610474,0.0,0.48104679584503174,0.5,-8.46081829071045,-8.405678749084473,-7.494992256164551,0.0,1.74,0.0,-16,-11
1678313242.98000002,636124000,0.4842199385166168,0.0,0.4816672205924988,0.5,-8.46081829071045,-8.398651123046875,-7.768362522125244,0.0,1.76,0.0,-18,-13
1678313243.07999992,636224000,0.48235470056533813,0.0,0.4823816418647766,0.5,-8.46081829071045,-8.392075538635254,-7.485874652862549,0.0,1.76,0.0,-20,-16
1678313243.17999983,636324000,0.4814678132534027,0.0,0.4828198552131653,0.5,-8.46081829071045,-8.386078834533691,-7.4685516357421875,0.0,1.73,0.0,-22,-18
1678313243.27999997,636424000,0.483537495136261,0.0,0.48262277245521545,0.5,-8.46081829071045,-8.38229751586914,-7.700959205627441,0.0,1.69,0.0,-23,-19
1678313243.37999988,636524000,0.48586687445640564,0.0,0.48458802700042725,0.5,-8.46081829071045,-8.380237579345703,-7.4735107421875,0.0,1.6600000000000001,0.0,-24,-21
1678313243.48000002,636624000,0.48814961314201355,0.0,0.486873060464859,0.5,-8.46081829071045,-8.38077449798584,-7.642336368560791,0.0,1.62,0.0,-24,-21
1678313243.57999992,636724000,0.4930762052536011,0.0,0.49018993973731995,0.5,-8.46081829071045,-8.38386344909668,-7.55898380279541,0.0,1.58,0.0,-23,-21
1678313243.67999983,636824000,0.4957409203052521,0.0,0.49357378482818604,0.5,-8.46081829071045,-8.388636589050293,-7.806410312652588,0.0,1.54,0.0,-21,-21
1678313243.77999997,636924000,0.49994635581970215,0.0,0.4973274767398834,0.5,-8.46081829071045,-8.395511627197266,-7.718715667724609,0.0,1.5,0.0,-19,-20
1678313243.87999988,637024000,0.5020315647125244,0.0,0.5006856918334961,0.5,-8.46081829071045,-8.403068542480469,-7.540428161621094,0.0,1.45,0.0,-17,-18
1678313243.98000002,637124000,0.5064300298690796,0.0,0.5039076209068298,0.5,-8.46081829071045,-8.411700248718262,-7.492970943450928,0.0,1.42,0.0,-14,-16
1678313244.07999992,637224000,0.5084079504013062,0.0,0.5068950057029724,0.5,-8.46081829071045,-8.420827865600586,-7.491855144500732,0.0,1.4000000000000001,0.0,-11,-14
1678313244.17999983,637324000,0.5100316405296326,0.0,0.5092464089393616,0.5,-8.46081829071045,-8.430198669433594,-7.476002216339111,0.0,1.3800000000000001,0.0,-9,-11
1678313244.27999997,637424000,0.5077323913574219,0.0,0.5098369121551514,0.5,-8.46081829071045,-8.43848705291748,-7.6736040115356445,0.0,1.36,0.0,-6,-9
1678313244.37999988,637524000,0.5084185600280762,0.0,0.5093063712120056,0.5,-8.46081829071045,-8.445972442626953,-7.539751052856445,0.0,1.35,0.0,-4,-6
1678313244.48000002,637624000,0.507204532623291,0.0,0.508154571056366,0.5,-8.46081829071045,-8.452202796936035,-7.772870063781738,0.0,1.33,0.0,-2,-4
1678313244.57999992,637724000,0.5070121884346008,0.0,0.507556140422821,0.5,-8.46081829071045,-8.457493782043457,-7.59519624710083,0.0,1.36,0.0,0,-3
1678313244.67999983,637824000,0.5045590996742249,0.0,0.5056391954421997,0.5,-8.46081829071045,-8.461167335510254,-7.809812545776367,0.0,1.3800000000000001,0.0,0,-1
1678313244.77999997,637924000,0.5042023062705994,0.0,0.5044410228729248,0.5,-8.46081829071045,-8.463348388671875,-7.631314754486084,0.0,1.4000000000000001,0.0,0,0
1678313244.87999988,638024000,0.5010067820549011,0.0,0.5020633935928345,0.5,-8.46081829071045,-8.463634490966797,-7.663326740264893,0.0,1.43,0.0,0,0
1678313244.98000002,638124000,0.49801066517829895,0.0,0.4995277523994446,0.5,-8.46081829071045,-8.462454795837402,-7.779805660247803,0.0,1.45,0.0,0,0
1678313245.07999992,638224000,0.49431312084198,0.0,0.49665355682373047,0.5,-8.46081829071045,-8.459531784057617,-7.453863143920898,0.0,1.48,0.0,0,0
1678313245.17999983,638324000,0.4937739968299866,0.0,0.49432802200317383,0.5,-8.46081829071045,-8.455777168273926,-7.5361223220825195,0.0,1.51,0.0,-1,0
1678313245.27999997,638424000,0.4908623993396759,0.0,0.49179911613464355,0.5,-8.46081829071045,-8.451102256774902,-7.37637186050415,0.0,1.53,0.0,-2,-1
1678313245.37999988,638524000,0.4892038106918335,0.0,0.48976510763168335,0.5,-8.46081829071045,-8.445737838745117,-7.397870063781738,0.0,1.54,0.0,-4,-2
1678313245.48000002,638624000,0.4868353009223938,0.0,0.48820367455482483,0.5,-8.46081829071045,-8.44016170501709,-7.427671432495117,0.0,1.56,0.0,-6,-3
1678313245.57999992,638724000,0.4886355400085449,0.0,0.4877815246582031,0.5,-8.46081829071045,-8.434932708740234,-7.568995475769043,0.0,1.6,0.0,-7,-5
1678313245.67999983,638824000,0.48878657817840576,0.0,0.4880683124065399,0.5,-8.46081829071045,-8.429547309875488,-7.338497161865234,0.0,1.6400000000000001,0.0,-9,-6
1678313245.77999997,638924000,0.4869431257247925,0.0,0.4879717230796814,0.5,-8.46081829071045,-8.424803733825684,-7.499032020568848,0.0,1.71,0.0,-10,-8
1678313245.87999988,639024000,0.48388493061065674,0.0,0.4862801730632782,0.5,-8.46081829071045,-8.418807983398438,-7.374635696411133,0.0,1.76,0.0,-12,-9
1678313245.98000002,639124000,0.4823060631752014,0.0,0.48385974764823914,0.5,-8.46081829071045,-8.412224769592285,-7.457907199859619,0.0,1.83,0.0,-14,-11
1678313246.07999992,639224000,0.4748747646808624,0.0,0.47967374324798584,0.5,-8.46081829071045,-8.403584480285645,-7.6383256912231445,0.0,1.92,0.0,-17,-12
1678313246.17999983,639324000,0.4695906639099121,0.0,0.47422948479652405,0.5,-8.46081829071045,-8.393035888671875,-7.335312366485596,0.0,2.0,0.0,-20,-15
1678313246.27999997,639424000,0.45806148648262024,0.0,0.4663516581058502,0.5,-8.46081829071045,-8.380866050720215,-7.577394008636475,0.0,2.08,0.0,-23,-17
1678313246.37999988,639524000,0.4485234022140503,0.0,0.45689940452575684,0.5,-8.46081829071045,-8.36575984954834,-7.382917881011963,0.0,2.15,0.0,-28,-20
1678313246.48000002,639624000,0.4358810484409332,0.0,0.4455006718635559,0.5,-8.46081829071045,-8.350278854370117,-7.653411388397217,0.0,2.2,0.0,-33,-24
1678313246.57999992,639724000,0.41929468512535095,0.0,0.4316788911819458,0.5,-8.46081829071045,-8.333829879760742,-7.761138439178467,0.0,2.2600000000000002,0.0,-38,-28
1678313246.67999983,639824000,0.40432700514793396,0.0,0.4163672626018524,0.5,-8.46081829071045,-8.317317008972168,-7.401093006134033,0.0,2.29,0.0,-43,-32
1678313246.77999997,639924000,0.3831476867198944,0.0,0.3986939489841461,0.5,-8.46081829071045,-8.30258560180664,-7.662604331970215,0.0,2.35,0.0,-47,-36
1678313246.87999988,640024000,0.3644119203090668,0.0,0.3801268935203552,0.5,-8.46081829071045,-8.287323951721191,-7.630282402038574,0.0,2.38,0.0,-52,-40
1678313246.98000002,640124000,0.34283366799354553,0.0,0.3595912456512451,0.5,-8.46081829071045,-8.274362564086914,-7.847501754760742,0.0,2.41,0.0,-55,-44
1678313247.07999992,640224000,0.31809598207473755,0.0,0.3376978635787964,0.5,-8.46081829071045,-8.262407302856445,-7.865128993988037,0.0,2.44,0.0,-59,-47
1678313247.17999983,640324000,0.2960640490055084,0.0,0.3145219683647156,0.5,-8.46081829071045,-8.25123405456543,-7.844456195831299,0.0,2.44,0.0,-62,-50
1678313247.27999997,640424000,0.26679182052612305,0.0,0.2880011200904846,0.5,-8.46081829071045,-8.241655349731445,-7.970786094665527,0.0,2.39,0.0,-65,-53
1678313247.37999988,640524000,0.2468605637550354,0.0,0.2653175890445709,0.5,-8.46081829071045,-8.233715057373047,-8.030230522155762,0.0,2.32,0.0,-68,-55
1678313247.48000002,640624000,0.2317427694797516,0.0,0.24508978426456451,0.5,-8.46081829071045,-8.230932235717773,-8.015030860900879,0.0,2.2600000000000002,0.0,-68,-57
1678313247.57999992,640724000,0.22143545746803284,0.0,0.2311246693134308,0.5,-8.46081829071045,-8.2318115234375,-8.150022506713867,0.0,2.18,0.0,-68,-58
1678313247.67999983,640824000,0.22108381986618042,0.0,0.22329109907150269,0.5,-8.46081829071045,-8.23681640625,-8.10550308227539,0.0,2.1,0.0,-67,-59
1678313247.77999997,640924000,0.22700446844100952,0.0,0.2228100299835205,0.5,-8.46081829071045,-8.24689769744873,-8.25586223602295,0.0,2.02,0.0,-64,-58
1678313247.87999988,641024000,0.23805180191993713,0.0,0.2296132743358612,0.5,-8.46081829071045,-8.259678840637207,-8.510918617248535,0.0,1.93,0.0,-60,-57
1678313247.98000002,641124000,0.25311166048049927,0.0,0.24113215506076813,0.5,-8.46081829071045,-8.275858879089355,-8.408700942993164,0.0,1.86,0.0,-55,-54
1678313248.07999992,641224000,0.27151861786842346,0.0,0.25694534182548523,0.5,-8.46081829071045,-8.294404029846191,-8.374593734741211,0.0,1.78,0.0,-49,-51
1678313248.17999983,641324000,0.2912176847457886,0.0,0.2751365900039673,0.5,-8.46081829071045,-8.313342094421387,-8.473441123962402,0.0,1.71,0.0,-44,-47
1678313248.27999997,641424000,0.3131859600543976,0.0,0.2953539490699768,0.5,-8.46081829071045,-8.333888053894043,-8.711531639099121,0.0,1.62,0.0,-38,-42
1678313248.37999988,641524000,0.3343847990036011,0.0,0.3169249892234802,0.5,-8.46081829071045,-8.353231430053711,-8.609524726867676,0.0,1.52,0.0,-32,-37
1678313248.48000002,641624000,0.35872745513916016,0.0,0.33908817172050476,0.5,-8.46081829071045,-8.373470306396484,-8.729924201965332,0.0,1.3900000000000001,0.0,-26,-33
1678313248.57999992,641724000,0.38327205181121826,0.0,0.363395631313324,0.5,-8.46081829071045,-8.393895149230957,-8.868642807006836,0.0,1.26,0.0,-20,-28
1678313248.67999983,641824000,0.4116513729095459,0.0,0.3893730342388153,0.5,-8.46081829071045,-8.41592025756836,-8.98445987701416,0.0,1.1500000000000001,0.0,-13,-23
1678313248.77999997,641924000,0.44197168946266174,0.0,0.4181171953678131,0.5,-8.46081829071045,-8.439273834228516,-8.882135391235352,0.0,1.03,0.0,-6,-17
1678313248.87999988,642024000,0.47095003724098206,0.0,0.4472705125808716,0.5,-8.46081829071045,-8.464640617370605,-8.861989974975586,0.0,0.92,0.0,1,-11
1678313248.98000002,642124000,0.49522650241851807,0.0,0.47478270530700684,0.5,-8.46081829071045,-8.490078926086426,-9.154773712158203,0.0,0.81,0.0,8,-5
1678313249.07999992,642224000,0.5177969932556152,0.0,0.4990616738796234,0.5,-8.46081829071045,-8.51617431640625,-9.052658081054688,0.0,0.7000000000000001,0.0,16,1
1678313249.17999983,642324000,0.52968829870224,0.0,0.517949104309082,0.5,-8.46081829071045,-8.541391372680664,-9.1480131149292,0.0,0.61,0.0,24,8
1678313249.27999997,642424000,0.5416947603225708,0.0,0.5320032238960266,0.5,-8.46081829071045,-8.565290451049805,-9.030658721923828,0.0,0.53,0.0,31,15
1678313249.37999988,642524000,0.5426141619682312,0.0,0.5396077632904053,0.5,-8.46081829071045,-8.588751792907715,-8.926262855529785,0.0,0.45,0.0,38,23
1678313249.48000002,642624000,0.5380134582519531,0.0,0.541223406791687,0.5,-8.46081829071045,-8.609642028808594,-8.922465324401855,0.0,0.38,0.0,44,30
1678313249.57999992,642724000,0.5430922508239746,0.0,0.5405041575431824,0.5,-8.46081829071045,-8.628667831420898,-9.21738338470459,0.0,0.32,0.0,50,36
1678313249.67999983,642824000,0.5488280653953552,0.0,0.544426679611206,0.5,-8.46081829071045,-8.646500587463379,-9.226080894470215,0.0,0.29,0.0,55,42
1678313249.77999997,642924000,0.5398311018943787,0.0,0.5477949380874634,0.5,-8.46081829071045,-8.653383255004883,-9.238974571228027,0.0,0.29,0.0,57,47
1678313249.87999988,643024000,0.5520929098129272,0.0,0.5473279356956482,0.5,-8.46081829071045,-8.660905838012695,-9.109719276428223,0.0,0.28,0.0,60,50
1678313249.98000002,643124000,0.5707406997680664,0.0,0.561598539352417,0.5,-8.46081829071045,-8.669527053833008,-8.872432708740234,0.0,0.31,0.0,62,52
1678313250.07999992,643224000,0.5643793344497681,0.0,0.5617222189903259,0.5,-8.46081829071045,-8.668214797973633,-8.742193222045898,0.0,0.39,0.0,62,54
1678313250.17999983,643324000,0.5786527395248413,0.0,0.5701923370361328,0.5,-8.46081829071045,-8.672074317932129,-8.811169624328613,0.0,0.47000000000000003,0.0,63,55
1678313250.27999997,643424000,0.5926350355148315,0.0,0.5826792120933533,0.5,-8.46081829071045,-8.67544174194336,-8.714208602905273,0.0,0.55,0.0,64,55
