timestamp,TimeUS,ThI,ABst,ThO,ThH,DAlt,Alt,BAlt,DSAlt,SAlt,TAlt,DCRt,CRt
1678311941.98000002,320151000,0.0,0.0,0.5,0.5,0.0,-0.23329226672649384,-0.3437284827232361,0.0,9.89,0.0,0,-6
1678311942.07999992,320251000,0.0,0.0,0.5,0.5,0.0,-0.23111189901828766,-0.13432398438453674,0.0,9.88,0.0,0,-5
1678311942.18000007,320351000,0.0,0.0,0.5,0.5,0.0,-0.22867393493652344,-0.07079161703586578,0.0,9.89,0.0,0,-5
1678311942.27999997,320451000,0.0,0.0,0.5,0.5,0.0,-0.2199714481830597,-0.10348254442214966,0.0,9.88,0.0,0,-3
1678311942.38000011,320551000,0.0,0.0,0.5,0.5,0.0,-0.20740880072116852,-0.2760271728038788,0.0,9.89,0.0,0,-2
1678311942.48000002,320651000,0.0,0.0,0.5,0.5,0.0,-0.20072223246097565,-0.346587210893631,0.0,9.88,0.0,0,-1
1678311942.57999992,320751000,0.0,0.0,0.5,0.5,0.0,-0.2054058462381363,-0.38166654109954834,0.0,9.89,0.0,0,-3
1678311942.68000007,320851000,0.0,0.0,0.5,0.5,0.0,-0.22036269307136536,-0.03640943765640259,0.0,9.89,0.0,0,-4
1678311942.77999997,320951000,0.0,0.0,0.5,0.5,0.0,-0.22577662765979767,-0.28777623176574707,0.0,9.9,0.0,0,-4
1678311942.88000011,321051000,0.0,0.0,0.5,0.5,0.0,-0.23063646256923676,-0.09161870181560516,0.0,9.88,0.0,0,-3
1678311942.98000002,321151000,0.0,0.0,0.48750001192092896,0.5,0.0,-0.2291540652513504,-0.23716996610164642,0.0,9.88,0.0,0,-3
1678311943.07999992,321251000,0.0,0.0,0.4112499952316284,0.5,0.0,-0.23085761070251465,-0.300578773021698,0.0,9.88,0.0,0,-11
1678311943.18000007,321351000,0.0,0.0,0.3474999964237213,0.5,0.0,-0.2522784173488617,-0.10257812589406967,0.0,9.88,0.0,0,-32
1678311943.27999997,321451000,0.0,0.0,0.3375000059604645,0.5,0.0,-0.28960534930229187,-0.2007860392332077,0.0,9.84,0.0,0,-51
1678311943.38000011,321551000,0.0,0.0,0.33500000834465027,0.5,0.0,-0.3384876847267151,-0.46230509877204895,0.0,9.78,0.0,0,-61
1678311943.48000002,321651000,0.0,0.0,0.33500000834465027,0.5,0.0,-0.40330398082733154,-0.15712213516235352,0.0,9.72,0.0,0,-65
1678311943.57999992,321751000,0.0,0.0,0.33500000834465027,0.5,0.0,-0.4633173942565918,-0.33456912636756897,0.0,9.65,0.0,0,-67
1678311943.68000007,321851000,0.0,0.0,0.33500000834465027,0.5,0.0,-0.5192121863365173,-0.35437101125717163,0.0,9.59,0.0,0,-66
1678311943.77999997,321951000,0.0,0.0,0.33500000834465027,0.5,0.0,-0.5715471506118774,-0.5146982669830322,0.0,9.53,0.0,0,-65
1678311943.88000011,322051000,0.0,0.0,0.33500000834465027,0.5,0.0,-0.6254416108131409,-0.4382190704345703,0.0,9.44,0.0,0,-65
1678311943.98000002,322151000,0.0,0.0,0.33500000834465027,0.5,0.0,-0.6755262017250061,-0.5131158232688904,0.0,9.38,0.0,0,-63
1678311944.07999992,322251000,0.0,0.0,0.33500000834465027,0.5,0.0,-0.7218323945999146,-0.791796863079071,0.0,9.31,0.0,0,-62
1678311944.18000007,322351000,0.0,0.0,0.33500000834465027,0.5,0.0,-0.7762040495872498,-0.9748628735542297,0.0,9.25,0.0,0,-61
1678311944.27999997,322451000,0.0,0.0,0.33500000834465027,0.5,0.0,-0.8453072905540466,-0.8295292854309082,0.0,9.18,0.0,0,-62
1678311944.38000011,322551000,0.0,0.0,0.33500000834465027,0.5,0.0,-0.9166398644447327,-1.157387614250183,0.0,9.11,0.0,0,-63
1678311944.48000002,322651000,0.0,0.0,0.33500000834465027,0.5,0.0,-0.9985796809196472,-1.1967438459396362,0.0,9.06,0.0,0,-64
1678311944.57999992,322751000,0.0,0.0,0.33375000953674316,0.5,0.0,-1.0899449586868286,-1.1928954124450684,0.0,8.99,0.0,0,-66
1678311944.68000007,322851000,0.0,0.0,0.33375000953674316,0.5,0.0,-1.1835438013076782,-1.0708330869674683,0.0,8.91,0.0,0,-68
1678311944.77999997,322951000,0.0,0.0,0.33375000953674316,0.5,0.0,-1.2678223848342896,-1.0653563737869263,0.0,8.86,0.0,0,-69
1678311944.88000011,323051000,0.0,0.0,0.33375000953674316,0.5,0.0,-1.3386166095733643,-1.2630987167358398,0.0,8.790000000000001,0.0,0,-69
1678311944.98000002,323151000,0.0,0.0,0.33375000953674316,0.5,0.0,-1.4046818017959595,-1.3264803886413574,0.0,8.72,0.0,0,-69
1678311945.07999992,323251000,0.0,0.0,0.33375000953674316,0.5,0.0,-1.4691309928894043,-1.5837345123291016,0.0,8.66,0.0,0,-68
1678311945.18000007,323351000,0.0,0.0,0.33375000953674316,0.5,0.0,-1.5414371490478516,-1.7040808200836182,0.0,8.58,0.0,0,-68
1678311945.27999997,323451000,0.0,0.0,0.33250001072883606,0.5,0.0,-1.6244251728057861,-1.5434646606445312,0.0,8.51,0.0,0,-70
1678311945.38000011,323551000,0.0,0.0,0.33250001072883606,0.5,0.0,-1.7046737670898438,-1.6886109113693237,0.0,8.44,0.0,0,-71
1678311945.48000002,323651000,0.0,0.0,0.33125001192092896,0.5,0.0,-1.7828218936920166,-1.848056435585022,0.0,8.370000000000001,0.0,0,-71
1678311945.57999992,323751000,0.0,0.0,0.33000001311302185,0.5,0.0,-1.8644769191741943,-1.92073655128479,0.0,8.32,0.0,0,-72
1678311945.68000007,323851000,0.0,0.0,0.33000001311302185,0.5,0.0,-1.9496716260910034,-2.022819995880127,0.0,8.25,0.0,0,-73
1678311945.77999997,323951000,0.0,0.0,0.33000001311302185,0.5,0.0,-2.038301944732666,-1.9793734550476074,0.0,8.19,0.0,0,-75
1678311945.88000011,324051000,0.0,0.0,0.33000001311302185,0.5,0.0,-2.1237850189208984,-2.01674222946167,0.0,8.120000000000001,0.0,0,-75
1678311945.98000002,324151000,0.0,0.0,0.32875001430511475,0.5,0.0,-2.2033157348632812,-2.1825315952301025,0.0,8.040000000000001,0.0,0,-76
1678311946.07999992,324251000,0.0,0.0,0.32875001430511475,0.5,0.0,-2.2822022438049316,-2.0828866958618164,0.0,7.99,0.0,0,-76
1678311946.18000007,324351000,0.0,0.0,0.32875001430511475,0.5,0.0,-2.3536643981933594,-2.1278703212738037,0.0,7.92,0.0,0,-76
1678311946.27999997,324451000,0.0,0.0,0.32875001430511475,0.5,0.0,-2.416137933731079,-2.1134252548217773,0.0,7.84,0.0,0,-74
1678311946.38000011,324551000,0.0,0.0,0.32875001430511475,0.5,0.0,-2.468120574951172,-2.1387104988098145,0.0,7.7700000000000005,0.0,0,-73
1678311946.48000002,324651000,0.0,0.0,0.32875001430511475,0.5,0.0,-2.5099704265594482,-2.516458034515381,0.0,7.69,0.0,0,-70
1678311946.57999992,324751000,0.0,0.0,0.32875001430511475,0.5,0.0,-2.5592830181121826,-2.367126226425171,0.0,7.640000000000001,0.0,0,-69
1678311946.68000007,324851000,0.0,0.0,0.32875001430511475,0.5,0.0,-2.608876943588257,-2.369637966156006,0.0,7.57,0.0,0,-67
1678311946.77999997,324951000,0.0,0.0,0.3174999952316284,0.5,0.0,-2.6532390117645264,-2.6553125381469727,0.0,7.51,0.0,0,-66
1678311946.88000011,325051000,0.0,0.0,0.26875001192092896,0.5,0.0,-2.7060861587524414,-2.659968137741089,0.0,7.43,0.0,0,-70
1678311946.98000002,325151000,0.0,0.0,0.25,0.5,0.0,-2.769496440887451,-2.8663671016693115,0.0,7.36,0.0,0,-74
1678311947.07999992,325251000,0.0,0.0,0.25,0.5,0.0,-2.846454381942749,-2.8562779426574707,0.0,7.28,0.0,0,-77
1678311947.18000007,325351000,0.0,0.0,0.25,0.5,0.0,-2.9297099113464355,-2.9480373859405518,0.0,7.21,0.0,0,-79
1678311947.27999997,325451000,0.0,0.0,0.25,0.5,0.0,-3.015943765640259,-3.091096878051758,0.0,7.11,0.0,0,-79
1678311947.38000011,325551000,0.0,0.0,0.25,0.5,0.0,-3.106865406036377,-3.2602574825286865,0.0,7.03,0.0,0,-80
1678311947.48000002,325651000,0.0,0.0,0.25,0.5,0.0,-3.205606698989868,-3.1979846954345703,0.0,6.96,0.0,0,-82
1678311947.57999992,325751000,0.0,0.0,0.25,0.5,0.0,-3.303823232650757,-3.4274449348449707,0.0,6.87,0.0,0,-83
1678311947.68000007,325851000,0.0,0.0,0.25,0.5,0.0,-3.40580677986145,-3.5425350666046143,0.0,6.79,0.0,0,-84
1678311947.77999997,325951000,0.0,0.0,0.25,0.5,0.0,-3.5132896900177,-3.6324498653411865,0.0,6.7,0.0,0,-86
1678311947.88000011,326051000,0.0,0.0,0.25,0.5,0.0,-3.624554395675659,-3.4585180282592773,0.0,6.61,0.0,0,-88
1678311947.98000002,326151000,0.0,0.0,0.25,0.5,0.0,-3.7256689071655273,-3.500223159790039,0.0,6.54,0.0,0,-89
1678311948.07999992,326251000,0.0,0.0,0.25,0.5,0.0,-3.813286066055298,-3.8825645446777344,0.0,6.46,0.0,0,-88
1678311948.18000007,326351000,0.0,0.0,0.25,0.5,0.0,-3.9042558670043945,-3.576730728149414,0.0,6.37,0.0,0,-88
1678311948.27999997,326451000,0.0,0.0,0.25,0.5,0.0,-3.983588218688965,-3.666989803314209,0.0,6.29,0.0,0,-87
1678311948.38000011,326551000,0.0,0.0,0.25,0.5,0.0,-4.0496320724487305,-4.085196018218994,0.0,6.21,0.0,0,-86
1678311948.48000002,326651000,0.0,0.0,0.25,0.5,0.0,-4.122312545776367,-4.10835075378418,0.0,6.13,0.0,0,-85
1678311948.57999992,326751000,0.0,0.0,0.25,0.5,0.0,-4.202061176300049,-3.947375535964966,0.0,6.04,0.0,0,-84
1678311948.68000007,326851000,0.0,0.0,0.25,0.5,0.0,-4.274907112121582,-4.200376510620117,0.0,5.97,0.0,0,-83
1678311948.77999997,326951000,0.0,0.0,0.25,0.5,0.0,-4.347529411315918,-4.2369537353515625,0.0,5.88,0.0,0,-83
1678311948.88000011,327051000,0.0,0.0,0.25,0.5,0.0,-4.4205451011657715,-4.468513011932373,0.0,5.8,0.0,0,-82
1678311948.98000002,327151000,0.0,0.0,0.25,0.5,0.0,-4.500372409820557,-4.27919340133667,0.0,5.72,0.0,0,-82
1678311949.07999992,327251000,0.0,0.0,0.25,0.5,0.0,-4.5746941566467285,-4.5398054122924805,0.0,5.64,0.0,0,-81
1678311949.18000007,327351000,0.0,0.0,0.25,0.5,0.0,-4.649726867675781,-4.482005596160889,0.0,5.55,0.0,0,-81
1678311949.27999997,327451000,0.0,0.0,0.25,0.5,0.0,-4.721522331237793,-4.797268867492676,0.0,5.46,0.0,0,-80
1678311949.38000011,327551000,0.0,0.0,0.25,0.5,0.0,-4.800140857696533,-4.812685966491699,0.0,5.4,0.0,0,-80
1678311949.48000002,327651000,0.0,0.0,0.25,0.5,0.0,-4.88393497467041,-4.708122730255127,0.0,5.3100000000000005,0.0,0,-80
1678311949.57999992,327751000,0.0,0.0,0.25,0.5,0.0,-4.961851119995117,-5.028817653656006,0.0,5.22,0.0,0,-80
1678311949.68000007,327851000,0.0,0.0,0.25,0.5,0.0,-5.0440449714660645,-4.983112335205078,0.0,5.13,0.0,0,-80
1678311949.77999997,327951000,0.0,0.0,0.25,0.5,0.0,-5.126724720001221,-5.268395900726318,0.0,5.0600000000000005,0.0,0,-80
1678311949.88000011,328051000,0.0,0.0,0.25,0.5,0.0,-5.217297077178955,-5.390292644500732,0.0,4.98,0.0,0,-81
1678311949.98000002,328151000,0.0,0.0,0.25,0.5,0.0,-5.317851543426514,-5.346525192260742,0.0,4.89,0.0,0,-82
1678311950.07999992,328251000,0.0,0.0,0.25,0.5,0.0,-5.419619560241699,-5.461300849914551,0.0,4.8100000000000005,0.0,0,-84
1678311950.18000007,328351000,0.0,0.0,0.25,0.5,0.0,-5.521216869354248,-5.497647285461426,0.0,4.73,0.0,0,-85
1678311950.27999997,328451000,0.0,0.0,0.25,0.5,0.0,-5.620259761810303,-5.39398193359375,0.0,4.64,0.0,0,-86
1678311950.38000011,328551000,0.0,0.0,0.25,0.5,0.0,-5.707640171051025,-5.561844825744629,0.0,4.5600000000000005,0.0,0,-86
1678311950.48000002,328651000,0.0,0.0,0.25,0.5,0.0,-5.78779935836792,-5.875059604644775,0.0,4.48,0.0,0,-85
1678311950.57999992,328751000,0.0,0.0,0.25,0.5,0.0,-5.874643802642822,-5.809195518493652,0.0,4.4,0.0,0,-85
1678311950.68000007,328851000,0.0,0.0,0.25,0.5,0.0,-5.962540626525879,-6.0603179931640625,0.0,4.32,0.0,0,-85
1678311950.77999997,328951000,0.0,0.0,0.25,0.5,0.0,-6.056654930114746,-5.832651615142822,0.0,4.23,0.0,0,-86
1678311950.88000011,329051000,0.0,0.0,0.25,0.5,0.0,-6.1428399085998535,-6.218786716461182,0.0,4.16,0.0,0,-86
1678311950.98000002,329151000,0.0,0.0,0.25,0.5,0.0,-6.2327494621276855,-6.162617206573486,0.0,4.07,0.0,0,-86
1678311951.07999992,329251000,0.0,0.0,0.25,0.5,0.0,-6.322829246520996,-6.152808666229248,0.0,3.99,0.0,0,-87
1678311951.18000007,329351000,0.0,0.0,0.25,0.5,0.0,-6.406540870666504,-6.377963066101074,0.0,3.91,0.0,0,-86
1678311951.27999997,329451000,0.0,0.0,0.25,0.5,0.0,-6.490817546844482,-6.552355766296387,0.0,3.83,0.0,0,-86
1678311951.38000011,329551000,0.0,0.0,0.25,0.5,0.0,-6.5815582275390625,-6.631252288818359,0.0,3.74,0.0,0,-87
1678311951.48000002,329651000,0.0,0.0,0.25,0.5,0.0,-6.677671909332275,-6.513668060302734,0.0,3.66,0.0,0,-87
1678311951.57999992,329751000,0.0,0.0,0.25,0.5,0.0,-6.767812252044678,-6.432558059692383,0.0,3.58,0.0,0,-88
1678311951.68000007,329851000,0.0,0.0,0.25,0.5,0.0,-6.842996597290039,-6.826084136962891,0.0,3.49,0.0,0,-86
1678311951.77999997,329951000,0.0,0.0,0.25,0.5,0.0,-6.919617652893066,-6.734855651855469,0.0,3.41,0.0,0,-86
1678311951.88000011,330051000,0.0,0.0,0.25,0.5,0.0,-6.993795394897461,-6.997834205627441,0.0,3.33,0.0,0,-85
1678311951.98000002,330151000,0.0,0.0,0.25,0.5,0.0,-7.072364330291748,-6.935907363891602,0.0,3.2600000000000002,0.0,0,-84
1678311952.07999992,330251000,0.0,0.0,0.25,0.5,0.0,-7.150044918060303,-6.905844211578369,0.0,3.17,0.0,0,-84
1678311952.18000007,330351000,0.0,0.0,0.25,0.5,0.0,-7.220043659210205,-7.0924248695373535,0.0,3.08,0.0,0,-83
1678311952.27999997,330451000,0.0,0.0,0.25,0.5,0.0,-7.288130283355713,-7.267753601074219,0.0,3.0100000000000002,0.0,0,-82
1678311952.38000011,330551000,0.0,0.0,0.25,0.5,0.0,-7.361027240753174,-7.145373821258545,0.0,2.93,0.0,0,-81
1678311952.48000002,330651000,0.0,0.0,0.25,0.5,0.0,-7.4296135902404785,-7.2516350746154785,0.0,2.84,0.0,0,-80
1678311952.57999992,330751000,0.0,0.0,0.25,0.5,0.0,-7.4938507080078125,-7.330026149749756,0.0,2.7600000000000002,0.0,0,-79
1678311952.68000007,330851000,0.0,0.0,0.25,0.5,0.0,-7.555762767791748,-7.458769798278809,0.0,2.67,0.0,0,-77
1678311952.77999997,330951000,0.0,0.0,0.25,0.5,0.0,-7.618844985961914,-7.751192569732666,0.0,2.59,0.0,0,-76
1678311952.88000011,331051000,0.0,0.0,0.25,0.5,0.0,-7.693758964538574,-7.531101703643799,0.0,2.52,0.0,0,-76
1678311952.98000002,331151000,0.0,0.0,0.25,0.5,0.0,-7.766526222229004,-7.94220495223999,0.0,2.43,0.0,0,-76
1678311953.07999992,331251000,0.0,0.0,0.25,0.5,0.0,-7.8489813804626465,-8.063448905944824,0.0,2.35,0.0,0,-77
1678311953.18000007,331351000,0.0,0.0,0.25,0.5,0.0,-7.944705009460449,-7.871704578399658,0.0,2.2600000000000002,0.0,0,-78
1678311953.27999997,331451000,0.0,0.0,0.25,0.5,0.0,-8.037463188171387,-7.983855247497559,0.0,2.18,0.0,0,-79
1678311953.38000011,331551000,0.0,0.0,0.25,0.5,0.0,-8.12527084350586,-8.169898986816406,0.0,2.1,0.0,0,-79
1678311953.48000002,331651000,0.0,0.0,0.25,0.5,0.0,-8.214484214782715,-8.436692237854004,0.0,2.02,0.0,0,-80
1678311953.57999992,331751000,0.0,0.0,0.25,0.5,0.0,-8.314373970031738,-8.453271865844727,0.0,1.93,0.0,0,-81
1678311953.68000007,331851000,0.0,0.0,0.25,0.5,0.0,-8.420866012573242,-8.229034423828125,0.0,1.85,0.0,0,-83
1678311953.77999997,331951000,0.0,0.0,0.25,0.5,0.0,-8.516286849975586,-8.406168937683105,0.0,1.77,0.0,0,-84
1678311953.88000011,332051000,0.0,0.0,0.25,0.5,0.0,-8.60336685180664,-8.672993659973145,0.0,1.68,0.0,0,-84
1678311953.98000002,332151000,0.0,0.0,0.5,0.5,0.0,-8.67996883392334,-8.694048881530762,0.0,1.62,0.0,0,-56
1678311954.07999992,332251000,0.0,0.0,0.5,0.5,0.0,-8.735940933227539,-8.729472160339355,0.0,1.57,0.0,0,-41
1678311954.18000007,332351000,0.0,0.0,0.5,0.5,0.0,-8.779669761657715,-8.781615257263184,0.0,1.54,0.0,0,-33
1678311954.27999997,332451000,0.0,0.0,0.5,0.5,0.0,-8.815807342529297,-8.599949836730957,0.0,1.51,0.0,0,-28
1678311954.38000011,332551000,0.0,0.0,0.5,0.5,0.0,-8.836893081665039,-8.915425300598145,0.0,1.5,0.0,0,-23
1678311954.48000002,332651000,0.0,0.0,0.5,0.5,0.0,-8.857522964477539,-8.802716255187988,0.0,1.48,0.0,0,-20
1678311954.57999992,332751000,0.0,0.0,0.5,0.5,0.0,-8.875497817993164,-8.889208793640137,0.0,1.46,0.0,0,-18
1678311954.68000007,332851000,0.0,0.0,0.5,0.5,0.0,-8.892595291137695,-8.66983699798584,0.0,1.44,0.0,0,-16
1678311954.77999997,332951000,0.0,0.0,0.5,0.5,0.0,-8.898926734924316,-8.719707489013672,0.0,1.43,0.0,0,-14
1678311954.88000011,333051000,0.0,0.0,0.5,0.5,0.0,-8.89594554901123,-8.980451583862305,0.0,1.42,0.0,0,-11
1678311954.98000002,333151000,0.0,0.0,0.5,0.5,0.0,-8.898463249206543,-9.00689697265625,0.0,1.42,0.0,0,-10
1678311955.07999992,333251000,0.0,0.0,0.5,0.5,0.0,-8.909174919128418,-9.047691345214844,0.0,1.4000000000000001,0.0,0,-9
1678311955.18000007,333351000,0.0,0.0,0.5,0.5,0.0,-8.927143096923828,-8.901307106018066,0.0,1.3900000000000001,0.0,0,-9
1678311955.27999997,333451000,0.0,0.0,0.5,0.5,0.0,-8.943060874938965,-8.975418090820312,0.0,1.3900000000000001,0.0,0,-9
1678311955.38000011,333551000,0.0,0.0,0.5,0.5,0.0,-8.957836151123047,-8.803573608398438,0.0,1.3800000000000001,0.0,0,-8
1678311955.48000002,333651000,0.0,0.0,0.5,0.5,0.0,-8.964011192321777,-8.773792266845703,0.0,1.3800000000000001,0.0,0,-8
1678311955.57999992,333751000,0.0,0.0,0.5,0.5,0.0,-8.959720611572266,-8.76109504699707,0.0,1.37,0.0,0,-6
1678311955.68000007,333851000,0.0,0.0,0.5,0.5,0.0,-8.946800231933594,-8.951717376708984,0.0,1.36,0.0,0,-4
1678311955.77999997,333951000,0.4975077509880066,0.0,0.48350080847740173,0.5,-8.94590950012207,-8.936986923217773,-8.83996295928955,1.45,1.36,0.0,-5,-4
1678311955.88000011,334051000,0.4711402356624603,0.0,0.4880334138870239,0.5,-8.947652816772461,-8.929150581359863,-9.058911323547363,1.45,1.35,0.0,-6,-5
1678311955.98000002,334151000,0.5006082653999329,0.0,0.49681198596954346,0.5,-8.947296142578125,-8.931291580200195,-9.077691078186035,1.45,1.35,0.0,-3,-5
1678311956.07999992,334251000,0.5504184365272522,0.0,0.5196837782859802,0.5,-8.944735527038574,-8.942587852478027,-8.791141510009766,1.45,1.33,0.0,3,-3
1678311956.18000007,334351000,0.5090122818946838,0.0,0.5262466669082642,0.5,-8.939929962158203,-8.942954063415527,-8.972724914550781,1.45,1.34,0.0,6,2
1678311956.27999997,334451000,0.5028527975082397,0.0,0.5146000981330872,0.5,-8.932893753051758,-8.93729305267334,-9.012362480163574,1.45,1.33,0.0,9,6
1678311956.38000011,334551000,0.5124410390853882,0.0,0.5140206217765808,0.5,-8.923737525939941,-8.93204402923584,-8.782989501953125,1.45,1.34,0.0,12,9
1678311956.48000002,334651000,0.49582672119140625,0.0,0.5093281269073486,0.5,-8.912668228149414,-8.916887283325195,-8.887264251708984,1.45,1.36,0.0,13,12
1678311956.57999992,334751000,0.4907420575618744,0.0,0.4986448585987091,0.5,-8.90001106262207,-8.89725399017334,-8.883260726928711,1.45,1.37,0.0,12,13
1678311956.68000007,334851000,0.5023554563522339,0.0,0.49816563725471497,0.5,-8.886141777038574,-8.878287315368652,-8.833632469177246,1.45,1.3800000000000001,0.0,11,12
1678311956.77999997,334951000,0.4810168445110321,0.0,0.49353066086769104,0.5,-8.87143325805664,-8.85930347442627,-8.709832191467285,1.45,1.3900000000000001,0.0,11,12
1678311956.88000011,335051000,0.4751412570476532,0.0,0.4869491457939148,0.5,-8.856258392333984,-8.835508346557617,-8.886580467224121,1.45,1.3900000000000001,0.0,9,11
1678311956.98000002,335151000,0.49368155002593994,0.0,0.4859340786933899,0.5,-8.840887069702148,-8.817063331604004,-8.902606964111328,1.45,1.4000000000000001,0.0,8,9
1678311957.07999992,335251000,0.5090778470039368,0.0,0.49580565094947815,0.5,-8.825514793395996,-8.807401657104492,-9.01720142364502,1.45,1.4000000000000001,0.0,9,8
1678311957.18000007,335351000,0.5357049107551575,0.0,0.5134218335151672,0.5,-8.81030559539795,-8.808711051940918,-8.743351936340332,1.45,1.41,0.0,14,8
1678311957.27999997,335451000,0.5136767625808716,0.0,0.5197586417198181,0.5,-8.795392036437988,-8.803998947143555,-9.052413940429688,1.45,1.41,0.0,17,12
1678311957.38000011,335551000,0.5335711240768433,0.0,0.5195443034172058,0.5,-8.780890464782715,-8.803586959838867,-8.865691184997559,1.45,1.43,0.0,21,14
1678311957.48000002,335651000,0.5299698710441589,0.0,0.5255183577537537,0.5,-8.766946792602539,-8.801279067993164,-8.871491432189941,1.45,1.44,0.0,23,17
1678311957.57999992,335751000,0.5215038061141968,0.0,0.521906852722168,0.5,-8.753735542297363,-8.794229507446289,-8.863862037658691,1.45,1.45,0.0,24,20
1678311957.68000007,335851000,0.5152178406715393,0.0,0.5162345767021179,0.5,-8.741456031799316,-8.784124374389648,-8.624388694763184,1.45,1.47,0.0,24,21
1678311957.77999997,335951000,0.48056042194366455,0.0,0.5011500120162964,0.5,-8.730304718017578,-8.762343406677246,-8.597436904907227,1.45,1.49,0.0,20,21
1678311957.88000011,336051000,0.45185935497283936,0.0,0.47380778193473816,0.5,-8.720519065856934,-8.73146915435791,-8.692465782165527,1.45,1.51,0.0,12,18
1678311957.98000002,336151000,0.4553668200969696,0.0,0.45615047216415405,0.5,-8.712352752685547,-8.704447746276855,-8.66763687133789,1.45,1.52,0.0,4,12
1678311958.07999992,336251000,0.469445139169693,0.0,0.45852693915367126,0.5,-8.706043243408203,-8.686019897460938,-8.560328483581543,1.45,1.53,0.0,0,4
1678311958.18000007,336351000,0.46315163373947144,0.0,0.4635840654373169,0.5,-8.701730728149414,-8.671496391296387,-8.79415225982666,1.45,1.53,0.0,-5,0
1678311958.27999997,336451000,0.4907270073890686,0.0,0.4712311625480652,0.5,-8.69942855834961,-8.670726776123047,-8.794428825378418,1.45,1.52,0.0,-7,-6
1678311958.38000011,336551000,0.5106968879699707,0.0,0.4905317425727844,0.5,-8.699016571044922,-8.682806968688965,-8.559890747070312,1.45,1.51,0.0,-5,-8
1678311958.48000002,336651000,0.4912034571170807,0.0,0.49842995405197144,0.5,-8.700218200683594,-8.69013786315918,-8.933252334594727,1.45,1.5,0.0,-4,-7
1678311958.57999992,336751000,0.5229126214981079,0.0,0.5030099153518677,0.5,-8.702686309814453,-8.705899238586426,-8.65877914428711,1.45,1.48,0.0,-2,-6
1678311958.68000007,336851000,0.5094507336616516,0.0,0.5119219422340393,0.5,-8.706019401550293,-8.718332290649414,-8.58504867553711,1.45,1.48,0.0,0,-3
1678311958.77999997,336951000,0.48206859827041626,0.0,0.5003466010093689,0.5,-8.709848403930664,-8.718779563903809,-8.861767768859863,1.45,1.46,0.0,-1,-1
1678311958.88000011,337051000,0.5007398724555969,0.0,0.49345862865448,0.5,-8.713888168334961,-8.723223686218262,-8.944242477416992,1.45,1.46,0.0,-1,-1
1678311958.98000002,337151000,0.5270607471466064,0.0,0.5082142353057861,0.5,-8.717916488647461,-8.738835334777832,-8.708666801452637,1.45,1.45,0.0,2,-1
1678311959.07999992,337251000,0.5105631351470947,0.0,0.5169546008110046,0.5,-8.721744537353516,-8.749846458435059,-8.944318771362305,1.45,1.46,0.0,4,0
1678311959.18000007,337351000,0.5228824019432068,0.0,0.516323447227478,0.5,-8.725264549255371,-8.762377738952637,-8.77908706665039,1.45,1.46,0.0,7,3
1678311959.27999997,337451000,0.5129269957542419,0.0,0.516918420791626,0.5,-8.728421211242676,-8.770173072814941,-8.968220710754395,1.45,1.46,0.0,9,6
1678311959.38000011,337551000,0.5245472192764282,0.0,0.5138325095176697,0.5,-8.731236457824707,-8.77978801727295,-8.666560173034668,1.45,1.47,0.0,11,7
1678311959.48000002,337651000,0.5048816800117493,0.0,0.5101699829101562,0.5,-8.73380184173584,-8.778745651245117,-8.61659049987793,1.45,1.49,0.0,11,10
1678311959.57999992,337751000,0.4649643301963806,0.0,0.4906708300113678,0.5,-8.736273765563965,-8.764290809631348,-8.939127922058105,1.45,1.5,0.0,5,10
1678311959.68000007,337851000,0.47812217473983765,0.0,0.4795832335948944,0.5,-8.738877296447754,-8.758530616760254,-8.781118392944336,1.45,1.51,0.0,3,6
1678311959.77999997,337951000,0.5037134289741516,0.0,0.4885629713535309,0.5,-8.741811752319336,-8.75900650024414,-8.581562042236328,1.45,1.51,0.0,1,2
1678311959.88000011,338051000,0.47598105669021606,0.0,0.4871135950088501,0.5,-8.745269775390625,-8.752374649047852,-8.763577461242676,1.45,1.51,0.0,-1,1
1678311959.98000002,338151000,0.47064706683158875,0.0,0.4781414270401001,0.5,-8.749387741088867,-8.747572898864746,-8.644401550292969,1.45,1.52,0.0,-5,-1
1678311960.07999992,338251000,0.4774351716041565,0.0,0.47734081745147705,0.5,-8.754240989685059,-8.74347972869873,-8.859536170959473,1.45,1.5,0.0,-8,-4
1678311960.18000007,338351000,0.4991894066333771,0.0,0.4851279854774475,0.5,-8.759811401367188,-8.749334335327148,-8.846264839172363,1.45,1.51,0.0,-9,-8
1678311960.27999997,338451000,0.5061747431755066,0.0,0.49735477566719055,0.5,-8.766032218933105,-8.764159202575684,-8.632309913635254,1.45,1.5,0.0,-7,-9
1678311960.38000011,338551000,0.5084336996078491,0.0,0.5015937089920044,0.5,-8.772787094116211,-8.772653579711914,-8.799274444580078,1.45,1.49,0.0,-7,-8
1678311960.48000002,338651000,0.49133196473121643,0.0,0.499252051115036,0.5,-8.779886245727539,-8.779806137084961,-8.92650318145752,1.45,1.48,0.0,-7,-7
1678311960.57999992,338751000,0.5293609499931335,0.0,0.5047913193702698,0.5,-8.787088394165039,-8.794139862060547,-8.66218376159668,1.45,1.48,0.0,-5,-7
1678311960.68000007,338851000,0.4913195073604584,0.0,0.5068854689598083,0.5,-8.794252395629883,-8.801642417907715,-8.906146049499512,1.45,1.48,0.0,-4,-5
1678311960.77999997,338951000,0.5015230178833008,0.0,0.50264972448349,0.5,-8.801258087158203,-8.810571670532227,-8.756370544433594,1.45,1.48,0.0,-4,-4
1678311960.88000011,339051000,0.4826558232307434,0.0,0.5015947222709656,0.5,-8.808004379272461,-8.816791534423828,-8.650242805480957,1.45,1.47,0.0,-3,-4
1678311960.98000002,339151000,0.47151094675064087,0.0,0.491007924079895,0.5,-8.814414024353027,-8.81367301940918,-8.7675199508667,1.45,1.48,0.0,-6,-3
1678311961.07999992,339251000,0.47344428300857544,0.0,0.48011675477027893,0.5,-8.820464134216309,-8.809322357177734,-8.890376091003418,1.45,1.46,0.0,-9,-4
1678311961.18000007,339351000,0.49529096484184265,0.0,0.48417070508003235,0.5,-8.826122283935547,-8.813472747802734,-8.655951499938965,1.45,1.46,0.0,-9,-7
1678311961.27999997,339451000,0.4798038899898529,0.0,0.4884941577911377,0.5,-8.831313133239746,-8.814398765563965,-8.81609058380127,1.45,1.46,0.0,-10,-7
1678311961.38000011,339551000,0.4869295656681061,0.0,0.48635342717170715,0.5,-8.835999488830566,-8.816462516784668,-8.810709953308105,1.45,1.45,0.0,-10,-8
1678311961.48000002,339651000,0.4936055541038513,0.0,0.4908687472343445,0.5,-8.840113639831543,-8.821393966674805,-8.75905704498291,1.45,1.44,0.0,-9,-8
1678311961.57999992,339751000,0.49251314997673035,0.0,0.49389830231666565,0.5,-8.843524932861328,-8.824975967407227,-8.969110488891602,1.45,1.43,0.0,-8,-7
1678311961.68000007,339851000,0.5161635279655457,0.0,0.5018519759178162,0.5,-8.846124649047852,-8.83552074432373,-8.686114311218262,1.45,1.42,0.0,-5,-7
1678311961.77999997,339951000,0.496555358171463,0.0,0.5067152976989746,0.5,-8.847805976867676,-8.839085578918457,-8.718056678771973,1.45,1.42,0.0,-3,-4
1678311961.88000011,340051000,0.4819110631942749,0.0,0.4957236051559448,0.5,-8.848525047302246,-8.83381175994873,-8.961023330688477,1.45,1.41,0.0,-4,-2
1678311961.98000002,340151000,0.505984902381897,0.0,0.495681494474411,0.5,-8.84826946258545,-8.83509349822998,-8.703927993774414,1.45,1.42,0.0,-3,-2
1678311962.07999992,340251000,0.4906447231769562,0.0,0.4992120563983917,0.5,-8.847051620483398,-8.832782745361328,-9.013721466064453,1.45,1.41,0.0,-2,-1
1678311962.18000007,340351000,0.5191370248794556,0.0,0.5039145350456238,0.5,-8.844944953918457,-8.837794303894043,-8.924845695495605,1.45,1.41,0.0,0,-1
1678311962.27999997,340451000,0.5262145400047302,0.0,0.5173671841621399,0.5,-8.8419828414917,-8.84696102142334,-8.669700622558594,1.45,1.41,0.0,4,0
1678311962.38000011,340551000,0.4900909662246704,0.0,0.5121842622756958,0.5,-8.838210105895996,-8.843092918395996,-8.778624534606934,1.45,1.41,0.0,5,4
1678311962.48000002,340651000,0.48086169362068176,0.0,0.4944646954536438,0.5,-8.833661079406738,-8.831108093261719,-8.894996643066406,1.45,1.41,0.0,4,6
1678311962.57999992,340751000,0.4960496425628662,0.0,0.4905131757259369,0.5,-8.828433990478516,-8.822931289672852,-9.05255126953125,1.45,1.41,0.0,3,5
1678311962.68000007,340851000,0.5284499526023865,0.0,0.504952609539032,0.5,-8.822646141052246,-8.827655792236328,-8.890715599060059,1.45,1.42,0.0,7,4
1678311962.77999997,340951000,0.5251632928848267,0.0,0.5194674730300903,0.5,-8.816425323486328,-8.83414363861084,-8.854992866516113,1.45,1.43,0.0,11,6
1678311962.88000011,341051000,0.5123839378356934,0.0,0.5183089971542358,0.5,-8.809922218322754,-8.834732055664062,-8.827881813049316,1.45,1.44,0.0,14,10
1678311962.98000002,341151000,0.5013360977172852,0.0,0.5090514421463013,0.5,-8.803324699401855,-8.828566551208496,-9.012449264526367,1.45,1.45,0.0,14,12
1678311963.07999992,341251000,0.5185322761535645,0.0,0.5071258544921875,0.5,-8.79687213897705,-8.82681655883789,-8.627445220947266,1.45,1.47,0.0,15,12
1678311963.18000007,341351000,0.483453631401062,0.0,0.5012363195419312,0.5,-8.79082202911377,-8.813864707946777,-8.817163467407227,1.45,1.49,0.0,12,13
1678311963.27999997,341451000,0.47936058044433594,0.0,0.48393505811691284,0.5,-8.78544807434082,-8.798041343688965,-8.849081039428711,1.45,1.5,0.0,8,11
1678311963.38000011,341551000,0.4885074496269226,0.0,0.4811473786830902,0.5,-8.781061172485352,-8.788127899169922,-8.599241256713867,1.45,1.52,0.0,5,7
1678311963.48000002,341651000,0.46684423089027405,0.0,0.47676795721054077,0.5,-8.777926445007324,-8.773648262023926,-8.648370742797852,1.45,1.52,0.0,1,5
1678311963.57999992,341751000,0.4618256390094757,0.0,0.4665347635746002,0.5,-8.77622127532959,-8.757183074951172,-8.82627010345459,1.45,1.53,0.0,-4,1
1678311963.68000007,341851000,0.48379626870155334,0.0,0.4696277678012848,0.5,-8.776012420654297,-8.75183391571045,-8.869965553283691,1.45,1.52,0.0,-7,-4
1678311963.77999997,341951000,0.5060386061668396,0.0,0.48581191897392273,0.5,-8.777265548706055,-8.760165214538574,-8.813495635986328,1.45,1.52,0.0,-7,-8
1678311963.88000011,342051000,0.5124569535255432,0.0,0.5012732744216919,0.5,-8.779862403869629,-8.774054527282715,-8.808836936950684,1.45,1.51,0.0,-4,-8
1678311963.98000002,342151000,0.510962188243866,0.0,0.5072429776191711,0.5,-8.783617973327637,-8.78776741027832,-8.756274223327637,1.45,1.5,0.0,-3,-6
1678311964.07999992,342251000,0.49805328249931335,0.0,0.5049688220024109,0.5,-8.788309097290039,-8.796666145324707,-8.694695472717285,1.45,1.5,0.0,-2,-4
1678311964.18000007,342351000,0.4814178943634033,0.0,0.49440863728523254,0.5,-8.793712615966797,-8.79798698425293,-8.623414039611816,1.45,1.5,0.0,-4,-3
1678311964.27999997,342451000,0.4622575640678406,0.0,0.4791090488433838,0.5,-8.799652099609375,-8.791144371032715,-8.630614280700684,1.45,1.5,0.0,-8,-4
1678311964.38000011,342551000,0.4524182975292206,0.0,0.465149462223053,0.5,-8.806002616882324,-8.780815124511719,-8.771806716918945,1.45,1.49,0.0,-14,-7
1678311964.48000002,342651000,0.4639085829257965,0.0,0.4615418314933777,0.5,-8.812612533569336,-8.777847290039062,-8.92919635772705,1.45,1.49,0.0,-17,-11
1678311964.57999992,342751000,0.49770909547805786,0.0,0.47576943039894104,0.5,-8.819347381591797,-8.790417671203613,-8.812710762023926,1.45,1.47,0.0,-15,-15
1678311964.68000007,342851000,0.5079790949821472,0.0,0.49606314301490784,0.5,-8.825992584228516,-8.80842113494873,-8.795104026794434,1.45,1.45,0.0,-11,-14
1678311964.77999997,342951000,0.5056169033050537,0.0,0.5055812001228333,0.5,-8.832281112670898,-8.823714256286621,-8.669612884521484,1.45,1.44,0.0,-8,-11
1678311964.88000011,343051000,0.4839768409729004,0.0,0.5009586215019226,0.5,-8.837928771972656,-8.828347206115723,-8.714948654174805,1.45,1.42,0.0,-8,-7
1678311964.98000002,343151000,0.4736461639404297,0.0,0.48791664838790894,0.5,-8.842680931091309,-8.825456619262695,-8.92351245880127,1.45,1.42,0.0,-9,-6
1678311965.07999992,343251000,0.495012104511261,0.0,0.48725688457489014,0.5,-8.846338272094727,-8.828827857971191,-8.984406471252441,1.45,1.41,0.0,-8,-7
1678311965.18000007,343351000,0.522389829158783,0.0,0.5038759708404541,0.5,-8.848766326904297,-8.842060089111328,-8.826456069946289,1.45,1.3900000000000001,0.0,-3,-6
1678311965.27999997,343451000,0.5158957242965698,0.0,0.5167661905288696,0.5,-8.849841117858887,-8.852693557739258,-9.029882431030273,1.45,1.3900000000000001,0.0,0,-3
1678311965.38000011,343551000,0.5304226279258728,0.0,0.5225176811218262,0.5,-8.849489212036133,-8.865083694458008,-8.695221900939941,1.45,1.3900000000000001,0.0,5,0
1678311965.48000002,343651000,0.4947129487991333,0.0,0.5177069306373596,0.5,-8.847704887390137,-8.863896369934082,-8.867430686950684,1.45,1.3900000000000001,0.0,7,5
1678311965.57999992,343751000,0.490470826625824,0.0,0.5007873177528381,0.5,-8.844551086425781,-8.855682373046875,-8.98760986328125,1.45,1.4000000000000001,0.0,7,8
1678311965.68000007,343851000,0.5088692903518677,0.0,0.50030118227005,0.5,-8.840184211730957,-8.852324485778809,-8.752472877502441,1.45,1.41,0.0,8,7
1678311965.77999997,343951000,0.4929710924625397,0.0,0.5007006525993347,0.5,-8.834818840026855,-8.84398365020752,-8.878019332885742,1.45,1.42,0.0,8,9
1678311965.88000011,344051000,0.49579766392707825,0.0,0.4955470860004425,0.5,-8.828742027282715,-8.834831237792969,-8.995628356933594,1.45,1.43,0.0,8,8
1678311965.98000002,344151000,0.5154047012329102,0.0,0.5019496083259583,0.5,-8.822200775146484,-8.833280563354492,-8.783998489379883,1.45,1.43,0.0,10,8
1678311966.07999992,344251000,0.501857578754425,0.0,0.5055969953536987,0.5,-8.815406799316406,-8.828713417053223,-8.911456108093262,1.45,1.44,0.0,10,9
1678311966.18000007,344351000,0.5057772397994995,0.0,0.5031093955039978,0.5,-8.808614730834961,-8.824270248413086,-8.635110855102539,1.45,1.44,0.0,11,9
1678311966.27999997,344451000,0.4766079783439636,0.0,0.4939520061016083,0.5,-8.801985740661621,-8.80979061126709,-8.855224609375,1.45,1.47,0.0,8,10
1678311966.38000011,344551000,0.4841502904891968,0.0,0.48290759325027466,0.5,-8.79574203491211,-8.796403884887695,-8.908056259155273,1.45,1.47,0.0,6,8
1678311966.48000002,344651000,0.5038754940032959,0.0,0.4887341856956482,0.5,-8.790081977844238,-8.792044639587402,-8.783524513244629,1.45,1.48,0.0,5,5
1678311966.57999992,344751000,0.49926671385765076,0.0,0.4958186149597168,0.5,-8.785192489624023,-8.789579391479492,-8.72408676147461,1.45,1.49,0.0,5,4
1678311966.68000007,344851000,0.4878051280975342,0.0,0.49323272705078125,0.5,-8.781229972839355,-8.783571243286133,-8.932546615600586,1.45,1.5,0.0,4,4
1678311966.77999997,344951000,0.5069659948348999,0.0,0.494432270526886,0.5,-8.778265953063965,-8.784337043762207,-8.873184204101562,1.45,1.49,0.0,4,2
1678311966.88000011,345051000,0.5129029154777527,0.0,0.5029611587524414,0.5,-8.776333808898926,-8.790263175964355,-8.740675926208496,1.45,1.5,0.0,5,2
1678311966.98000002,345151000,0.49678707122802734,0.0,0.5021371245384216,0.5,-8.775481224060059,-8.79173469543457,-8.630517959594727,1.45,1.51,0.0,5,3
1678311967.07999992,345251000,0.4707814157009125,0.0,0.48774540424346924,0.5,-8.775744438171387,-8.783145904541016,-8.657430648803711,1.45,1.51,0.0,1,3
1678311967.18000007,345351000,0.4616072177886963,0.0,0.47186824679374695,0.5,-8.777119636535645,-8.76979923248291,-8.738579750061035,1.45,1.52,0.0,-4,1
1678311967.27999997,345451000,0.4693770408630371,0.0,0.46820199489593506,0.5,-8.779598236083984,-8.76113510131836,-8.64663314819336,1.45,1.52,0.0,-8,-3
1678311967.38000011,345551000,0.4668157696723938,0.0,0.46784070134162903,0.5,-8.783090591430664,-8.755304336547852,-8.661524772644043,1.45,1.5,0.0,-12,-7
1678311967.48000002,345651000,0.4625527262687683,0.0,0.466007262468338,0.5,-8.787471771240234,-8.752103805541992,-8.737910270690918,1.45,1.49,0.0,-15,-10
1678311967.57999992,345751000,0.47213253378868103,0.0,0.467854768037796,0.5,-8.792555809020996,-8.755110740661621,-8.731374740600586,1.45,1.48,0.0,-16,-13
1678311967.68000007,345851000,0.4784635305404663,0.0,0.47408172488212585,0.5,-8.798077583312988,-8.762945175170898,-8.731261253356934,1.45,1.46,0.0,-16,-15
1678311967.77999997,345951000,0.48260003328323364,0.0,0.4805079400539398,0.5,-8.803739547729492,-8.772594451904297,-8.941588401794434,1.45,1.45,0.0,-14,-14
1678311967.88000011,346051000,0.5107861757278442,0.0,0.4933181703090668,0.5,-8.809205055236816,-8.791049003601074,-8.900145530700684,1.45,1.42,0.0,-10,-14
1678311967.98000002,346151000,0.527179479598999,0.0,0.5136753916740417,0.5,-8.814107894897461,-8.8134765625,-8.751121520996094,1.45,1.41,0.0,-4,-10
1678311968.07999992,346251000,0.5112093091011047,0.0,0.5203736424446106,0.5,-8.818084716796875,-8.826873779296875,-8.943634986877441,1.45,1.41,0.0,0,-5
1678311968.18000007,346351000,0.5171042680740356,0.0,0.5171311497688293,0.5,-8.820895195007324,-8.83763313293457,-8.75850772857666,1.45,1.4000000000000001,0.0,2,0
1678311968.27999997,346451000,0.4984549283981323,0.0,0.5128914713859558,0.5,-8.82242488861084,-8.839730262756348,-8.737443923950195,1.45,1.4000000000000001,0.0,4,2
1678311968.38000011,346551000,0.4817824959754944,0.0,0.4989292323589325,0.5,-8.822612762451172,-8.831915855407715,-8.980466842651367,1.45,1.4000000000000001,0.0,3,5
1678311968.48000002,346651000,0.5050877928733826,0.0,0.49611979722976685,0.5,-8.821473121643066,-8.829439163208008,-8.82811450958252,1.45,1.41,0.0,4,4
1678311968.57999992,346751000,0.5036094784736633,0.0,0.5033296346664429,0.5,-8.819106101989746,-8.827999114990234,-8.856712341308594,1.45,1.41,0.0,5,5
1678311968.68000007,346851000,0.5039402842521667,0.0,0.5039210319519043,0.5,-8.815656661987305,-8.825535774230957,-8.72484016418457,1.45,1.41,0.0,6,6
1678311968.77999997,346951000,0.4877454936504364,0.0,0.4986802041530609,0.5,-8.811295509338379,-8.81651496887207,-8.856181144714355,1.45,1.42,0.0,6,7
1678311968.88000011,347051000,0.4931862950325012,0.0,0.4928462505340576,0.5,-8.806232452392578,-8.807923316955566,-9.030632972717285,1.45,1.43,0.0,5,7
1678311968.98000002,347151000,0.5236517190933228,0.0,0.5031529664993286,0.5,-8.800714492797852,-8.810525894165039,-8.781213760375977,1.45,1.43,0.0,8,5
1678311969.07999992,347251000,0.5100860595703125,0.0,0.5116400122642517,0.5,-8.794928550720215,-8.81103229522705,-8.672176361083984,1.45,1.44,0.0,10,7
1678311969.18000007,347351000,0.48308730125427246,0.0,0.5003963708877563,0.5,-8.789063453674316,-8.800127983093262,-8.623848915100098,1.45,1.45,0.0,9,9
1678311969.27999997,347451000,0.4616592228412628,0.0,0.4804210960865021,0.5,-8.783280372619629,-8.779277801513672,-8.954360961914062,1.45,1.46,0.0,4,9
1678311969.38000011,347551000,0.4970790147781372,0.0,0.47884401679039,0.5,-8.777754783630371,-8.769730567932129,-8.675540924072266,1.45,1.47,0.0,2,5
1678311969.48000002,347651000,0.49032706022262573,0.0,0.48870140314102173,0.5,-8.772629737854004,-8.762468338012695,-8.811452865600586,1.45,1.47,0.0,1,3
1678311969.57999992,347751000,0.49805381894111633,0.0,0.49104705452919006,0.5,-8.768036842346191,-8.758855819702148,-8.892056465148926,1.45,1.46,0.0,1,1
1678311969.68000007,347851000,0.5154104232788086,0.0,0.500938892364502,0.5,-8.764032363891602,-8.763222694396973,-8.933109283447266,1.45,1.46,0.0,3,0
1678311969.77999997,347951000,0.5296169519424438,0.0,0.5141857266426086,0.5,-8.760577201843262,-8.774547576904297,-8.966046333312988,1.45,1.46,0.0,7,1
1678311969.88000011,348051000,0.5358790159225464,0.0,0.5249075293540955,0.5,-8.757654190063477,-8.789719581604004,-8.62825870513916,1.45,1.47,0.0,12,4
1678311969.98000002,348151000,0.494701623916626,0.0,0.5170594453811646,0.5,-8.755256652832031,-8.789676666259766,-8.775900840759277,1.45,1.48,0.0,12,9
1678311970.07999992,348251000,0.48258623480796814,0.0,0.4956199824810028,0.5,-8.75341510772705,-8.780792236328125,-8.972566604614258,1.45,1.48,0.0,9,10
1678311970.18000007,348351000,0.5049756765365601,0.0,0.4919857978820801,0.5,-8.752218246459961,-8.779672622680664,-8.854073524475098,1.45,1.5,0.0,9,8
1678311970.27999997,348451000,0.5080206394195557,0.0,0.49990811944007874,0.5,-8.751787185668945,-8.78273868560791,-8.860560417175293,1.45,1.51,0.0,9,7
1678311970.38000011,348551000,0.5064605474472046,0.0,0.5024803876876831,0.5,-8.752270698547363,-8.786663055419922,-8.833011627197266,1.45,1.53,0.0,9,6
1678311970.48000002,348651000,0.5009371638298035,0.0,0.5007274150848389,0.5,-8.753829956054688,-8.78951358795166,-8.707348823547363,1.45,1.54,0.0,8,6
1678311970.57999992,348751000,0.4808533787727356,0.0,0.4916967749595642,0.5,-8.756620407104492,-8.785969734191895,-8.917213439941406,1.45,1.54,0.0,5,6
1678311970.68000007,348851000,0.4944780468940735,0.0,0.486183762550354,0.5,-8.760743141174316,-8.787246704101562,-8.735212326049805,1.45,1.56,0.0,3,3
1678311970.77999997,348951000,0.4854084253311157,0.0,0.48686137795448303,0.5,-8.766287803649902,-8.788281440734863,-8.662341117858887,1.45,1.57,0.0,0,1
1678311970.88000011,349051000,0.46939343214035034,0.0,0.47837531566619873,0.5,-8.773357391357422,-8.784233093261719,-8.518523216247559,1.45,1.57,0.0,-4,-1
1678311970.98000002,349151000,0.444230854511261,0.0,0.46308574080467224,0.5,-8.781994819641113,-8.771682739257812,-8.551374435424805,1.45,1.57,0.0,-12,-4
1678311971.07999992,349251000,0.43371450901031494,0.0,0.4456477761268616,0.5,-8.792131423950195,-8.757007598876953,-8.611369132995605,1.45,1.57,0.0,-21,-11
1678311971.18000007,349351000,0.42603427171707153,0.0,0.43795454502105713,0.5,-8.80368423461914,-8.749085426330566,-8.65223503112793,1.45,1.56,0.0,-28,-18
1678311971.27999997,349451000,0.4401099383831024,0.0,0.43806231021881104,0.5,-8.816503524780273,-8.751351356506348,-8.736651420593262,1.45,1.54,0.0,-32,-25
1678311971.38000011,349551000,0.45120102167129517,0.0,0.44317299127578735,0.5,-8.830260276794434,-8.765379905700684,-8.89547061920166,1.45,1.51,0.0,-33,-29
1678311971.48000002,349651000,0.48591938614845276,0.0,0.46168777346611023,0.5,-8.844493865966797,-8.793785095214844,-8.872543334960938,1.45,1.47,0.0,-29,-31
1678311971.57999992,349751000,0.5107402801513672,0.0,0.49039381742477417,0.5,-8.858630180358887,-8.828690528869629,-8.754475593566895,1.45,1.45,0.0,-22,-28
1678311971.68000007,349851000,0.5060526132583618,0.0,0.5074313282966614,0.5,-8.87206745147705,-8.856337547302246,-8.676290512084961,1.45,1.42,0.0,-17,-22
1678311971.77999997,349951000,0.4841306507587433,0.0,0.5037533044815063,0.5,-8.884237289428711,-8.869206428527832,-9.017048835754395,1.45,1.3900000000000001,0.0,-15,-16
1678311971.88000011,350051000,0.5084468722343445,0.0,0.5019680261611938,0.5,-8.894603729248047,-8.884747505187988,-8.768620491027832,1.45,1.3800000000000001,0.0,-12,-13
1678311971.98000002,350151000,0.4978366494178772,0.0,0.5083257555961609,0.5,-8.902750968933105,-8.894472122192383,-8.721116065979004,1.45,1.36,0.0,-9,-10
1678311972.07999992,350251000,0.48035284876823425,0.0,0.4999990463256836,0.5,-8.908424377441406,-8.892557144165039,-8.752191543579102,1.45,1.35,0.0,-9,-6
1678311972.18000007,350351000,0.4734936058521271,0.0,0.48852622509002686,0.5,-8.911468505859375,-8.883607864379883,-8.720915794372559,1.45,1.34,0.0,-10,-5
1678311972.27999997,350451000,0.4694220721721649,0.0,0.4814830422401428,0.5,-8.911789894104004,-8.870625495910645,-9.082740783691406,1.45,1.33,0.0,-11,-5
1678311972.38000011,350551000,0.5147424340248108,0.0,0.49124935269355774,0.5,-8.9093656539917,-8.872382164001465,-8.842283248901367,1.45,1.31,0.0,-7,-6
1678311972.48000002,350651000,0.520789384841919,0.0,0.5142402052879333,0.5,-8.904228210449219,-8.87714672088623,-8.800971031188965,1.45,1.31,0.0,-1,-4
1678311972.57999992,350751000,0.5113719701766968,0.0,0.5189731121063232,0.5,-8.896397590637207,-8.874706268310547,-8.85239028930664,1.45,1.29,0.0,2,0
1678311972.68000007,350851000,0.5056537985801697,0.0,0.5148670673370361,0.5,-8.885919570922852,-8.867012977600098,-8.932616233825684,1.45,1.3,0.0,6,5
1678311972.77999997,350951000,0.5172685980796814,0.0,0.5146669149398804,0.5,-8.872913360595703,-8.859549522399902,-9.164278030395508,1.45,1.3,0.0,10,8
1678311972.88000011,351051000,0.5539626479148865,0.0,0.5278142690658569,0.5,-8.857592582702637,-8.863154411315918,-8.949823379516602,1.45,1.3,0.0,18,11
1678311972.98000002,351151000,0.5501556396484375,0.0,0.543528139591217,0.5,-8.840228080749512,-8.86479377746582,-8.972905158996582,1.45,1.31,0.0,25,17
1678311973.07999992,351251000,0.5476774573326111,0.0,0.5468486547470093,0.5,-8.8211030960083,-8.859292030334473,-9.11550521850586,1.45,1.33,0.0,31,23
1678311973.18000007,351351000,0.5666049718856812,0.0,0.5525192022323608,0.5,-8.800588607788086,-8.85417366027832,-8.826125144958496,1.45,1.35,0.0,37,28
1678311973.27999997,351451000,0.5476259589195251,0.0,0.5542758703231812,0.5,-8.77917766571045,-8.837569236755371,-8.976130485534668,1.45,1.3800000000000001,0.0,39,33
1678311973.38000011,351551000,0.5457592010498047,0.0,0.5457835793495178,0.5,-8.75741195678711,-8.81641674041748,-8.810111999511719,1.45,1.42,0.0,39,35
1678311973.48000002,351651000,0.5276249051094055,0.0,0.5360766053199768,0.5,-8.735913276672363,-8.789422988891602,-8.850436210632324,1.45,1.46,0.0,37,35
1678311973.57999992,351751000,0.516799807548523,0.0,0.5210313200950623,0.5,-8.715351104736328,-8.761236190795898,-8.981230735778809,1.45,1.48,0.0,33,33
1678311973.68000007,351851000,0.5277526378631592,0.0,0.5156905651092529,0.5,-8.696385383605957,-8.742521286010742,-8.816309928894043,1.45,1.52,0.0,31,30
1678311973.77999997,351951000,0.522875964641571,0.0,0.5172794461250305,0.5,-8.679638862609863,-8.72727108001709,-8.656011581420898,1.45,1.56,0.0,29,27
1678311973.88000011,352051000,0.4958847761154175,0.0,0.5061507821083069,0.5,-8.665692329406738,-8.70645809173584,-8.69263744354248,1.45,1.58,0.0,24,24
1678311973.98000002,352151000,0.47734150290489197,0.0,0.4861341118812561,0.5,-8.65503215789795,-8.684511184692383,-8.54434585571289,1.45,1.62,0.0,17,20
1678311974.07999992,352251000,0.45288801193237305,0.0,0.4658270478248596,0.5,-8.648062705993652,-8.66051197052002,-8.586511611938477,1.45,1.6300000000000001,0.0,8,14
1678311974.18000007,352351000,0.44844773411750793,0.0,0.44993650913238525,0.5,-8.645096778869629,-8.640371322631836,-8.631946563720703,1.45,1.6500000000000001,0.0,0,6
1678311974.27999997,352451000,0.465146541595459,0.0,0.45097172260284424,0.5,-8.646292686462402,-8.630865097045898,-8.705850601196289,1.45,1.6600000000000001,0.0,-7,-2
1678311974.38000011,352551000,0.48153945803642273,0.0,0.4634338617324829,0.5,-8.651660919189453,-8.635893821716309,-8.420184135437012,1.45,1.6400000000000001,0.0,-12,-10
1678311974.48000002,352651000,0.4560825824737549,0.0,0.4655066728591919,0.5,-8.660962104797363,-8.639476776123047,-8.759873390197754,1.45,1.6400000000000001,0.0,-17,-14
1678311974.57999992,352751000,0.4743441939353943,0.0,0.4622889757156372,0.5,-8.673772811889648,-8.65340805053711,-8.762539863586426,1.45,1.62,0.0,-20,-19
1678311974.68000007,352851000,0.4914461374282837,0.0,0.47420817613601685,0.5,-8.689552307128906,-8.679277420043945,-8.62273120880127,1.45,1.59,0.0,-20,-22
1678311974.77999997,352951000,0.4830211400985718,0.0,0.4830513000488281,0.5,-8.70767593383789,-8.704469680786133,-8.860136032104492,1.45,1.58,0.0,-20,-21
1678311974.88000011,353051000,0.5020850300788879,0.0,0.4894578456878662,0.5,-8.727489471435547,-8.734869956970215,-8.843345642089844,1.45,1.56,0.0,-18,-21
1678311974.98000002,353151000,0.51345294713974,0.0,0.5022902488708496,0.5,-8.748343467712402,-8.768655776977539,-8.757144927978516,1.45,1.53,0.0,-15,-19
1678311975.07999992,353251000,0.5051305294036865,0.0,0.5084746479988098,0.5,-8.769643783569336,-8.796850204467773,-8.55047607421875,1.45,1.53,0.0,-13,-16
1678311975.18000007,353351000,0.46677258610725403,0.0,0.49450933933258057,0.5,-8.790871620178223,-8.808053016662598,-8.651691436767578,1.45,1.52,0.0,-15,-13
1678311975.27999997,353451000,0.45151054859161377,0.0,0.47166308760643005,0.5,-8.811661720275879,-8.80990982055664,-8.555152893066406,1.45,1.51,0.0,-21,-14
1678311975.38000011,353551000,0.4312428832054138,0.0,0.4539524018764496,0.5,-8.831730842590332,-8.805706024169922,-8.764530181884766,1.45,1.5,0.0,-27,-17
1678311975.48000002,353651000,0.44333457946777344,0.0,0.44542765617370605,0.5,-8.850854873657227,-8.808599472045898,-8.693519592285156,1.45,1.47,0.0,-31,-22
1678311975.57999992,353751000,0.4465963840484619,0.0,0.44936102628707886,0.5,-8.868762016296387,-8.817553520202637,-8.984294891357422,1.45,1.45,0.0,-32,-25
1678311975.68000007,353851000,0.48601487278938293,0.0,0.46441972255706787,0.5,-8.885154724121094,-8.84144115447998,-8.922786712646484,1.45,1.42,0.0,-28,-27
1678311975.77999997,353951000,0.5146201848983765,0.0,0.49395525455474854,0.5,-8.8997163772583,-8.873117446899414,-8.854096412658691,1.45,1.3900000000000001,0.0,-21,-25
1678311975.88000011,354051000,0.5187639594078064,0.0,0.5152063965797424,0.5,-8.912079811096191,-8.90011215209961,-8.992471694946289,1.45,1.3800000000000001,0.0,-14,-19
1678311975.98000002,354151000,0.5291123986244202,0.0,0.5248878598213196,0.5,-8.92190933227539,-8.92377758026123,-8.857681274414062,1.45,1.36,0.0,-7,-13
1678311976.07999992,354251000,0.5155550241470337,0.0,0.5272029638290405,0.5,-8.929001808166504,-8.937201499938965,-8.981477737426758,1.45,1.35,0.0,-3,-6
1678311976.18000007,354351000,0.5137385725975037,0.0,0.5209923982620239,0.5,-8.933209419250488,-8.9446382522583,-8.994553565979004,1.45,1.35,0.0,0,-1
1678311976.27999997,354451000,0.5145704746246338,0.0,0.5188451409339905,0.5,-8.934518814086914,-8.94906234741211,-8.898710250854492,1.45,1.35,0.0,4,2
1678311976.38000011,354551000,0.5017123818397522,0.0,0.513763964176178,0.5,-8.9330472946167,-8.946253776550293,-8.811269760131836,1.45,1.36,0.0,6,6
1678311976.48000002,354651000,0.4841284155845642,0.0,0.5020726919174194,0.5,-8.929059982299805,-8.93305492401123,-8.80388069152832,1.45,1.36,0.0,6,8
1678311976.57999992,354751000,0.47439587116241455,0.0,0.48873767256736755,0.5,-8.922893524169922,-8.912951469421387,-8.718985557556152,1.45,1.37,0.0,4,9
1678311976.68000007,354851000,0.46248501539230347,0.0,0.47693702578544617,0.5,-8.914883613586426,-8.887393951416016,-8.805647850036621,1.45,1.3800000000000001,0.0,0,7
1678311976.77999997,354951000,0.4730735123157501,0.0,0.47256770730018616,0.5,-8.90542984008789,-8.864410400390625,-8.720005989074707,1.45,1.3800000000000001,0.0,-2,4
1678311976.88000011,355051000,0.4746200144290924,0.0,0.47648873925209045,0.5,-8.894857406616211,-8.843710899353027,-8.875823974609375,1.45,1.3800000000000001,0.0,-4,1
1678311976.98000002,355151000,0.49551922082901,0.0,0.4842998683452606,0.5,-8.883406639099121,-8.831857681274414,-8.972739219665527,1.45,1.37,0.0,-3,-1
1678311977.07999992,355251000,0.5241429209709167,0.0,0.5035543441772461,0.5,-8.871225357055664,-8.832508087158203,-8.709015846252441,1.45,1.37,0.0,0,-2
1678311977.18000007,355351000,0.5081729888916016,0.0,0.5145097970962524,0.5,-8.858370780944824,-8.828794479370117,-8.756129264831543,1.45,1.37,0.0,4,1
1678311977.27999997,355451000,0.4979187846183777,0.0,0.5076574683189392,0.5,-8.844866752624512,-8.818219184875488,-8.799099922180176,1.45,1.35,0.0,5,4
1678311977.38000011,355551000,0.498090922832489,0.0,0.501914918422699,0.5,-8.830704689025879,-8.805670738220215,-8.903940200805664,1.45,1.35,0.0,6,6
1678311977.48000002,355651000,0.5141186118125916,0.0,0.5053490996360779,0.5,-8.815861701965332,-8.797813415527344,-8.901505470275879,1.45,1.37,0.0,9,7
1678311977.57999992,355751000,0.5226401686668396,0.0,0.5143722891807556,0.5,-8.800409317016602,-8.79407787322998,-8.866693496704102,1.45,1.36,0.0,13,9
1678311977.68000007,355851000,0.5224828720092773,0.0,0.5195531249046326,0.5,-8.784440040588379,-8.789877891540527,-8.888075828552246,1.45,1.37,0.0,17,13
1678311977.77999997,355951000,0.5242172479629517,0.0,0.5209349989891052,0.5,-8.76806926727295,-8.78417682647705,-8.684718132019043,1.45,1.3800000000000001,0.0,21,16
1678311977.88000011,356051000,0.5012817978858948,0.0,0.5141541957855225,0.5,-8.751446723937988,-8.76809024810791,-9.021506309509277,1.45,1.4000000000000001,0.0,21,19
1678311977.98000002,356151000,0.5251890420913696,0.0,0.5108065605163574,0.5,-8.734813690185547,-8.757925033569336,-8.761012077331543,1.45,1.42,0.0,23,20
1678311978.07999992,356251000,0.5162625908851624,0.0,0.5153330564498901,0.5,-8.718461036682129,-8.74616527557373,-8.715322494506836,1.45,1.44,0.0,24,21
1678311978.18000007,356351000,0.4999913275241852,0.0,0.5074845552444458,0.5,-8.70272159576416,-8.727972030639648,-8.7433500289917,1.45,1.45,0.0,22,22
1678311978.27999997,356451000,0.4933091402053833,0.0,0.4966055750846863,0.5,-8.687919616699219,-8.708002090454102,-8.922783851623535,1.45,1.47,0.0,20,21
1678311978.38000011,356551000,0.5147187113761902,0.0,0.49739766120910645,0.5,-8.674352645874023,-8.697903633117676,-8.68505859375,1.45,1.49,0.0,19,18
1678311978.48000002,356651000,0.5029024481773376,0.0,0.5015953779220581,0.5,-8.662290573120117,-8.687874794006348,-8.604369163513184,1.45,1.5,0.0,18,17
1678311978.57999992,356751000,0.4819013178348541,0.0,0.49175310134887695,0.5,-8.652005195617676,-8.671608924865723,-8.670557022094727,1.45,1.52,0.0,15,16
1678311978.68000007,356851000,0.4772610068321228,0.0,0.47924506664276123,0.5,-8.643702507019043,-8.655383110046387,-8.912847518920898,1.45,1.53,0.0,10,13
1678311978.77999997,356951000,0.5104941725730896,0.0,0.4850735664367676,0.5,-8.637558937072754,-8.653989791870117,-8.87462329864502,1.45,1.54,0.0,9,8
1678311978.88000011,357051000,0.5287047028541565,0.0,0.5053603053092957,0.5,-8.633670806884766,-8.664997100830078,-8.77377986907959,1.45,1.55,0.0,12,6
1678311978.98000002,357151000,0.5227116346359253,0.0,0.5152041912078857,0.5,-8.632043838500977,-8.6769380569458,-8.859051704406738,1.45,1.55,0.0,13,7
1678311979.07999992,357251000,0.5243814587593079,0.0,0.5160090327262878,0.5,-8.63263988494873,-8.689358711242676,-8.74964427947998,1.45,1.56,0.0,15,8
1678311979.18000007,357351000,0.5099948644638062,0.0,0.5124320387840271,0.5,-8.635406494140625,-8.697344779968262,-8.77880573272705,1.45,1.58,0.0,14,10
1678311979.27999997,357451000,0.5019751787185669,0.0,0.5034797787666321,0.5,-8.640323638916016,-8.702020645141602,-8.716071128845215,1.45,1.59,0.0,12,10
1678311979.38000011,357551000,0.4879283010959625,0.0,0.4928447902202606,0.5,-8.647407531738281,-8.703385353088379,-8.4649019241333,1.45,1.61,0.0,8,8
1678311979.48000002,357651000,0.4492493271827698,0.0,0.47308269143104553,0.5,-8.656742095947266,-8.692795753479004,-8.731142044067383,1.45,1.62,0.0,0,5
1678311979.57999992,357751000,0.46205905079841614,0.0,0.45715993642807007,0.5,-8.668376922607422,-8.686513900756836,-8.71260929107666,1.45,1.6300000000000001,0.0,-7,-1
1678311979.68000007,357851000,0.4765256345272064,0.0,0.4639740288257599,0.5,-8.682308197021484,-8.690608978271484,-8.715995788574219,1.45,1.6300000000000001,0.0,-12,-8
1678311979.77999997,357951000,0.48396265506744385,0.0,0.4728868901729584,0.5,-8.698487281799316,-8.703228950500488,-8.565057754516602,1.45,1.62,0.0,-15,-13
1678311979.88000011,358051000,0.4674936830997467,0.0,0.4732213020324707,0.5,-8.71673583984375,-8.71459674835205,-8.54314136505127,1.45,1.61,0.0,-19,-16
1678311979.98000002,358151000,0.44907325506210327,0.0,0.462403267621994,0.5,-8.736786842346191,-8.722076416015625,-8.669598579406738,1.45,1.6,0.0,-25,-19
1678311980.07999992,358251000,0.44947704672813416,0.0,0.45315518975257874,0.5,-8.758322715759277,-8.733504295349121,-8.55313777923584,1.45,1.59,0.0,-29,-24
1678311980.18000007,358351000,0.4368247389793396,0.0,0.4480420649051666,0.5,-8.780981063842773,-8.74538803100586,-8.787501335144043,1.45,1.55,0.0,-33,-27
1678311980.27999997,358451000,0.453216552734375,0.0,0.4471810460090637,0.5,-8.804265022277832,-8.76628589630127,-8.604262351989746,1.45,1.53,0.0,-34,-30
1678311980.38000011,358551000,0.4476398527622223,0.0,0.45270204544067383,0.5,-8.827615737915039,-8.787353515625,-8.89702320098877,1.45,1.5,0.0,-35,-31
1678311980.48000002,358651000,0.4735829532146454,0.0,0.46056243777275085,0.5,-8.850464820861816,-8.816511154174805,-8.686634063720703,1.45,1.47,0.0,-32,-32
1678311980.57999992,358751000,0.4728792607784271,0.0,0.4747523069381714,0.5,-8.872234344482422,-8.842974662780762,-8.818724632263184,1.45,1.43,0.0,-29,-29
1678311980.68000007,358851000,0.480715274810791,0.0,0.4816432297229767,0.5,-8.892339706420898,-8.86681842803955,-8.921600341796875,1.45,1.41,0.0,-26,-26
1678311980.77999997,358951000,0.500211775302887,0.0,0.49295714497566223,0.5,-8.910252571105957,-8.892328262329102,-8.815496444702148,1.45,1.3900000000000001,0.0,-22,-23
1678311980.88000011,359051000,0.5004464983940125,0.0,0.5039380788803101,0.5,-8.925570487976074,-8.912453651428223,-8.685309410095215,1.45,1.37,0.0,-17,-19
1678311980.98000002,359151000,0.4782029986381531,0.0,0.4992827773094177,0.5,-8.937969207763672,-8.918663024902344,-9.040087699890137,1.45,1.36,0.0,-16,-14
1678311981.07999992,359251000,0.5039319396018982,0.0,0.49796631932258606,0.5,-8.947258949279785,-8.928229331970215,-9.043746948242188,1.45,1.34,0.0,-13,-12
1678311981.18000007,359351000,0.5275993943214417,0.0,0.5148395299911499,0.5,-8.953291893005371,-8.94415283203125,-9.105578422546387,1.45,1.33,0.0,-7,-10
1678311981.27999997,359451000,0.5446178913116455,0.0,0.5334745049476624,0.5,-8.956046104431152,-8.963401794433594,-8.84292221069336,1.45,1.32,0.0,1,-5
1678311981.38000011,359551000,0.5132745504379272,0.0,0.5341379046440125,0.5,-8.955572128295898,-8.96938419342041,-8.800740242004395,1.45,1.32,0.0,6,2
1678311981.48000002,359651000,0.4865404963493347,0.0,0.5137145519256592,0.5,-8.951982498168945,-8.958075523376465,-9.126997947692871,1.45,1.33,0.0,6,8
1678311981.57999992,359751000,0.5109143257141113,0.0,0.5046097636222839,0.5,-8.945514678955078,-8.95004940032959,-8.992809295654297,1.45,1.34,0.0,9,9
1678311981.68000007,359851000,0.5172861814498901,0.0,0.5131281614303589,0.5,-8.936561584472656,-8.944258689880371,-9.047839164733887,1.45,1.35,0.0,12,10
1678311981.77999997,359951000,0.5257918834686279,0.0,0.5197069644927979,0.5,-8.925525665283203,-8.939616203308105,-9.016127586364746,1.45,1.36,0.0,16,13
1678311981.88000011,360051000,0.5291876196861267,0.0,0.5249471664428711,0.5,-8.912833213806152,-8.933878898620605,-9.085280418395996,1.45,1.3800000000000001,0.0,19,15
1678311981.98000002,360151000,0.5399132966995239,0.0,0.5295674204826355,0.5,-8.898962020874023,-8.929083824157715,-8.704665184020996,1.45,1.4000000000000001,0.0,23,18
1678311982.07999992,360251000,0.501356840133667,0.0,0.5222799777984619,0.5,-8.884427070617676,-8.908777236938477,-8.99654769897461,1.45,1.41,0.0,22,21
1678311982.18000007,360351000,0.5026060342788696,0.0,0.5049999356269836,0.5,-8.869723320007324,-8.887215614318848,-8.740198135375977,1.45,1.45,0.0,19,20
1678311982.27999997,360451000,0.4817161560058594,0.0,0.49384215474128723,0.5,-8.855384826660156,-8.861344337463379,-8.845257759094238,1.45,1.47,0.0,15,19
1678311982.38000011,360551000,0.47939369082450867,0.0,0.48137494921684265,0.5,-8.841935157775879,-8.837197303771973,-8.576061248779297,1.45,1.49,0.0,11,15
1678311982.48000002,360651000,0.45366254448890686,0.0,0.4692939519882202,0.5,-8.829817771911621,-8.807806968688965,-8.948424339294434,1.45,1.5,0.0,4,11
1678311982.57999992,360751000,0.48653098940849304,0.0,0.4660683572292328,0.5,-8.819350242614746,-8.791597366333008,-8.78862476348877,1.45,1.52,0.0,1,4
1678311982.68000007,360851000,0.49762162566185,0.0,0.48229947686195374,0.5,-8.810781478881836,-8.785547256469727,-8.659405708312988,1.45,1.52,0.0,0,0
1678311982.77999997,360951000,0.4842018485069275,0.0,0.48610013723373413,0.5,-8.804237365722656,-8.778518676757812,-8.719782829284668,1.45,1.53,0.0,-2,-1
1678311982.88000011,361051000,0.48113372921943665,0.0,0.48188337683677673,0.5,-8.799750328063965,-8.771995544433594,-8.655256271362305,1.45,1.52,0.0,-4,-3
1678311982.98000002,361151000,0.4731507897377014,0.0,0.47784897685050964,0.5,-8.79724407196045,-8.765259742736816,-8.870574951171875,1.45,1.51,0.0,-8,-5
1678311983.07999992,361251000,0.49486038088798523,0.0,0.4812560975551605,0.5,-8.796533584594727,-8.768269538879395,-8.633769035339355,1.45,1.51,0.0,-8,-8
1678311983.18000007,361351000,0.4832739233970642,0.0,0.4859172999858856,0.5,-8.797330856323242,-8.770550727844238,-8.606666564941406,1.45,1.5,0.0,-9,-9
1678311983.27999997,361451000,0.46593910455703735,0.0,0.4787609875202179,0.5,-8.799396514892578,-8.76732349395752,-8.600049018859863,1.45,1.49,0.0,-12,-9
1678311983.38000011,361551000,0.45606356859207153,0.0,0.4680199921131134,0.5,-8.802406311035156,-8.760683059692383,-8.795570373535156,1.45,1.47,0.0,-15,-10
1678311983.48000002,361651000,0.47260379791259766,0.0,0.46600425243377686,0.5,-8.805971145629883,-8.762022972106934,-8.703469276428223,1.45,1.45,0.0,-16,-13
1678311983.57999992,361751000,0.47795701026916504,0.0,0.4749003052711487,0.5,-8.809696197509766,-8.767810821533203,-8.956007957458496,1.45,1.41,0.0,-16,-14
1678311983.68000007,361851000,0.5125067830085754,0.0,0.4917636215686798,0.5,-8.81310749053955,-8.784710884094238,-8.80394172668457,1.45,1.37,0.0,-11,-14
1678311983.77999997,361951000,0.5225551128387451,0.0,0.5148318409919739,0.5,-8.815590858459473,-8.802456855773926,-8.7374906539917,1.45,1.34,0.0,-5,-10
1678311983.88000011,362051000,0.5124486088752747,0.0,0.5217389464378357,0.5,-8.816457748413086,-8.81114673614502,-8.758223533630371,1.45,1.3,0.0,-1,-4
1678311983.98000002,362151000,0.5041102766990662,0.0,0.517956018447876,0.5,-8.815031051635742,-8.810734748840332,-8.928586959838867,1.45,1.26,0.0,1,0
1678311984.07999992,362251000,0.5195688605308533,0.0,0.5188279151916504,0.5,-8.810673713684082,-8.810800552368164,-8.82142448425293,1.45,1.23,0.0,6,4
1678311984.18000007,362351000,0.5181674361228943,0.0,0.5245490074157715,0.5,-8.802876472473145,-8.807422637939453,-8.898494720458984,1.45,1.2,0.0,11,9
1678311984.27999997,362451000,0.5271878242492676,0.0,0.5286857485771179,0.5,-8.791240692138672,-8.801392555236816,-8.996133804321289,1.45,1.19,0.0,16,14
