timestamp,TimeUS,ThI,ABst,ThO,ThH,DAlt,Alt,BAlt,DSAlt,SAlt,TAlt,DCRt,CRt
1705603234.30004025,8368318,0.21768760681152344,0.0,0.0845271497964859,0.5,-0.15070049464702606,-0.06907577067613602,-0.08447305113077164,-0.01,0.0,0.0,-27,-3
1705603234.40000010,8468278,-0.08347058296203613,0.0,0.005064861383289099,0.5,-0.15342290699481964,-0.07644706219434738,-0.09631696343421936,-0.01,0.0,0.0,-25,-3
1705603234.49996018,8568238,-0.20639526844024658,0.0,0.0,0.5,-0.15612640976905823,-0.08364542573690414,-0.10625478625297546,-0.01,0.0,0.0,-25,-3
1705603234.59992027,8668198,-0.5421977043151855,0.0,0.0,0.5,-0.1637931615114212,-0.09100206941366196,-0.1075422540307045,-0.01,0.0,0.0,-34,-3
1705603234.69988012,8768158,-0.8290868997573853,0.0,0.0,0.5,-0.18300750851631165,-0.09819792211055756,-0.1179918721318245,-0.01,0.0,0.0,-50,-3
1705603234.79984021,8868118,-0.4212843179702759,0.0,0.0,0.5,-0.20854005217552185,-0.10651583224534988,-0.10903778672218323,-0.01,0.0,0.0,-65,-17
1705603234.89980006,8968078,0.25417453050613403,0.0,0.12398173660039902,0.5,-0.2435292750597,-0.1522863507270813,-0.1483147293329239,-0.01,0.0,0.0,-70,-57
1705603234.99976015,9068038,0.24380207061767578,0.0,0.18209552764892578,0.5,-0.2906939387321472,-0.21974804997444153,-0.21233578026294708,-0.01,0.0,0.0,-72,-69
1705603235.09972024,9167998,0.2130567729473114,0.0,0.19660302996635437,0.5,-0.3453320264816284,-0.294184148311615,-0.2912811040878296,-0.01,0.0,0.0,-73,-72
1705603235.19968009,9267958,0.2009953260421753,0.0,0.19813260436058044,0.5,-0.40633687376976013,-0.3713741898536682,-0.37042489647865295,-0.01,0.0,0.0,-74,-73
1705603235.29964018,9367918,0.19614768028259277,0.0,0.19598302245140076,0.5,-0.4727659225463867,-0.45040175318717957,-0.4301506578922272,-0.01,0.0,0.0,-75,-74
1705603235.39960027,9467878,0.18840840458869934,0.0,0.19198064506053925,0.5,-0.5438158512115479,-0.5301909446716309,-0.5102527141571045,-0.01,0.0,0.0,-77,-75
1705603235.49956012,9567838,0.18160590529441833,0.0,0.18617942929267883,0.5,-0.6188023686408997,-0.6106226444244385,-0.6012093424797058,-0.01,0.0,0.0,-79,-76
1705603235.59952021,9667798,0.17544320225715637,0.0,0.17991936206817627,0.5,-0.6971426606178284,-0.6927604675292969,-0.672268807888031,-0.01,0.0,0.0,-81,-78
1705603235.69948006,9767758,0.17030903697013855,0.0,0.1743909865617752,0.5,-0.7783401608467102,-0.7766112089157104,-0.7385777831077576,-0.01,0.0,0.0,-83,-80
1705603235.79944015,9867718,0.16316160559654236,0.0,0.16871434450149536,0.5,-0.8619714379310608,-0.8612404465675354,-0.8336240649223328,-0.01,0.0,0.0,-84,-81
1705603235.89940023,9967678,0.15758183598518372,0.0,0.16241097450256348,0.5,-0.947676420211792,-0.947079598903656,-0.911531388759613,-0.01,0.0,0.0,-86,-83
1705603235.99936008,10067638,0.1523818075656891,0.0,0.15670663118362427,0.5,-1.0351479053497314,-1.0343356132507324,-0.9949673414230347,-0.01,0.0,0.0,-88,-85
1705603236.09932017,10167598,0.1479610800743103,0.0,0.15189331769943237,0.5,-1.1241246461868286,-1.1227599382400513,-1.0811415910720825,-0.01,0.0,0.0,-90,-86
1705603236.19928026,10267558,0.1436806619167328,0.0,0.14690828323364258,0.5,-1.2143834829330444,-1.2122703790664673,-1.1582812070846558,-0.01,0.0,0.0,-91,-88
1705603236.29924011,10367518,0.13791009783744812,0.0,0.1421540081501007,0.5,-1.3057342767715454,-1.3024386167526245,-1.2392793893814087,-0.01,0.0,0.0,-92,-89
1705603236.40003324,10468311,0.13228115439414978,0.0,0.13690073788166046,0.5,-1.3987884521484375,-1.39362633228302,-1.328912615776062,-0.01,0.0,0.0,-94,-90
1705603236.49999309,10568271,0.12580496072769165,0.0,0.13090960681438446,0.5,-1.4918692111968994,-1.4837801456451416,-1.43026864528656,-0.01,0.0,0.0,-95,-92
1705603236.59995317,10668231,0.12243562936782837,0.0,0.1259622424840927,0.5,-1.585624098777771,-1.5760701894760132,-1.5194244384765625,-0.01,0.0,0.0,-96,-93
1705603236.69991326,10768191,0.12051516771316528,0.0,0.12266763299703598,0.5,-1.6799535751342773,-1.6697919368743896,-1.6051857471466064,-0.01,0.0,0.0,-97,-94
1705603236.79987311,10868151,0.11710882186889648,0.0,0.12017375975847244,0.5,-1.7747725248336792,-1.7642606496810913,-1.6879758834838867,-0.01,0.0,0.0,-98,-95
1705603236.89983320,10968111,0.11516740918159485,0.0,0.11814866960048676,0.5,-1.8700087070465088,-1.8595210313796997,-1.7849059104919434,-0.01,0.0,0.0,-98,-96
1705603236.99979305,11068071,0.10886943340301514,0.0,0.11418415606021881,0.5,-1.9656000137329102,-1.953971028327942,-1.9016988277435303,-0.01,0.0,0.0,-99,-96
1705603237.09975314,11168031,0.1105203628540039,0.0,0.11144888401031494,0.5,-2.0614941120147705,-2.0496623516082764,-1.9793685674667358,-0.01,0.0,0.0,-99,-97
1705603237.19971323,11267991,0.10701847076416016,0.0,0.10989652574062347,0.5,-2.1576449871063232,-2.1461081504821777,-2.083216667175293,-0.01,0.0,0.0,-99,-98
1705603237.29967308,11367951,0.1110009253025055,0.0,0.1088147684931755,0.5,-2.254016399383545,-2.2429511547088623,-2.1784143447875977,-0.01,0.0,0.0,-99,-98
1705603237.39963317,11467911,0.10904690623283386,0.0,0.10912875086069107,0.5,-2.3505754470825195,-2.340169668197632,-2.269883632659912,-0.01,0.0,0.0,-99,-98
1705603237.49959326,11567871,0.1074100136756897,0.0,0.10821495205163956,0.5,-2.447293281555176,-2.4373483657836914,-2.368730068206787,-0.01,0.0,0.0,-99,-98
1705603237.59955311,11667831,0.10360297560691833,0.0,0.10755394399166107,0.5,-2.5441465377807617,-2.53446626663208,-2.457538366317749,-0.01,0.0,0.0,-99,-98
1705603237.69951320,11767791,0.10547015070915222,0.0,0.10563995689153671,0.5,-2.641115665435791,-2.6312897205352783,-2.5693318843841553,-0.01,0.0,0.0,-100,-98
1705603237.79947305,11867751,0.10504347085952759,0.0,0.10478256642818451,0.5,-2.7381834983825684,-2.728482961654663,-2.6658873558044434,-0.01,0.0,0.0,-100,-99
1705603237.89943314,11967711,0.10330507159233093,0.0,0.10369649529457092,0.5,-2.835336208343506,-2.8263046741485596,-2.757188320159912,-0.01,0.0,0.0,-99,-99
1705603237.99939322,12067671,0.10501596331596375,0.0,0.10387374460697174,0.5,-2.9325602054595947,-2.92421555519104,-2.8580827713012695,-0.01,0.0,0.0,-99,-99
1705603238.09935308,12167631,0.10453939437866211,0.0,0.10448546707630157,0.5,-3.0298449993133545,-3.022092819213867,-2.964508056640625,-0.01,0.0,0.0,-99,-99
1705603238.19931316,12267591,0.10476741194725037,0.0,0.10482212901115417,0.5,-3.127181053161621,-3.120278835296631,-3.0535402297973633,-0.01,0.0,0.0,-99,-99
1705603238.29927325,12367551,0.10586309432983398,0.0,0.10518300533294678,0.5,-3.2245616912841797,-3.21846866607666,-3.1563098430633545,-0.01,0.0,0.0,-99,-99
1705603238.39923310,12467511,0.10450103878974915,0.0,0.10551179945468903,0.5,-3.3219802379608154,-3.3166072368621826,-3.246100902557373,-0.01,0.0,0.0,-99,-98
1705603238.50002623,12568304,0.10567042231559753,0.0,0.1057145893573761,0.5,-3.42024302482605,-3.4143147468566895,-3.3488545417785645,-0.01,0.0,0.0,-99,-98
1705603238.59998608,12668264,0.10290542244911194,0.0,0.10528266429901123,0.5,-3.517720937728882,-3.511993408203125,-3.4453628063201904,-0.01,0.0,0.0,-99,-98
1705603238.69994617,12768224,0.10461905598640442,0.0,0.10436644405126572,0.5,-3.615222692489624,-3.609733819961548,-3.551051616668701,-0.01,0.0,0.0,-99,-98
1705603238.79990625,12868184,0.10884058475494385,0.0,0.10508605092763901,0.5,-3.7127437591552734,-3.7078747749328613,-3.65484619140625,-0.01,0.0,0.0,-99,-98
1705603238.89986610,12968144,0.10726451873779297,0.0,0.10650825500488281,0.5,-3.8102827072143555,-3.8065855503082275,-3.7557692527770996,-0.01,0.0,0.0,-98,-98
1705603238.99982619,13068104,0.10649985074996948,0.0,0.10774968564510345,0.5,-3.907835006713867,-3.9065093994140625,-3.8365137577056885,-0.01,0.0,0.0,-97,-98
1705603239.09978628,13168064,0.10915935039520264,0.0,0.10935249924659729,0.5,-4.00540018081665,-4.004953861236572,-3.9360547065734863,-0.01,0.0,0.0,-97,-98
1705603239.19974613,13268024,0.10986554622650146,0.0,0.10936036705970764,0.5,-4.102974891662598,-4.102694988250732,-4.035189151763916,-0.01,0.0,0.0,-97,-97
1705603239.29970622,13367984,0.11085614562034607,0.0,0.10943249613046646,0.5,-4.200557708740234,-4.200080394744873,-4.130695819854736,-0.01,0.0,0.0,-97,-97
1705603239.39966607,13467944,0.1077130138874054,0.0,0.10916726291179657,0.5,-4.29815149307251,-4.2972564697265625,-4.219224452972412,-0.01,0.0,0.0,-97,-97
1705603239.49962616,13567904,0.1059424877166748,0.0,0.10763361304998398,0.5,-4.39574670791626,-4.393922805786133,-4.33546781539917,-0.01,0.0,0.0,-98,-97
1705603239.59958625,13667864,0.10866531729698181,0.0,0.10702358186244965,0.5,-4.493353366851807,-4.491150379180908,-4.433159351348877,-0.01,0.0,0.0,-98,-98
1705603239.69954610,13767824,0.10929089784622192,0.0,0.10752959549427032,0.5,-4.59096097946167,-4.58912992477417,-4.518232822418213,-0.01,0.0,0.0,-98,-98
1705603239.79950619,13867784,0.10327985882759094,0.0,0.10718777030706406,0.5,-4.688570499420166,-4.686933517456055,-4.614683628082275,-0.01,0.0,0.0,-98,-98
1705603239.89946628,13967744,0.10630849003791809,0.0,0.10656006634235382,0.5,-4.786190032958984,-4.784364223480225,-4.712814807891846,-0.01,0.0,0.0,-98,-98
1705603239.99942613,14067704,0.10723420977592468,0.0,0.10608164966106415,0.5,-4.883810043334961,-4.881579875946045,-4.8306355476379395,-0.01,0.0,0.0,-98,-98
1705603240.09938622,14167664,0.10790988802909851,0.0,0.10680583119392395,0.5,-4.981429576873779,-4.979676246643066,-4.908934116363525,-0.01,0.0,0.0,-98,-98
1705603240.19934607,14267624,0.10461759567260742,0.0,0.10752040147781372,0.5,-5.079049110412598,-5.077691555023193,-5.019134998321533,-0.01,0.0,0.0,-98,-98
1705603240.29930615,14367584,0.10718175768852234,0.0,0.10722213238477707,0.5,-5.176675796508789,-5.175786018371582,-5.114085674285889,-0.01,0.0,0.0,-97,-98
1705603240.39926624,14467544,0.1096436083316803,0.0,0.10859894007444382,0.5,-5.274307727813721,-5.273926258087158,-5.21718692779541,-0.01,0.0,0.0,-97,-97
1705603240.49922609,14567504,0.10744765400886536,0.0,0.10894842445850372,0.5,-5.371939659118652,-5.372206687927246,-5.296606540679932,-0.01,0.0,0.0,-97,-97
1705603240.60001922,14668297,0.10805356502532959,0.0,0.10952013731002808,0.5,-5.4703850746154785,-5.46973991394043,-5.399964332580566,-0.01,0.0,0.0,-97,-97
1705603240.69997907,14768257,0.10255882143974304,0.0,0.10828462988138199,0.5,-5.56801700592041,-5.566437721252441,-5.49798059463501,-0.01,0.0,0.0,-98,-97
1705603240.79993916,14868217,0.10374358296394348,0.0,0.10568246990442276,0.5,-5.665648937225342,-5.662646770477295,-5.596279621124268,-0.01,0.0,0.0,-98,-97
1705603240.89989924,14968177,0.1023777425289154,0.0,0.10389702022075653,0.5,-5.763280868530273,-5.758872032165527,-5.696290493011475,-0.01,0.0,0.0,-98,-98
1705603240.99985909,15068137,0.10169470310211182,0.0,0.10220517963171005,0.5,-5.860912322998047,-5.856287479400635,-5.790225505828857,-0.01,0.0,0.0,-99,-98
1705603241.09981918,15168097,0.10041630268096924,0.0,0.10134237259626389,0.5,-5.9585442543029785,-5.953174114227295,-5.897929668426514,-0.01,0.0,0.0,-99,-98
1705603241.19977927,15268057,0.10112780332565308,0.0,0.10061419010162354,0.5,-6.05617618560791,-6.050604343414307,-5.99840784072876,-0.01,0.0,0.0,-99,-98
1705603241.29973912,15368017,0.10090652108192444,0.0,0.1005232036113739,0.5,-6.153808116912842,-6.148730278015137,-6.0994648933410645,-0.01,0.0,0.0,-99,-98
1705603241.39969921,15467977,0.10263949632644653,0.0,0.10181887447834015,0.5,-6.251440048217773,-6.247408866882324,-6.192884922027588,-0.01,0.0,0.0,-98,-98
1705603241.49965906,15567937,0.10419654846191406,0.0,0.10294372588396072,0.5,-6.349071502685547,-6.346134662628174,-6.281691074371338,-0.01,0.0,0.0,-98,-98
1705603241.59961915,15667897,0.10408273339271545,0.0,0.10363038629293442,0.5,-6.4467034339904785,-6.444247245788574,-6.387529373168945,-0.01,0.0,0.0,-98,-98
1705603241.69957924,15767857,0.10396021604537964,0.0,0.10355914384126663,0.5,-6.54433536529541,-6.542006492614746,-6.503189563751221,-0.01,0.0,0.0,-98,-98
1705603241.79953909,15867817,0.10500803589820862,0.0,0.10394350439310074,0.5,-6.641967296600342,-6.640422821044922,-6.586309909820557,-0.01,0.0,0.0,-98,-98
1705603241.89949918,15967777,0.10403087735176086,0.0,0.10447044670581818,0.5,-6.739599227905273,-6.738998889923096,-6.6949052810668945,-0.01,0.0,0.0,-97,-98
1705603241.99945927,16067737,0.10464775562286377,0.0,0.10488384962081909,0.5,-6.837230682373047,-6.837656021118164,-6.772950649261475,-0.01,0.0,0.0,-97,-98
1705603242.09941912,16167697,0.1101514995098114,0.0,0.10631780326366425,0.5,-6.9348626136779785,-6.935667514801025,-6.877397060394287,-0.01,0.0,0.0,-97,-97
1705603242.19937921,16267657,0.10554787516593933,0.0,0.1066812127828598,0.5,-7.03249454498291,-7.033005714416504,-6.991692543029785,-0.01,0.0,0.0,-97,-97
1705603242.29933906,16367617,0.1051536500453949,0.0,0.10659310966730118,0.5,-7.130126476287842,-7.130765914916992,-7.075429916381836,-0.01,0.0,0.0,-97,-97
1705603242.39929914,16467577,0.10615971684455872,0.0,0.10687951743602753,0.5,-7.227758407592773,-7.228708267211914,-7.1795525550842285,-0.01,0.0,0.0,-97,-97
1705603242.49925923,16567537,0.10763606429100037,0.0,0.10757769644260406,0.5,-7.325389862060547,-7.326699733734131,-7.278923034667969,-0.01,0.0,0.0,-97,-97
1705603242.59921908,16667497,0.10696849226951599,0.0,0.10753040015697479,0.5,-7.4230217933654785,-7.424861431121826,-7.383848190307617,-0.01,0.0,0.0,-97,-97
1705603242.70001221,16768290,0.10786157846450806,0.0,0.10830788314342499,0.5,-7.521467208862305,-7.523374557495117,-7.468714237213135,-0.01,0.0,0.0,-97,-97
1705603242.79997206,16868250,0.10989454388618469,0.0,0.10996056348085403,0.5,-7.619099140167236,-7.621744632720947,-7.576344966888428,-0.01,0.0,0.0,-96,-97
1705603242.89993215,16968210,0.11307156085968018,0.0,0.11091693490743637,0.5,-7.716731071472168,-7.720047950744629,-7.65283727645874,-0.01,0.0,0.0,-96,-97
1705603242.99989223,17068170,0.1115226149559021,0.0,0.1120438277721405,0.5,-7.8143630027771,-7.817623138427734,-7.754605293273926,-0.01,0.0,0.0,-96,-96
1705603243.09985209,17168130,0.10806509852409363,0.0,0.11131424456834793,0.5,-7.911994457244873,-7.915218353271484,-7.861973285675049,-0.01,0.0,0.0,-96,-96
1705603243.19981217,17268090,0.10949724912643433,0.0,0.11040572822093964,0.5,-8.009626388549805,-8.012161254882812,-7.962275981903076,-0.01,0.0,0.0,-96,-96
1705603243.29977226,17368050,0.10893860459327698,0.0,0.11032223701477051,0.5,-8.107257843017578,-8.10970687866211,-8.04850959777832,-0.01,0.0,0.0,-96,-97
1705603243.39973211,17468010,0.11052989959716797,0.0,0.11028773337602615,0.5,-8.204890251159668,-8.20722484588623,-8.150038719177246,-0.01,0.0,0.0,-96,-97
1705603243.49969220,17567970,0.11054012179374695,0.0,0.1103912964463234,0.5,-8.302521705627441,-8.304726600646973,-8.246996879577637,-0.01,0.0,0.0,-97,-97
1705603243.59965205,17667930,0.11096057295799255,0.0,0.11059226095676422,0.5,-8.400154113769531,-8.402261734008789,-8.334935188293457,-0.01,0.0,0.0,-97,-97
1705603243.69961214,17767890,0.10963079333305359,0.0,0.11037571728229523,0.5,-8.497785568237305,-8.499384880065918,-8.443007469177246,-0.01,0.0,0.0,-97,-97
1705603243.79957223,17867850,0.10890817642211914,0.0,0.11041054129600525,0.5,-8.595417022705078,-8.596643447875977,-8.528685569763184,-0.01,0.0,0.0,-97,-97
1705603243.89953208,17967810,0.10529366135597229,0.0,0.10941093415021896,0.5,-8.693049430847168,-8.693676948547363,-8.626242637634277,-0.01,0.0,0.0,-97,-97
1705603243.99949217,18067770,0.10716381669044495,0.0,0.1077733188867569,0.5,-8.790680885314941,-8.79050064086914,-8.728224754333496,-0.01,0.0,0.0,-97,-97
1705603244.09945226,18167730,0.06542745232582092,0.0,0.026287930086255074,0.5,-8.878549575805664,-8.782512664794922,-8.82003402709961,-0.01,0.0,0.0,-126,-111
1705603244.19941211,18267690,-0.002928018569946289,0.0,0.032750047743320465,0.5,-8.963977813720703,-8.897891998291016,-8.951709747314453,-0.01,0.0,0.0,-117,-117
1705603244.29937220,18367650,0.04276379942893982,0.0,0.04525410383939743,0.5,-9.061609268188477,-9.015121459960938,-9.062113761901855,-0.01,0.0,0.0,-111,-115
1705603244.39933205,18467610,0.09089279174804688,0.0,0.06570456922054291,0.5,-9.159241676330566,-9.129061698913574,-9.169142723083496,-0.01,0.0,0.0,-106,-110
1705603244.49929214,18567570,0.10077452659606934,0.0,0.08273929357528687,0.5,-9.25687313079834,-9.238564491271973,-9.28615951538086,-0.01,0.0,0.0,-103,-106
1705603244.59925222,18667530,0.10001048445701599,0.0,0.09314171969890594,0.5,-9.354504585266113,-9.344521522521973,-9.392218589782715,-0.01,0.0,0.0,-100,-103
1705603244.70004511,18768323,0.10161080956459045,0.0,0.09957323223352432,0.5,-9.452950477600098,-9.44868278503418,-9.504773139953613,-0.01,0.0,0.0,-98,-101
1705603244.80000520,18868283,0.10817447304725647,0.0,0.10399902611970901,0.5,-9.550581932067871,-9.549592971801758,-9.600624084472656,-0.01,0.0,0.0,-97,-100
1705603244.89996505,18968243,0.11139878630638123,0.0,0.10815013945102692,0.5,-9.648214340209961,-9.650117874145508,-9.684999465942383,-0.01,0.0,0.0,-97,-99
1705603244.99992514,19068203,0.11004242300987244,0.0,0.11055681854486465,0.5,-9.745845794677734,-9.74890422821045,-9.79399299621582,-0.01,0.0,0.0,-96,-98
1705603245.09988523,19168163,0.10879063606262207,0.0,0.1113131120800972,0.5,-9.843478202819824,-9.846742630004883,-9.882052421569824,-0.01,0.0,0.0,-96,-97
1705603245.19984508,19268123,0.11132267117500305,0.0,0.11083222925662994,0.5,-9.941109657287598,-9.944547653198242,-9.996319770812988,-0.01,0.0,0.0,-96,-97
1705603245.29980516,19368083,0.11361628770828247,0.0,0.1111624464392662,0.5,-10.038741111755371,-10.04172134399414,-10.070306777954102,-0.01,0.0,0.0,-96,-97
1705603245.39976525,19468043,0.1093389093875885,0.0,0.11069902032613754,0.5,-10.136373519897461,-10.138227462768555,-10.182849884033203,-0.01,0.0,0.0,-97,-97
1705603245.49972510,19568003,0.10839709639549255,0.0,0.10969820618629456,0.5,-10.234004974365234,-10.234796524047852,-10.280047416687012,-0.01,0.0,0.0,-97,-97
1705603245.59968519,19667963,0.10621562600135803,0.0,0.10887767374515533,0.5,-10.331660270690918,-10.331788063049316,-10.38516616821289,-0.01,0.0,0.0,-97,-97
1705603245.69964528,19767923,0.10926079750061035,0.0,0.10835859924554825,0.5,-10.429316520690918,-10.429473876953125,-10.46306037902832,-0.01,0.0,0.0,-97,-97
1705603245.79960513,19867883,0.17211496829986572,0.0,0.13470236957073212,0.5,-10.526571273803711,-10.526519775390625,-10.570791244506836,-0.01,0.0,0.0,-95,-96
1705603245.89956522,19967843,0.26432371139526367,0.0,0.19767476618289948,0.5,-10.618474960327148,-10.618414878845215,-10.668216705322266,-0.01,0.0,0.0,-86,-87
1705603245.99952507,20067803,0.2815500795841217,0.0,0.24365098774433136,0.5,-10.698498725891113,-10.69953441619873,-10.736433029174805,-0.01,0.0,0.0,-73,-76
1705603246.09948516,20167763,0.31331130862236023,0.0,0.2826322317123413,0.5,-10.766674041748047,-10.769402503967285,-10.808734893798828,-0.01,0.0,0.0,-62,-66
1705603246.19944525,20267723,0.3439900577068329,0.0,0.3176073729991913,0.5,-10.824751853942871,-10.829264640808105,-10.878812789916992,-0.01,0.0,0.0,-52,-57
1705603246.29940510,20367683,0.37227287888526917,0.0,0.34861114621162415,0.5,-10.874231338500977,-10.880617141723633,-10.92280387878418,-0.01,0.0,0.0,-43,-50
1705603246.39936519,20467643,0.39568430185317993,0.0,0.3757079541683197,0.5,-10.916386604309082,-10.924033164978027,-10.981160163879395,-0.01,0.0,0.0,-36,-43
1705603246.49932528,20567603,0.4153538942337036,0.0,0.39832448959350586,0.5,-10.952295303344727,-10.960947036743164,-11.002561569213867,-0.01,0.0,0.0,-30,-37
1705603246.59928513,20667563,0.4308409094810486,0.0,0.4179377555847168,0.5,-10.982891082763672,-10.99157428741455,-11.049267768859863,-0.01,0.0,0.0,-25,-32
1705603246.69924521,20767523,0.4397989511489868,0.0,0.43113529682159424,0.5,-11.008953094482422,-11.01680850982666,-11.075297355651855,-0.01,0.0,0.0,-21,-28
1705603246.80003810,20868316,0.4465125501155853,0.0,0.44066014885902405,0.5,-11.031328201293945,-11.038004875183105,-11.098197937011719,-0.01,0.0,0.0,-18,-24
1705603246.89999819,20968276,0.4502888023853302,0.0,0.4466512203216553,0.5,-11.050222396850586,-11.055211067199707,-11.129659652709961,-0.01,0.0,0.0,-15,-21
1705603246.99995828,21068236,0.45438048243522644,0.0,0.4509648382663727,0.5,-11.06631851196289,-11.070100784301758,-11.137552261352539,-0.01,0.0,0.0,-13,-18
1705603247.09991813,21168196,0.45839548110961914,0.0,0.45548152923583984,0.5,-11.080029487609863,-11.082704544067383,-11.168484687805176,-0.01,0.0,0.0,-11,-16
1705603247.19987822,21268156,0.46148166060447693,0.0,0.4587196111679077,0.5,-11.091704368591309,-11.09373664855957,-11.181241035461426,-0.01,0.0,0.0,-10,-14
1705603247.29983807,21368116,0.4666137993335724,0.0,0.46282345056533813,0.5,-11.101654052734375,-11.103738784790039,-11.189057350158691,-0.01,0.0,0.0,-8,-12
1705603247.39979815,21468076,0.4706417918205261,0.0,0.4677807688713074,0.5,-11.110132217407227,-11.11231517791748,-11.223564147949219,-0.01,0.0,0.0,-7,-10
1705603247.49975824,21568036,0.46908387541770935,0.0,0.4688202440738678,0.5,-11.117353439331055,-11.120341300964355,-11.237942695617676,-0.01,0.0,0.0,-5,-9
1705603247.59971809,21667996,0.4774380028247833,0.0,0.4717079997062683,0.5,-11.123507499694824,-11.128252029418945,-11.230868339538574,-0.01,0.0,0.0,-4,-7
1705603247.69967818,21767956,0.4902215301990509,0.0,0.4812660217285156,0.5,-11.128748893737793,-11.135220527648926,-11.253460884094238,-0.01,0.0,0.0,-2,-6
1705603247.79963827,21867916,0.5029953122138977,0.0,0.49281632900238037,0.5,-11.133214950561523,-11.141496658325195,-11.258712768554688,-0.01,0.0,0.0,-1,-5
1705603247.89959812,21967876,0.5185864567756653,0.0,0.5064395666122437,0.5,-11.137019157409668,-11.14727783203125,-11.265419960021973,-0.01,0.0,0.0,0,-4
1705603247.99955821,22067836,0.535632312297821,0.0,0.5222263336181641,0.5,-11.14026165008545,-11.152463912963867,-11.263345718383789,-0.01,0.0,0.0,0,-3
1705603248.09951806,22167796,0.5398442149162292,0.0,0.5360947251319885,0.5,-11.143022537231445,-11.156683921813965,-11.285601615905762,-0.01,0.0,0.0,1,-2
1705603248.19947815,22267756,0.5377019643783569,0.0,0.5377602577209473,0.5,-11.145376205444336,-11.160151481628418,-11.270353317260742,-0.01,0.0,0.0,2,-1
1705603248.29943824,22367716,0.5309889316558838,0.0,0.5355376601219177,0.5,-11.147378921508789,-11.16229248046875,-11.28251838684082,-0.01,0.0,0.0,2,0
1705603248.39939809,22467676,0.5270391702651978,0.0,0.5290049910545349,0.5,-11.149085998535156,-11.163227081298828,-11.284383773803711,-0.01,0.0,0.0,2,0
1705603248.49935818,22567636,0.5161936283111572,0.0,0.5231886506080627,0.5,-11.150542259216309,-11.16362190246582,-11.294673919677734,-0.01,0.0,0.0,2,1
1705603248.59931827,22667596,0.5037288069725037,0.0,0.5129953622817993,0.5,-11.15178108215332,-11.163909912109375,-11.296201705932617,-0.01,0.0,0.0,2,1
1705603248.69927812,22767556,0.4913024306297302,0.0,0.5013006329536438,0.5,-11.152835845947266,-11.164206504821777,-11.291023254394531,-0.01,0.0,0.0,2,2
1705603248.79923820,22867516,0.4771994352340698,0.0,0.4885740876197815,0.5,-11.15373420715332,-11.164155960083008,-11.297699928283691,-0.01,0.0,0.0,2,2
1705603248.90003109,22968309,0.45949608087539673,0.0,0.47300511598587036,0.5,-11.154507637023926,-11.164146423339844,-11.294560432434082,-0.01,0.0,0.0,2,3
1705603248.99999118,23068269,0.4552372395992279,0.0,0.46060457825660706,0.5,-11.155158996582031,-11.163689613342285,-11.271121978759766,-0.01,0.0,0.0,1,3
1705603249.09995127,23168229,0.44963058829307556,0.0,0.4547567069530487,0.5,-11.155716896057129,-11.162307739257812,-11.276199340820312,-0.01,0.0,0.0,1,3
1705603249.19991112,23268189,0.4431197941303253,0.0,0.44823452830314636,0.5,-11.1561861038208,-11.1605224609375,-11.270227432250977,-0.01,0.0,0.0,0,2
1705603249.29987121,23368149,0.4400348663330078,0.0,0.4432871341705322,0.5,-11.156591415405273,-11.158666610717773,-11.269527435302734,-0.01,0.0,0.0,0,2
1705603249.39983106,23468109,0.4403419494628906,0.0,0.44093388319015503,0.5,-11.156937599182129,-11.157095909118652,-11.281115531921387,-0.01,0.0,0.0,0,1
1705603249.49979115,23568069,0.44575217366218567,0.0,0.4424082636833191,0.5,-11.157230377197266,-11.156692504882812,-11.270204544067383,-0.01,0.0,0.0,0,0
1705603249.59975123,23668029,0.45368653535842896,0.0,0.4482901394367218,0.5,-11.157475471496582,-11.156977653503418,-11.269394874572754,-0.01,0.0,0.0,0,0
1705603249.69971108,23767989,0.45920848846435547,0.0,0.4546552002429962,0.5,-11.157684326171875,-11.157544136047363,-11.274489402770996,-0.01,0.0,0.0,0,0
1705603249.79967117,23867949,0.46357831358909607,0.0,0.4596521556377411,0.5,-11.157872200012207,-11.15841007232666,-11.281083106994629,-0.01,0.0,0.0,0,0
1705603249.89963126,23967909,0.46842703223228455,0.0,0.4643048644065857,0.5,-11.158019065856934,-11.159711837768555,-11.287317276000977,-0.01,0.0,0.0,0,0
1705603249.99959111,24067869,0.46688032150268555,0.0,0.46816861629486084,0.5,-11.158163070678711,-11.161474227905273,-11.294132232666016,-0.01,0.0,0.0,0,0
1705603250.09955120,24167829,0.4702080488204956,0.0,0.4687455892562866,0.5,-11.158260345458984,-11.16349983215332,-11.282027244567871,-0.01,0.0,0.0,1,0
1705603250.19951105,24267789,0.47182923555374146,0.0,0.47079232335090637,0.5,-11.158358573913574,-11.164913177490234,-11.289578437805176,-0.01,0.0,0.0,1,0
1705603250.29947114,24367749,0.4687548279762268,0.0,0.4704134464263916,0.5,-11.158455848693848,-11.165817260742188,-11.288565635681152,-0.01,0.0,0.0,2,1
1705603250.39943123,24467709,0.4660431146621704,0.0,0.46709027886390686,0.5,-11.1585111618042,-11.166220664978027,-11.280778884887695,-0.01,0.0,0.0,2,1
1705603250.49939108,24567669,0.46595311164855957,0.0,0.4664694666862488,0.5,-11.158559799194336,-11.165943145751953,-11.281912803649902,-0.01,0.0,0.0,2,1
1705603250.59935117,24667629,0.4610222578048706,0.0,0.46403130888938904,0.5,-11.158608436584473,-11.165224075317383,-11.288778305053711,-0.01,0.0,0.0,1,2
1705603250.69931126,24767589,0.45786452293395996,0.0,0.46023502945899963,0.5,-11.15865707397461,-11.164627075195312,-11.282548904418945,-0.01,0.0,0.0,1,2
1705603250.79927111,24867549,0.4568586051464081,0.0,0.45812517404556274,0.5,-11.158705711364746,-11.164072036743164,-11.270334243774414,-0.01,0.0,0.0,1,1
1705603250.89923120,24967509,0.4544824957847595,0.0,0.45659059286117554,0.5,-11.1587553024292,-11.16303539276123,-11.270177841186523,-0.01,0.0,0.0,1,1
1705603251.00002408,25068302,0.45024561882019043,0.0,0.4533136785030365,0.5,-11.158802032470703,-11.161638259887695,-11.269636154174805,-0.01,0.0,0.0,0,1
1705603251.09998417,25168262,0.4473978877067566,0.0,0.44970425963401794,0.5,-11.158802032470703,-11.160202026367188,-11.288565635681152,-0.01,0.0,0.0,0,1
1705603251.19994426,25268222,0.44995254278182983,0.0,0.448336124420166,0.5,-11.158802032470703,-11.159778594970703,-11.276010513305664,-0.01,0.0,0.0,0,0
1705603251.29990411,25368182,0.4583090841770172,0.0,0.45307299494743347,0.5,-11.158802032470703,-11.16018295288086,-11.2744140625,-0.01,0.0,0.0,0,0
1705603251.39986420,25468142,0.46483439207077026,0.0,0.4595848023891449,0.5,-11.158802032470703,-11.1608247756958,-11.28803825378418,-0.01,0.0,0.0,0,0
1705603251.49982405,25568102,0.4707370102405548,0.0,0.4654994010925293,0.5,-11.158802032470703,-11.161985397338867,-11.286877632141113,-0.01,0.0,0.0,0,0
1705603251.59978414,25668062,0.46799150109291077,0.0,0.4682050943374634,0.5,-11.158802032470703,-11.16347599029541,-11.278633117675781,-0.01,0.0,0.0,1,0
1705603251.69974422,25768022,0.4670909345149994,0.0,0.46791958808898926,0.5,-11.158802032470703,-11.164386749267578,-11.276998519897461,-0.01,0.0,0.0,1,0
1705603251.79970407,25867982,0.4667339324951172,0.0,0.4678291976451874,0.5,-11.158802032470703,-11.164504051208496,-11.275673866271973,-0.01,0.0,0.0,1,1
1705603251.89966416,25967942,0.46418946981430054,0.0,0.4657188653945923,0.5,-11.158802032470703,-11.1639986038208,-11.26083755493164,-0.01,0.0,0.0,1,1
1705603251.99962425,26067902,0.4561973810195923,0.0,0.4616641402244568,0.5,-11.158802032470703,-11.162577629089355,-11.265694618225098,-0.01,0.0,0.0,1,1
1705603252.09958410,26167862,0.4466276168823242,0.0,0.4536418914794922,0.5,-11.158802032470703,-11.160541534423828,-11.272859573364258,-0.01,0.0,0.0,0,1
1705603252.19954419,26267822,0.4426823854446411,0.0,0.4464956820011139,0.5,-11.158802032470703,-11.15881061553955,-11.261109352111816,-0.01,0.0,0.0,0,1
1705603252.29950428,26367782,0.4442632794380188,0.0,0.4443858563899994,0.5,-11.158802032470703,-11.157422065734863,-11.277792930603027,-0.01,0.0,0.0,0,0
1705603252.39946413,26467742,0.449105441570282,0.0,0.4456658959388733,0.5,-11.158802032470703,-11.157010078430176,-11.270844459533691,-0.01,0.0,0.0,0,0
1705603252.49942422,26567702,0.45799076557159424,0.0,0.4517904818058014,0.5,-11.158802032470703,-11.157536506652832,-11.270072937011719,-0.01,0.0,0.0,0,0
1705603252.59938407,26667662,0.4655677378177643,0.0,0.459492951631546,0.5,-11.158802032470703,-11.158487319946289,-11.27088451385498,-0.01,0.0,0.0,0,0
1705603252.69934416,26767622,0.4709842801094055,0.0,0.46614766120910645,0.5,-11.158802032470703,-11.159550666809082,-11.264389991760254,-0.01,0.0,0.0,0,0
1705603252.79930425,26867582,0.4696022868156433,0.0,0.46711841225624084,0.5,-11.158802032470703,-11.160138130187988,-11.265637397766113,-0.01,0.0,0.0,0,0
1705603252.89926410,26967542,0.4658026397228241,0.0,0.46605342626571655,0.5,-11.158802032470703,-11.160077095031738,-11.27796459197998,-0.01,0.0,0.0,0,0
1705603252.99922419,27067502,0.4624713361263275,0.0,0.46411725878715515,0.5,-11.158802032470703,-11.160104751586914,-11.259662628173828,-0.01,0.0,0.0,0,0
1705603253.10001707,27168295,0.4606749415397644,0.0,0.4625371992588043,0.5,-11.158802032470703,-11.159751892089844,-11.274879455566406,-0.01,0.0,0.0,0,0
1705603253.19997716,27268255,0.457463800907135,0.0,0.45953428745269775,0.5,-11.158802032470703,-11.159368515014648,-11.263611793518066,-0.01,0.0,0.0,0,0
1705603253.29993725,27368215,0.4563857614994049,0.0,0.4578341245651245,0.5,-11.158802032470703,-11.158928871154785,-11.264849662780762,-0.01,0.0,0.0,0,0
1705603253.39989710,27468175,0.4547717571258545,0.0,0.45620882511138916,0.5,-11.158802032470703,-11.158345222473145,-11.274587631225586,-0.01,0.0,0.0,0,0
1705603253.49985719,27568135,0.4560617506504059,0.0,0.4553682804107666,0.5,-11.158802032470703,-11.158177375793457,-11.274470329284668,-0.01,0.0,0.0,0,0
1705603253.59981728,27668095,0.4602838158607483,0.0,0.45729294419288635,0.5,-11.158802032470703,-11.158588409423828,-11.267950057983398,-0.01,0.0,0.0,0,0
1705603253.69977713,27768055,0.464319109916687,0.0,0.4613330662250519,0.5,-11.158802032470703,-11.159131050109863,-11.263345718383789,-0.01,0.0,0.0,0,0
1705603253.79973722,27868015,0.46497872471809387,0.0,0.46404147148132324,0.5,-11.158802032470703,-11.159333229064941,-11.2716703414917,-0.01,0.0,0.0,0,0
1705603253.89969707,27967975,0.4636285603046417,0.0,0.4640372097492218,0.5,-11.158802032470703,-11.159424781799316,-11.262923240661621,-0.01,0.0,0.0,0,0
1705603253.99965715,28067935,0.46120041608810425,0.0,0.46303534507751465,0.5,-11.158802032470703,-11.15922737121582,-11.260818481445312,-0.01,0.0,0.0,0,0
1705603254.09961724,28167895,0.4567549526691437,0.0,0.4601527154445648,0.5,-11.158802032470703,-11.15855598449707,-11.27668571472168,-0.01,0.0,0.0,0,0
1705603254.19957709,28267855,0.4550045430660248,0.0,0.4565218389034271,0.5,-11.158802032470703,-11.158206939697266,-11.267498970031738,-0.01,0.0,0.0,0,0
1705603254.29953718,28367815,0.4573904573917389,0.0,0.4564884603023529,0.5,-11.158802032470703,-11.15819263458252,-11.26625919342041,-0.01,0.0,0.0,0,0
1705603254.39949727,28467775,0.4594534933567047,0.0,0.4579769968986511,0.5,-11.158802032470703,-11.15822696685791,-11.27107048034668,-0.01,0.0,0.0,0,0
1705603254.49945712,28567735,0.46079012751579285,0.0,0.4595268666744232,0.5,-11.158802032470703,-11.158447265625,-11.273538589477539,-0.01,0.0,0.0,0,0
1705603254.59941721,28667695,0.4636727273464203,0.0,0.46154987812042236,0.5,-11.158802032470703,-11.15895938873291,-11.26286792755127,-0.01,0.0,0.0,0,0
1705603254.69937706,28767655,0.4648017883300781,0.0,0.46388310194015503,0.5,-11.158802032470703,-11.159235954284668,-11.268994331359863,-0.01,0.0,0.0,0,0
1705603254.79933715,28867615,0.46352672576904297,0.0,0.4640982449054718,0.5,-11.158802032470703,-11.159266471862793,-11.275382041931152,-0.01,0.0,0.0,0,0
1705603254.89929724,28967575,0.46275556087493896,0.0,0.46315476298332214,0.5,-11.158802032470703,-11.159512519836426,-11.258584976196289,-0.01,0.0,0.0,0,0
1705603254.99925709,29067535,0.4616054892539978,0.0,0.46287649869918823,0.5,-11.158802032470703,-11.159199714660645,-11.26202392578125,-0.01,0.0,0.0,0,0
1705603255.09921718,29167495,0.4561653733253479,0.0,0.4597531259059906,0.5,-11.158802032470703,-11.158417701721191,-11.268672943115234,-0.01,0.0,0.0,0,0
1705603255.20001006,29268288,0.45256656408309937,0.0,0.45536765456199646,0.5,-11.158802032470703,-11.15773868560791,-11.266347885131836,-0.01,0.0,0.0,0,0
1705603255.29997015,29368248,0.45322442054748535,0.0,0.4535854756832123,0.5,-11.158802032470703,-11.157294273376465,-11.258082389831543,-0.01,0.0,0.0,0,0
1705603255.39993024,29468208,0.453180730342865,0.0,0.4534052014350891,0.5,-11.158802032470703,-11.156739234924316,-11.264257431030273,-0.01,0.0,0.0,0,0
1705603255.49989009,29568168,0.453329861164093,0.0,0.4532460868358612,0.5,-11.158802032470703,-11.156365394592285,-11.254785537719727,-0.01,0.0,0.0,0,0
1705603255.59985018,29668128,0.4531826972961426,0.0,0.45346522331237793,0.5,-11.158802032470703,-11.155855178833008,-11.25705623626709,-0.01,0.0,0.0,0,0
1705603255.69981027,29768088,0.45273610949516296,0.0,0.45296356081962585,0.5,-11.158802032470703,-11.155292510986328,-11.268428802490234,-0.01,0.0,0.0,-1,0
1705603255.79977012,29868048,0.45440131425857544,0.0,0.45330771803855896,0.5,-11.158802032470703,-11.155319213867188,-11.27587890625,-0.01,0.0,0.0,-1,0
1705603255.89973021,29968008,0.46116966009140015,0.0,0.4565770924091339,0.5,-11.158802032470703,-11.156302452087402,-11.270764350891113,-0.01,0.0,0.0,0,-1
1705603255.99969006,30067968,0.46994248032569885,0.0,0.4636300802230835,0.5,-11.158802032470703,-11.15782356262207,-11.276737213134766,-0.01,0.0,0.0,0,-1
1705603256.09965014,30167928,0.468467652797699,0.0,0.46870777010917664,0.5,-11.158802032470703,-11.159547805786133,-11.268960952758789,-0.01,0.0,0.0,0,0
1705603256.19961023,30267888,0.4675127863883972,0.0,0.4685342311859131,0.5,-11.158802032470703,-11.160696983337402,-11.270471572875977,-0.01,0.0,0.0,0,0
1705603256.29957008,30367848,0.4672391712665558,0.0,0.4669727683067322,0.5,-11.158802032470703,-11.161086082458496,-11.274484634399414,-0.01,0.0,0.0,0,0
1705603256.39953017,30467808,0.4658186137676239,0.0,0.4666673541069031,0.5,-11.158802032470703,-11.161163330078125,-11.266357421875,-0.01,0.0,0.0,0,0
1705603256.49949026,30567768,0.4622725546360016,0.0,0.46480587124824524,0.5,-11.158802032470703,-11.160801887512207,-11.258696556091309,-0.01,0.0,0.0,0,0
1705603256.59945011,30667728,0.4554838538169861,0.0,0.4604727327823639,0.5,-11.158802032470703,-11.159680366516113,-11.2744140625,-0.01,0.0,0.0,0,0
1705603256.69941020,30767688,0.45011571049690247,0.0,0.45416906476020813,0.5,-11.158802032470703,-11.158610343933105,-11.262542724609375,-0.01,0.0,0.0,0,0
1705603256.79937005,30867648,0.4494667649269104,0.0,0.45097073912620544,0.5,-11.158802032470703,-11.157694816589355,-11.265780448913574,-0.01,0.0,0.0,0,0
1705603256.89933014,30967608,0.4501247704029083,0.0,0.4500941336154938,0.5,-11.158802032470703,-11.156997680664062,-11.274190902709961,-0.01,0.0,0.0,0,0
1705603256.99929023,31067568,0.45435160398483276,0.0,0.45150744915008545,0.5,-11.158802032470703,-11.157017707824707,-11.276607513427734,-0.01,0.0,0.0,0,0
1705603257.09925008,31167528,0.46147727966308594,0.0,0.4562707245349884,0.5,-11.158802032470703,-11.157879829406738,-11.263774871826172,-0.01,0.0,0.0,0,0
1705603257.20004320,31268321,0.4680682420730591,0.0,0.46306943893432617,0.5,-11.158802032470703,-11.15878963470459,-11.260477066040039,-0.01,0.0,0.0,0,0
1705603257.30000305,31368281,0.4675193428993225,0.0,0.46702998876571655,0.5,-11.158802032470703,-11.159116744995117,-11.271333694458008,-0.01,0.0,0.0,0,0
1705603257.39996314,31468241,0.46465402841567993,0.0,0.4658471941947937,0.5,-11.158802032470703,-11.15920352935791,-11.267104148864746,-0.01,0.0,0.0,0,0
1705603257.49992323,31568201,0.4622592628002167,0.0,0.46404364705085754,0.5,-11.158802032470703,-11.159154891967773,-11.276384353637695,-0.01,0.0,0.0,0,0
1705603257.59988308,31668161,0.4612298905849457,0.0,0.46209779381752014,0.5,-11.158802032470703,-11.159273147583008,-11.267526626586914,-0.01,0.0,0.0,0,0
1705603257.69984317,31768121,0.4617987871170044,0.0,0.4617893397808075,0.5,-11.158802032470703,-11.159369468688965,-11.261362075805664,-0.01,0.0,0.0,0,0
1705603257.79980326,31868081,0.4596277177333832,0.0,0.46118760108947754,0.5,-11.158802032470703,-11.159015655517578,-11.266255378723145,-0.01,0.0,0.0,0,0
1705603257.89976311,31968041,0.45595499873161316,0.0,0.4584581255912781,0.5,-11.158802032470703,-11.158417701721191,-11.266424179077148,-0.01,0.0,0.0,0,0
1705603257.99972320,32068001,0.45395225286483765,0.0,0.45571374893188477,0.5,-11.158802032470703,-11.157851219177246,-11.277632713317871,-0.01,0.0,0.0,0,0
1705603258.09968305,32167961,0.45591139793395996,0.0,0.4547137916088104,0.5,-11.158802032470703,-11.157882690429688,-11.267114639282227,-0.01,0.0,0.0,0,0
1705603258.19964314,32267921,0.46011990308761597,0.0,0.4574703872203827,0.5,-11.158802032470703,-11.158242225646973,-11.268353462219238,-0.01,0.0,0.0,0,0
1705603258.29960322,32367881,0.46267369389533997,0.0,0.4606398642063141,0.5,-11.158802032470703,-11.158615112304688,-11.267934799194336,-0.01,0.0,0.0,0,0
1705603258.39956307,32467841,0.46381139755249023,0.0,0.46265944838523865,0.5,-11.158802032470703,-11.158917427062988,-11.272322654724121,-0.01,0.0,0.0,0,0
1705603258.49952316,32567801,0.46386563777923584,0.0,0.4635468125343323,0.5,-11.158802032470703,-11.159249305725098,-11.276233673095703,-0.01,0.0,0.0,0,0
1705603258.59948325,32667761,0.4653208553791046,0.0,0.46426546573638916,0.5,-11.158802032470703,-11.159774780273438,-11.285335540771484,-0.01,0.0,0.0,0,0
1705603258.69944310,32767721,0.4694560468196869,0.0,0.46637681126594543,0.5,-11.158802032470703,-11.160806655883789,-11.286270141601562,-0.01,0.0,0.0,0,0
1705603258.79940319,32867681,0.46729347109794617,0.0,0.4682135283946991,0.5,-11.158802032470703,-11.162216186523438,-11.280311584472656,-0.01,0.0,0.0,1,0
1705603258.89936328,32967641,0.46638917922973633,0.0,0.4678565263748169,0.5,-11.158802032470703,-11.163304328918457,-11.266255378723145,-0.01,0.0,0.0,1,0
1705603258.99932313,33067601,0.46843767166137695,0.0,0.4671660363674164,0.5,-11.158802032470703,-11.163288116455078,-11.27613639831543,-0.01,0.0,0.0,1,1
1705603259.09928322,33167561,0.46205946803092957,0.0,0.46519726514816284,0.5,-11.158802032470703,-11.162650108337402,-11.260933876037598,-0.01,0.0,0.0,1,1
1705603259.19924307,33267521,0.4545847177505493,0.0,0.4600503444671631,0.5,-11.158802032470703,-11.161282539367676,-11.271504402160645,-0.01,0.0,0.0,0,1
1705603259.30003619,33368314,0.44704413414001465,0.0,0.45269548892974854,0.5,-11.158802032470703,-11.159637451171875,-11.269418716430664,-0.01,0.0,0.0,0,1
1705603259.39999628,33468274,0.4460933208465576,0.0,0.44795939326286316,0.5,-11.158802032470703,-11.158360481262207,-11.264747619628906,-0.01,0.0,0.0,0,0
1705603259.49995613,33568234,0.4482796788215637,0.0,0.4474301338195801,0.5,-11.158802032470703,-11.157384872436523,-11.27343463897705,-0.01,0.0,0.0,0,0
1705603259.59991622,33668194,0.4523554742336273,0.0,0.44919902086257935,0.5,-11.158802032470703,-11.157193183898926,-11.267261505126953,-0.01,0.0,0.0,0,0
1705603259.69987607,33768154,0.4582705795764923,0.0,0.453926682472229,0.5,-11.158802032470703,-11.157485008239746,-11.264227867126465,-0.01,0.0,0.0,0,0
1705603259.79983616,33868114,0.46218886971473694,0.0,0.45884665846824646,0.5,-11.158802032470703,-11.157854080200195,-11.262065887451172,-0.01,0.0,0.0,0,0
1705603259.89979625,33968074,0.4627971649169922,0.0,0.46166250109672546,0.5,-11.158802032470703,-11.158013343811035,-11.26108169555664,-0.01,0.0,0.0,0,0
1705603259.99975610,34068034,0.4607820212841034,0.0,0.4617409110069275,0.5,-11.158802032470703,-11.157855987548828,-11.277164459228516,-0.01,0.0,0.0,0,0
1705603260.09971619,34167994,0.4607868194580078,0.0,0.46064361929893494,0.5,-11.158802032470703,-11.158174514770508,-11.276856422424316,-0.01,0.0,0.0,0,0
1705603260.19967628,34267954,0.46540454030036926,0.0,0.46231967210769653,0.5,-11.158802032470703,-11.159029006958008,-11.26462459564209,-0.01,0.0,0.0,0,0
1705603260.29963613,34367914,0.4682299792766571,0.0,0.46597567200660706,0.5,-11.158802032470703,-11.159613609313965,-11.263068199157715,-0.01,0.0,0.0,0,0
1705603260.39959621,34467874,0.4660264849662781,0.0,0.4663175940513611,0.5,-11.158802032470703,-11.159598350524902,-11.262002944946289,-0.01,0.0,0.0,0,0
1705603260.49955606,34567834,0.4601070284843445,0.0,0.4637194573879242,0.5,-11.158802032470703,-11.159018516540527,-11.259978294372559,-0.01,0.0,0.0,0,0
1705603260.59951615,34667794,0.45340460538864136,0.0,0.45846134424209595,0.5,-11.158802032470703,-11.157973289489746,-11.264838218688965,-0.01,0.0,0.0,0,0
1705603260.69947624,34767754,0.4494929909706116,0.0,0.45300689339637756,0.5,-11.158802032470703,-11.156957626342773,-11.26900863647461,-0.01,0.0,0.0,0,0
1705603260.79943609,34867714,0.4505889415740967,0.0,0.45060592889785767,0.5,-11.158802032470703,-11.156465530395508,-11.271485328674316,-0.01,0.0,0.0,0,0
1705603260.89939618,34967674,0.4556616544723511,0.0,0.4524634778499603,0.5,-11.158802032470703,-11.156702995300293,-11.2782564163208,-0.01,0.0,0.0,0,0
1705603260.99935627,35067634,0.46379023790359497,0.0,0.4579056203365326,0.5,-11.158802032470703,-11.157835006713867,-11.262405395507812,-0.01,0.0,0.0,0,0
1705603261.09931612,35167594,0.47010350227355957,0.0,0.46510371565818787,0.5,-11.158802032470703,-11.158817291259766,-11.27719497680664,-0.01,0.0,0.0,0,0
1705603261.19927621,35267554,0.4669933021068573,0.0,0.46751412749290466,0.5,-11.158802032470703,-11.159871101379395,-11.270861625671387,-0.01,0.0,0.0,0,0
1705603261.29923606,35367514,0.46894824504852295,0.0,0.46695655584335327,0.5,-11.158802032470703,-11.160562515258789,-11.275227546691895,-0.01,0.0,0.0,0,0
1705603261.40002918,35468307,0.4681941866874695,0.0,0.46673884987831116,0.5,-11.158802032470703,-11.160995483398438,-11.277644157409668,-0.01,0.0,0.0,0,0
1705603261.49998927,35568267,0.46753355860710144,0.0,0.4669008255004883,0.5,-11.158802032470703,-11.16139030456543,-11.264616966247559,-0.01,0.0,0.0,0,0
1705603261.59994912,35668227,0.4649624824523926,0.0,0.46624910831451416,0.5,-11.158802032470703,-11.161187171936035,-11.269112586975098,-0.01,0.0,0.0,0,0
1705603261.69990921,35768187,0.45898744463920593,0.0,0.46285614371299744,0.5,-11.158802032470703,-11.160491943359375,-11.26565933227539,-0.01,0.0,0.0,0,0
1705603261.79986906,35868147,0.45368945598602295,0.0,0.4578901529312134,0.5,-11.158802032470703,-11.15948486328125,-11.265925407409668,-0.01,0.0,0.0,0,0
1705603261.89982915,35968107,0.44987908005714417,0.0,0.4532000720500946,0.5,-11.158802032470703,-11.158369064331055,-11.268181800842285,-0.01,0.0,0.0,0,0
1705603261.99978924,36068067,0.44966045022010803,0.0,0.4504840672016144,0.5,-11.158802032470703,-11.157523155212402,-11.271105766296387,-0.01,0.0,0.0,0,0
1705603262.09974909,36168027,0.45230790972709656,0.0,0.45066386461257935,0.5,-11.158802032470703,-11.157246589660645,-11.274085998535156,-0.01,0.0,0.0,0,0
1705603262.19970918,36267987,0.45812761783599854,0.0,0.45418277382850647,0.5,-11.158802032470703,-11.157672882080078,-11.274484634399414,-0.01,0.0,0.0,0,0
1705603262.29966927,36367947,0.46513211727142334,0.0,0.45987069606781006,0.5,-11.158802032470703,-11.15864372253418,-11.274940490722656,-0.01,0.0,0.0,0,0
1705603262.39962912,36467907,0.4714694023132324,0.0,0.4662128686904907,0.5,-11.158802032470703,-11.159865379333496,-11.267311096191406,-0.01,0.0,0.0,0,0
1705603262.49958920,36567867,0.4682079553604126,0.0,0.4674956500530243,0.5,-11.158802032470703,-11.160654067993164,-11.274654388427734,-0.01,0.0,0.0,0,0
1705603262.59954906,36667827,0.46224159002304077,0.0,0.46718916296958923,0.5,-11.158802032470703,-11.160995483398438,-11.267192840576172,-0.01,0.0,0.0,0,0
1705603262.69950914,36767787,0.4646579325199127,0.0,0.46607428789138794,0.5,-11.158802032470703,-11.160863876342773,-11.268505096435547,-0.01,0.0,0.0,0,0
1705603262.79946923,36867747,0.4601430296897888,0.0,0.4632822573184967,0.5,-11.158802032470703,-11.160332679748535,-11.27172565460205,-0.01,0.0,0.0,0,0
1705603262.89942908,36967707,0.45658522844314575,0.0,0.459367036819458,0.5,-11.158802032470703,-11.159725189208984,-11.26913833618164,-0.01,0.0,0.0,0,0
1705603262.99938917,37067667,0.45470815896987915,0.0,0.45652368664741516,0.5,-11.158802032470703,-11.15915584564209,-11.268390655517578,-0.01,0.0,0.0,0,0
1705603263.09934926,37167627,0.4548991620540619,0.0,0.45519593358039856,0.5,-11.158802032470703,-11.158665657043457,-11.274578094482422,-0.01,0.0,0.0,0,0
1705603263.19930911,37267587,0.45636311173439026,0.0,0.45534858107566833,0.5,-11.158802032470703,-11.158576011657715,-11.26849365234375,-0.01,0.0,0.0,0,0
1705603263.29926920,37367547,0.4597690999507904,0.0,0.4575527012348175,0.5,-11.158802032470703,-11.158726692199707,-11.277671813964844,-0.01,0.0,0.0,0,0
1705603263.39922905,37467507,0.4633885324001312,0.0,0.46036386489868164,0.5,-11.158802032470703,-11.159259796142578,-11.260214805603027,-0.01,0.0,0.0,0,0
1705603263.50002217,37568300,0.46513673663139343,0.0,0.4636940360069275,0.5,-11.158802032470703,-11.159503936767578,-11.260268211364746,-0.01,0.0,0.0,0,0
1705603263.59998226,37668260,0.46121057868003845,0.0,0.46344107389450073,0.5,-11.158802032470703,-11.159074783325195,-11.261726379394531,-0.01,0.0,0.0,0,0
1705603263.69994211,37768220,0.4552449882030487,0.0,0.45940423011779785,0.5,-11.158802032470703,-11.158209800720215,-11.27673053741455,-0.01,0.0,0.0,0,0
1705603263.79990220,37868180,0.4533383250236511,0.0,0.4550900459289551,0.5,-11.158802032470703,-11.1577730178833,-11.270564079284668,-0.01,0.0,0.0,0,0
1705603263.89986205,37968140,0.45679086446762085,0.0,0.45535123348236084,0.5,-11.158802032470703,-11.157902717590332,-11.268749237060547,-0.01,0.0,0.0,0,0
1705603263.99982214,38068100,0.4609701633453369,0.0,0.45822402834892273,0.5,-11.158802032470703,-11.158252716064453,-11.277043342590332,-0.01,0.0,0.0,0,0
1705603264.09978223,38168060,0.46523335576057434,0.0,0.46183547377586365,0.5,-11.158802032470703,-11.159059524536133,-11.262849807739258,-0.01,0.0,0.0,0,0
1705603264.19974208,38268020,0.46788305044174194,0.0,0.4657761752605438,0.5,-11.158802032470703,-11.15953540802002,-11.263113021850586,-0.01,0.0,0.0,0,0
1705603264.29970217,38367980,0.46488672494888306,0.0,0.4657773971557617,0.5,-11.158802032470703,-11.159419059753418,-11.277814865112305,-0.01,0.0,0.0,0,0
1705603264.39966226,38467940,0.4621661901473999,0.0,0.4636495113372803,0.5,-11.158802032470703,-11.159517288208008,-11.275436401367188,-0.01,0.0,0.0,0,0
1705603264.49962211,38567900,0.4631015956401825,0.0,0.46294134855270386,0.5,-11.158802032470703,-11.159870147705078,-11.264883041381836,-0.01,0.0,0.0,0,0
1705603264.59958220,38667860,0.463448166847229,0.0,0.4634688198566437,0.5,-11.158802032470703,-11.15986156463623,-11.259171485900879,-0.01,0.0,0.0,0,0
1705603264.69954205,38767820,0.45893394947052,0.0,0.46201005578041077,0.5,-11.158802032470703,-11.15916633605957,-11.255331039428711,-0.01,0.0,0.0,0,0
1705603264.79950213,38867780,0.4515354633331299,0.0,0.4569764733314514,0.5,-11.158802032470703,-11.15776538848877,-11.262073516845703,-0.01,0.0,0.0,0,0
1705603264.89946222,38967740,0.4459470808506012,0.0,0.4505666494369507,0.5,-11.158802032470703,-11.156323432922363,-11.253826141357422,-0.01,0.0,0.0,0,0
1705603264.99942207,39067700,0.44437435269355774,0.0,0.4466410279273987,0.5,-11.158802032470703,-11.154885292053223,-11.259154319763184,-0.01,0.0,0.0,-1,0
1705603265.09938216,39167660,0.444912850856781,0.0,0.4451231062412262,0.5,-11.158802032470703,-11.153901100158691,-11.253082275390625,-0.01,0.0,0.0,-1,0
1705603265.19934225,39267620,0.4485401213169098,0.0,0.4465610384941101,0.5,-11.158802032470703,-11.153274536132812,-11.264501571655273,-0.01,0.0,0.0,-1,0
1705603265.29930210,39367580,0.4531547427177429,0.0,0.44951409101486206,0.5,-11.158802032470703,-11.153481483459473,-11.276433944702148,-0.01,0.0,0.0,-1,-1
1705603265.39926219,39467540,0.46280723810195923,0.0,0.45571616291999817,0.5,-11.158802032470703,-11.154988288879395,-11.268037796020508,-0.01,0.0,0.0,-1,-1
1705603265.49922228,39567500,0.4738181233406067,0.0,0.46537354588508606,0.5,-11.158802032470703,-11.157001495361328,-11.27547550201416,-0.01,0.0,0.0,0,-1
1705603265.60001516,39668293,0.47327932715415955,0.0,0.4707515835762024,0.5,-11.158802032470703,-11.159136772155762,-11.267711639404297,-0.01,0.0,0.0,0,-1
1705603265.69997525,39768253,0.4747329652309418,0.0,0.4735419452190399,0.5,-11.158802032470703,-11.160565376281738,-11.259678840637207,-0.01,0.0,0.0,0,0
1705603265.79993510,39868213,0.46703171730041504,0.0,0.4719417691230774,0.5,-11.158802032470703,-11.160725593566895,-11.275465965270996,-0.01,0.0,0.0,0,0
1705603265.89989519,39968173,0.4591329097747803,0.0,0.4649650454521179,0.5,-11.158802032470703,-11.160441398620605,-11.260015487670898,-0.01,0.0,0.0,0,0
1705603265.99985528,40068133,0.45607757568359375,0.0,0.46045711636543274,0.5,-11.158802032470703,-11.159491539001465,-11.278154373168945,-0.01,0.0,0.0,0,0
1705603266.09981513,40168093,0.45280197262763977,0.0,0.4554263651371002,0.5,-11.158802032470703,-11.158892631530762,-11.261091232299805,-0.01,0.0,0.0,0,0
1705603266.19977522,40268053,0.45256590843200684,0.0,0.45371222496032715,0.5,-11.158802032470703,-11.158187866210938,-11.278182983398438,-0.01,0.0,0.0,0,0
1705603266.29973507,40368013,0.4548370838165283,0.0,0.4534758925437927,0.5,-11.158802032470703,-11.15811538696289,-11.271302223205566,-0.01,0.0,0.0,0,0
1705603266.39969516,40467973,0.4599912762641907,0.0,0.4564785063266754,0.5,-11.158802032470703,-11.158496856689453,-11.26278305053711,-0.01,0.0,0.0,0,0
1705603266.49965525,40567933,0.46234723925590515,0.0,0.4602203667163849,0.5,-11.158802032470703,-11.158675193786621,-11.265243530273438,-0.01,0.0,0.0,0,0
1705603266.59961510,40667893,0.46147215366363525,0.0,0.46144723892211914,0.5,-11.158802032470703,-11.158615112304688,-11.270151138305664,-0.01,0.0,0.0,0,0
1705603266.69957519,40767853,0.460112065076828,0.0,0.4608946144580841,0.5,-11.158802032470703,-11.158610343933105,-11.265758514404297,-0.01,0.0,0.0,0,0
1705603266.79953527,40867813,0.4601060152053833,0.0,0.460367888212204,0.5,-11.158802032470703,-11.158504486083984,-11.27228832244873,-0.01,0.0,0.0,0,0
1705603266.89949512,40967773,0.4600411355495453,0.0,0.460027813911438,0.5,-11.158802032470703,-11.158595085144043,-11.278068542480469,-0.01,0.0,0.0,0,0
1705603266.99945521,41067733,0.46298113465309143,0.0,0.4610515832901001,0.5,-11.158802032470703,-11.159181594848633,-11.26357364654541,-0.01,0.0,0.0,0,0
1705603267.09941506,41167693,0.46507027745246887,0.0,0.4636712074279785,0.5,-11.158802032470703,-11.159478187561035,-11.277867317199707,-0.01,0.0,0.0,0,0
1705603267.19937515,41267653,0.4654076397418976,0.0,0.46472641825675964,0.5,-11.158802032470703,-11.159934997558594,-11.271665573120117,-0.01,0.0,0.0,0,0
1705603267.29933524,41367613,0.46648073196411133,0.0,0.46578603982925415,0.5,-11.158802032470703,-11.160334587097168,-11.265336990356445,-0.01,0.0,0.0,0,0
1705603267.39929509,41467573,0.46430495381355286,0.0,0.46533721685409546,0.5,-11.158802032470703,-11.160253524780273,-11.27082347869873,-0.01,0.0,0.0,0,0
1705603267.49925518,41567533,0.4602586627006531,0.0,0.4628927707672119,0.5,-11.158802032470703,-11.159893989562988,-11.264458656311035,-0.01,0.0,0.0,0,0
1705603267.60004807,41668326,0.4567057490348816,0.0,0.45956799387931824,0.5,-11.158802032470703,-11.1592378616333,-11.275211334228516,-0.01,0.0,0.0,0,0
1705603267.70000815,41768286,0.4546472728252411,0.0,0.4562329351902008,0.5,-11.158802032470703,-11.15877914428711,-11.2639741897583,-0.01,0.0,0.0,0,0
1705603267.79996824,41868246,0.45547643303871155,0.0,0.45541784167289734,0.5,-11.158802032470703,-11.158374786376953,-11.27048397064209,-0.01,0.0,0.0,0,0
1705603267.89992809,41968206,0.45603975653648376,0.0,0.45552030205726624,0.5,-11.158802032470703,-11.158134460449219,-11.261380195617676,-0.01,0.0,0.0,0,0
1705603267.99988818,42068166,0.45661798119544983,0.0,0.4563043415546417,0.5,-11.158802032470703,-11.157854080200195,-11.261198043823242,-0.01,0.0,0.0,0,0
1705603268.09984827,42168126,0.45530566573143005,0.0,0.4562009572982788,0.5,-11.158802032470703,-11.15738296508789,-11.272207260131836,-0.01,0.0,0.0,0,0
1705603268.19980812,42268086,0.4561142027378082,0.0,0.4555353820323944,0.5,-11.158802032470703,-11.157261848449707,-11.265030860900879,-0.01,0.0,0.0,0,0
1705603268.29976821,42368046,0.4588216543197632,0.0,0.4569261968135834,0.5,-11.158802032470703,-11.1574068069458,-11.277558326721191,-0.01,0.0,0.0,0,0
1705603268.39972806,42468006,0.4625681936740875,0.0,0.45943909883499146,0.5,-11.158802032470703,-11.15807056427002,-11.274600982666016,-0.01,0.0,0.0,0,0
1705603268.49968815,42567966,0.4684048593044281,0.0,0.4640558958053589,0.5,-11.158802032470703,-11.15916919708252,-11.276515007019043,-0.01,0.0,0.0,0,0
1705603268.59964824,42667926,0.4685213565826416,0.0,0.46723082661628723,0.5,-11.158802032470703,-11.160369873046875,-11.287357330322266,-0.01,0.0,0.0,0,0
1705603268.69960809,42767886,0.4693877398967743,0.0,0.4678008556365967,0.5,-11.158802032470703,-11.16175365447998,-11.270135879516602,-0.01,0.0,0.0,0,0
1705603268.79956818,42867846,0.46550869941711426,0.0,0.4673108458518982,0.5,-11.158802032470703,-11.162519454956055,-11.281277656555176,-0.01,0.0,0.0,1,0
1705603268.89952826,42967806,0.4678872227668762,0.0,0.4664522707462311,0.5,-11.158802032470703,-11.16280460357666,-11.289082527160645,-0.01,0.0,0.0,1,0
1705603268.99948812,43067766,0.4664171040058136,0.0,0.46683627367019653,0.5,-11.158802032470703,-11.163311958312988,-11.271595001220703,-0.01,0.0,0.0,1,0
1705603269.09944820,43167726,0.4670376777648926,0.0,0.46641454100608826,0.5,-11.158802032470703,-11.163384437561035,-11.272676467895508,-0.01,0.0,0.0,1,1
1705603269.19940805,43267686,0.4622352421283722,0.0,0.4646224081516266,0.5,-11.158802032470703,-11.16279125213623,-11.260229110717773,-0.01,0.0,0.0,1,1
1705603269.29936814,43367646,0.45457619428634644,0.0,0.46009522676467896,0.5,-11.158802032470703,-11.161351203918457,-11.26601505279541,-0.01,0.0,0.0,0,1
1705603269.39932823,43467606,0.4459235966205597,0.0,0.45240920782089233,0.5,-11.158802032470703,-11.159462928771973,-11.275038719177246,-0.01,0.0,0.0,0,1
1705603269.49928808,43567566,0.4443584978580475,0.0,0.44659826159477234,0.5,-11.158802032470703,-11.158090591430664,-11.27631664276123,-0.01,0.0,0.0,0,0
1705603269.59924817,43667526,0.4499850869178772,0.0,0.4471142590045929,0.5,-11.158802032470703,-11.157715797424316,-11.278154373168945,-0.01,0.0,0.0,0,0
1705603269.70004106,43768319,0.4591268301010132,0.0,0.4528239965438843,0.5,-11.158802032470703,-11.158432006835938,-11.268613815307617,-0.01,0.0,0.0,0,0
1705603269.80000114,43868279,0.4668061435222626,0.0,0.4606887996196747,0.5,-11.158802032470703,-11.159320831298828,-11.262714385986328,-0.01,0.0,0.0,0,0
1705603269.89996123,43968239,0.4690142273902893,0.0,0.4663063883781433,0.5,-11.158802032470703,-11.15975570678711,-11.277502059936523,-0.01,0.0,0.0,0,0
1705603269.99992108,44068199,0.4654541015625,0.0,0.4664728045463562,0.5,-11.158802032470703,-11.160237312316895,-11.278325080871582,-0.01,0.0,0.0,0,0
1705603270.09988117,44168159,0.4684009552001953,0.0,0.4668426811695099,0.5,-11.158802032470703,-11.160897254943848,-11.275847434997559,-0.01,0.0,0.0,0,0
1705603270.19984126,44268119,0.4674861431121826,0.0,0.46685802936553955,0.5,-11.158802032470703,-11.161458015441895,-11.260995864868164,-0.01,0.0,0.0,0,0
1705603270.29980111,44368079,0.46373406052589417,0.0,0.46648648381233215,0.5,-11.158802032470703,-11.16112995147705,-11.272789001464844,-0.01,0.0,0.0,0,0
1705603270.39976120,44468039,0.45958593487739563,0.0,0.4629713296890259,0.5,-11.158802032470703,-11.16050910949707,-11.268580436706543,-0.01,0.0,0.0,0,0
1705603270.49972105,44567999,0.4556276202201843,0.0,0.45886150002479553,0.5,-11.158802032470703,-11.15975284576416,-11.257474899291992,-0.01,0.0,0.0,0,0
1705603270.59968114,44667959,0.45126569271087646,0.0,0.45491811633110046,0.5,-11.158802032470703,-11.158474922180176,-11.252347946166992,-0.01,0.0,0.0,0,0
1705603270.69964123,44767919,0.44554468989372253,0.0,0.450067400932312,0.5,-11.158802032470703,-11.156648635864258,-11.255475997924805,-0.01,0.0,0.0,0,0
1705603270.79960108,44867879,0.4419424533843994,0.0,0.44496411085128784,0.5,-11.158802032470703,-11.154825210571289,-11.25822925567627,-0.01,0.0,0.0,-1,0
1705603270.89956117,44967839,0.4430275857448578,0.0,0.4427856504917145,0.5,-11.158802032470703,-11.153566360473633,-11.259690284729004,-0.01,0.0,0.0,-1,0
1705603270.99952126,45067799,0.44802525639533997,0.0,0.44485893845558167,0.5,-11.158802032470703,-11.153139114379883,-11.264854431152344,-0.01,0.0,0.0,-1,0
1705603271.09948111,45167759,0.45545434951782227,0.0,0.45002251863479614,0.5,-11.158802032470703,-11.153696060180664,-11.256322860717773,-0.01,0.0,0.0,-1,-1
1705603271.19944119,45267719,0.4625760614871979,0.0,0.4570910334587097,0.5,-11.158802032470703,-11.15455150604248,-11.250603675842285,-0.01,0.0,0.0,-1,-1
1705603271.29940128,45367679,0.46438977122306824,0.0,0.4621664583683014,0.5,-11.158802032470703,-11.155038833618164,-11.251017570495605,-0.01,0.0,0.0,-1,-1
1705603271.39936113,45467639,0.46183305978775024,0.0,0.46306392550468445,0.5,-11.158802032470703,-11.155014038085938,-11.272741317749023,-0.01,0.0,0.0,-1,-1
1705603271.49932122,45567599,0.4613065719604492,0.0,0.4613170027732849,0.5,-11.158802032470703,-11.15555191040039,-11.271186828613281,-0.01,8.88,0.0,0,-1
1705603271.59928107,45667559,0.46593934297561646,0.0,0.4630492627620697,0.5,-11.158802032470703,-11.156679153442383,-11.265039443969727,-0.01,8.88,-20.036678314208984,0,-1
1705603271.69924116,45767519,0.4660533368587494,0.0,0.4662734866142273,0.5,-11.158802032470703,-11.1577730178833,-11.265522003173828,-0.01,8.790000000000001,-20.025142669677734,0,0
1705603271.80003405,45868312,0.46765512228012085,0.0,0.46726250648498535,0.5,-11.158802032470703,-11.158493041992188,-11.27728271484375,-0.01,8.78,-20.0142765045166,0,0
1705603271.89999413,45968272,0.4669499397277832,0.0,0.4670211374759674,0.5,-11.158802032470703,-11.15933609008789,-11.2630033493042,-0.01,8.84,-20.008852005004883,0,0
1705603271.99995422,46068232,0.46796053647994995,0.0,0.4669998288154602,0.5,-11.158802032470703,-11.159685134887695,-11.278312683105469,-0.01,8.88,-20.010778427124023,0,0
1705603272.09991407,46168192,0.4649929106235504,0.0,0.46584996581077576,0.5,-11.158802032470703,-11.159957885742188,-11.265142440795898,-0.01,8.88,-20.01511001586914,0,0
1705603272.19987416,46268152,0.46384546160697937,0.0,0.46509310603141785,0.5,-11.158802032470703,-11.159969329833984,-11.271371841430664,-0.01,8.92,-20.024221420288086,0,0
1705603272.29983425,46368112,0.46066099405288696,0.0,0.46289336681365967,0.5,-11.158802032470703,-11.159729957580566,-11.263941764831543,-0.01,8.88,-20.02619171142578,0,0
1705603272.39979410,46468072,0.457606703042984,0.0,0.46017587184906006,0.5,-11.158802032470703,-11.159184455871582,-11.278996467590332,-0.01,8.78,-20.020263671875,0,0
1705603272.49975419,46568032,0.4560810923576355,0.0,0.45728471875190735,0.5,-11.158802032470703,-11.158937454223633,-11.278149604797363,-0.01,8.84,-20.01300811767578,0,0
1705603272.59971428,46667992,0.4597413241863251,0.0,0.45783358812332153,0.5,-11.158802032470703,-11.159294128417969,-11.260214805603027,-0.01,8.84,-20.011390686035156,0,0
1705603272.69967413,46767952,0.4595390856266022,0.0,0.45979925990104675,0.5,-11.159236907958984,-11.159364700317383,-11.266304969787598,8.85,8.84,-20.015165328979492,0,0
1705603272.79963422,46867912,0.4575928747653961,0.0,0.45912835001945496,0.5,-11.159175872802734,-11.159059524536133,-11.264909744262695,8.85,8.88,-20.01825714111328,0,0
