timestamp,TimeUS,ThI,ABst,ThO,ThH,DAlt,Alt,BAlt,DSAlt,SAlt,TAlt,DCRt,CRt
1697465331.20000005,8290016,0.0,0.0,0.5,0.5,0.0,-0.056248173117637634,-0.09010124206542969,0.0,0.0,-0.22999998927116394,0,-1
1697465331.29996014,8389976,0.0,0.0,0.5,0.5,0.0,-0.06295768916606903,-0.08394212275743484,0.0,0.0,-0.22999998927116394,0,-1
1697465331.39992023,8489936,0.0,0.0,0.5,0.5,0.0,-0.06944243609905243,-0.10742267221212387,0.0,0.0,-0.22999998927116394,0,-1
1697465331.49988008,8589896,0.0,0.0,0.5,0.5,0.0,-0.07650426775217056,-0.10449936240911484,0.0,0.0,-0.22999998927116394,0,-1
1697465331.59984016,8689856,0.0,0.0,0.5,0.5,0.0,-0.08398336172103882,-0.09551897644996643,0.0,0.0,-0.23999999463558197,0,-2
1697465331.69980001,8789816,0.0,0.0,0.5,0.5,0.0,-0.09067685157060623,-0.10079958289861679,0.0,0.0,-0.23999999463558197,0,-2
1697465331.79976010,8889776,0.0,0.0,0.5,0.5,0.0,-0.0963524803519249,-0.11006537079811096,0.0,0.0,-0.25,0,-2
1697465331.89972019,8989736,0.0,0.0,0.5,0.5,0.0,-0.10150424391031265,-0.10116390138864517,0.0,0.0,-0.25,0,-2
1697465331.99968004,9089696,0.0,0.0,0.5,0.5,0.0,-0.10574567317962646,-0.11014588922262192,0.0,0.0,-0.25999999046325684,0,-1
1697465332.09964013,9189656,0.0,0.0,0.25,0.5,0.0,-0.11732732504606247,-0.12118463218212128,0.0,0.0,-0.25999999046325684,0,-21
1697465332.19960022,9289616,0.0,0.0,0.25,0.5,0.0,-0.14940592646598816,-0.1558777093887329,0.0,0.0,-0.2800000011920929,0,-38
1697465332.29956007,9389576,0.0,0.0,0.25,0.5,0.0,-0.19630460441112518,-0.20833465456962585,0.0,0.0,-0.2800000011920929,0,-49
1697465332.39952016,9489536,0.0,0.0,0.25,0.5,0.0,-0.25233983993530273,-0.2435331642627716,0.0,0.0,-0.3400000035762787,0,-54
1697465332.49948001,9589496,0.0,0.0,0.25,0.5,0.0,-0.3127853572368622,-0.3199051320552826,0.0,0.0,-0.3400000035762787,0,-57
1697465332.59944010,9689456,0.0,0.0,0.25,0.5,0.0,-0.3754100799560547,-0.38049665093421936,0.0,0.0,-0.4399999976158142,0,-59
1697465332.69940019,9789416,0.0,0.0,0.25,0.5,0.0,-0.4404103457927704,-0.4398254156112671,0.0,0.0,-0.4399999976158142,0,-60
1697465332.79936004,9889376,0.0,0.0,0.25,0.5,0.0,-0.506406307220459,-0.4926418960094452,0.0,0.0,-0.5600000023841858,0,-60
1697465332.89932013,9989336,0.0,0.0,0.25,0.5,0.0,-0.5724741220474243,-0.566226065158844,0.0,0.0,-0.5600000023841858,0,-61
1697465332.99928021,10089296,0.0,0.0,0.25,0.5,0.0,-0.6392104625701904,-0.6223756670951843,0.0,0.0,-0.6800000071525574,0,-61
1697465333.09924006,10189256,0.0,0.0,0.25,0.5,0.0,-0.7054095268249512,-0.691806435585022,0.0,0.0,-0.6800000071525574,0,-62
1697465333.19920015,10289216,0.0,0.0,0.25,0.5,0.0,-0.7716637253761292,-0.7355731725692749,0.0,0.0,-0.7999999523162842,0,-62
1697465333.29999304,10390009,0.0,0.0,0.25,0.5,0.0,-0.8377659916877747,-0.8144283890724182,0.0,0.0,-0.7999999523162842,0,-62
1697465333.39995313,10489969,0.0,0.0,0.25,0.5,0.0,-0.90301513671875,-0.8772233724594116,0.0,0.0,-0.9199999570846558,0,-62
1697465333.49991322,10589929,0.0,0.0,0.25,0.5,0.0,-0.9683700203895569,-0.9223971366882324,0.0,0.0,-0.9199999570846558,0,-63
1697465333.59987307,10689889,0.0,0.0,0.25,0.5,0.0,-1.033036470413208,-0.9915378093719482,0.0,0.0,-1.0399999618530273,0,-63
1697465333.69983315,10789849,0.0,0.0,0.25,0.5,0.0,-1.0970265865325928,-1.0475518703460693,0.0,0.0,-1.0399999618530273,0,-63
1697465333.79979300,10889809,0.0,0.0,0.25,0.5,0.0,-1.1603723764419556,-1.122291088104248,0.0,0.0,-1.1699999570846558,0,-63
1697465333.89975309,10989769,0.0,0.0,0.25,0.5,0.0,-1.2235671281814575,-1.1731505393981934,0.0,0.0,-1.1699999570846558,0,-63
1697465333.99971318,11089729,0.0,0.0,0.25,0.5,0.0,-1.2864681482315063,-1.2350270748138428,0.0,0.0,-1.2899999618530273,0,-63
1697465334.09967303,11189689,0.0,0.0,0.25,0.5,0.0,-1.3489441871643066,-1.2979058027267456,0.0,0.0,-1.2899999618530273,0,-63
1697465334.19963312,11289649,0.0,0.0,0.25,0.5,0.0,-1.4111262559890747,-1.3599202632904053,0.0,0.0,-1.409999966621399,0,-63
1697465334.29959321,11389609,0.0,0.0,0.25,0.5,0.0,-1.4730892181396484,-1.4316877126693726,0.0,0.0,-1.409999966621399,0,-63
1697465334.39955306,11489569,0.0,0.0,0.25,0.5,0.0,-1.535346508026123,-1.4904775619506836,0.0,0.0,-1.5299999713897705,0,-63
1697465334.49951315,11589529,0.0,0.0,0.25,0.5,0.0,-1.5977730751037598,-1.55308997631073,0.0,0.0,-1.5299999713897705,0,-63
1697465334.59947300,11689489,0.0,0.0,0.25,0.5,0.0,-1.6602669954299927,-1.6247648000717163,0.0,0.0,-1.649999976158142,0,-63
1697465334.69943309,11789449,0.0,0.0,0.25,0.5,0.0,-1.7226969003677368,-1.668796181678772,0.0,0.0,-1.649999976158142,0,-63
1697465334.79939318,11889409,0.0,0.0,0.25,0.5,0.0,-1.785233736038208,-1.7470958232879639,0.0,0.0,-1.7699999809265137,0,-63
1697465334.89935303,11989369,0.0,0.0,0.25,0.5,0.0,-1.847927451133728,-1.807220220565796,0.0,0.0,-1.7699999809265137,0,-63
1697465334.99931312,12089329,0.0,0.0,0.25,0.5,0.0,-1.910830020904541,-1.871894121170044,0.0,0.0,-1.8899999856948853,0,-63
1697465335.09927320,12189289,0.0,0.0,0.25,0.5,0.0,-1.9744529724121094,-1.9293009042739868,0.0,0.0,-1.8899999856948853,0,-63
1697465335.19923306,12289249,0.0,0.0,0.25,0.5,0.0,-2.037447452545166,-1.9851738214492798,0.0,0.0,-2.009999990463257,0,-63
1697465335.29919314,12389209,0.0,0.0,0.25,0.5,0.0,-2.1000399589538574,-2.04844069480896,0.0,0.0,-2.009999990463257,0,-63
1697465335.39998603,12490002,0.0,0.0,0.25,0.5,0.0,-2.162825107574463,-2.1169021129608154,0.0,0.0,-2.129999876022339,0,-63
1697465335.49994612,12589962,0.0,0.0,0.25,0.5,0.0,-2.225127935409546,-2.1795058250427246,0.0,0.0,-2.129999876022339,0,-63
1697465335.59990621,12689922,0.0,0.0,0.25,0.5,0.0,-2.287287712097168,-2.2361583709716797,0.0,0.0,-2.25,0,-63
1697465335.69986606,12789882,0.0,0.0,0.25,0.5,0.0,-2.348975419998169,-2.2972304821014404,0.0,0.0,-2.25,0,-63
1697465335.79982615,12889842,0.0,0.0,0.25,0.5,0.0,-2.4101619720458984,-2.3568637371063232,0.0,0.0,-2.369999885559082,0,-63
1697465335.89978600,12989802,0.0,0.0,0.25,0.5,0.0,-2.4708950519561768,-2.420248031616211,0.0,0.0,-2.369999885559082,0,-62
1697465335.99974608,13089762,0.0,0.0,0.25,0.5,0.0,-2.531342029571533,-2.466818332672119,0.0,0.0,-2.490000009536743,0,-62
1697465336.09970617,13189722,0.0,0.0,0.25,0.5,0.0,-2.5911192893981934,-2.546621561050415,0.0,0.0,-2.490000009536743,0,-62
1697465336.19966602,13289682,0.0,0.0,0.25,0.5,0.0,-2.6508803367614746,-2.6095831394195557,0.0,0.0,-2.609999895095825,0,-62
1697465336.29962611,13389642,0.0,0.0,0.25,0.5,0.0,-2.7111175060272217,-2.657708168029785,0.0,0.0,-2.609999895095825,0,-62
1697465336.39958620,13489602,0.0,0.0,0.25,0.5,0.0,-2.771228313446045,-2.729891538619995,0.0,0.0,-2.7300000190734863,0,-62
1697465336.49954605,13589562,0.0,0.0,0.25,0.5,0.0,-2.8314080238342285,-2.787421941757202,0.0,0.0,-2.7300000190734863,0,-61
1697465336.59950614,13689522,0.0,0.0,0.25,0.5,0.0,-2.8917415142059326,-2.8541622161865234,0.0,0.0,-2.8499999046325684,0,-61
1697465336.69946623,13789482,0.0,0.0,0.25,0.5,0.0,-2.952328681945801,-2.9067163467407227,0.0,0.0,-2.8499999046325684,0,-61
1697465336.79942608,13889442,0.0,0.0,0.25,0.5,0.0,-3.0123631954193115,-2.9671006202697754,0.0,0.0,-2.9800000190734863,0,-61
1697465336.89938617,13989402,0.0,0.0,0.25,0.5,0.0,-3.07267165184021,-3.028195858001709,0.0,0.0,-2.9800000190734863,0,-61
1697465336.99934602,14089362,0.0,0.0,0.25,0.5,0.0,-3.132793426513672,-3.0910611152648926,0.0,0.0,-3.0999999046325684,0,-61
1697465337.09930611,14189322,0.0,0.0,0.25,0.5,0.0,-3.192868947982788,-3.1599769592285156,0.0,0.0,-3.0999999046325684,0,-61
1697465337.19926620,14289282,0.0,0.0,0.25,0.5,0.0,-3.2537920475006104,-3.221351146697998,0.0,0.0,-3.2200000286102295,0,-61
1697465337.29922605,14389242,0.0,0.0,0.25,0.5,0.0,-3.314687490463257,-3.2782835960388184,0.0,0.0,-3.2200000286102295,0,-61
1697465337.39918613,14489202,0.0,0.0,0.25,0.5,0.0,-3.375800371170044,-3.348489284515381,0.0,0.0,-3.3399999141693115,0,-61
1697465337.49997902,14589995,0.0,0.0,0.25,0.5,0.0,-3.4378819465637207,-3.4021804332733154,0.0,0.0,-3.3399999141693115,0,-61
1697465337.59993911,14689955,0.0,0.0,0.25,0.5,0.0,-3.4995639324188232,-3.475778818130493,0.0,0.0,-3.4600000381469727,0,-61
1697465337.69989920,14789915,0.0,0.0,0.25,0.5,0.0,-3.5617973804473877,-3.5235259532928467,0.0,0.0,-3.4600000381469727,0,-61
1697465337.79985905,14889875,0.0,0.0,0.25,0.5,0.0,-3.6239705085754395,-3.5853211879730225,0.0,0.0,-3.5799999237060547,0,-61
1697465337.89981914,14989835,0.0,0.0,0.25,0.5,0.0,-3.6859071254730225,-3.656022787094116,0.0,0.0,-3.5799999237060547,0,-61
1697465337.99977922,15089795,0.0,0.0,0.25,0.5,0.0,-3.748084306716919,-3.7171356678009033,0.0,0.0,-3.6999998092651367,0,-61
1697465338.09973907,15189755,0.0,0.0,0.25,0.5,0.0,-3.810513496398926,-3.7808139324188232,0.0,0.0,-3.6999998092651367,0,-61
1697465338.19969916,15289715,0.0,0.0,0.25,0.5,0.0,-3.8732335567474365,-3.832033634185791,0.0,0.0,-3.819999933242798,0,-61
1697465338.29965901,15389675,0.0,0.0,0.25,0.5,0.0,-3.935687780380249,-3.8923237323760986,0.0,0.0,-3.819999933242798,0,-61
1697465338.39961910,15489635,0.0,0.0,0.25,0.5,0.0,-3.997714042663574,-3.96457839012146,0.0,0.0,-3.93999981880188,0,-61
1697465338.49957919,15589595,0.0,0.0,0.25,0.5,0.0,-4.059891223907471,-4.029280185699463,0.0,0.0,-3.93999981880188,0,-61
1697465338.59953904,15689555,0.0,0.0,0.25,0.5,0.0,-4.122445106506348,-4.095900058746338,0.0,0.0,-4.059999942779541,0,-61
1697465338.69949913,15789515,0.0,0.0,0.25,0.5,0.0,-4.185507774353027,-4.155374050140381,0.0,0.0,-4.059999942779541,0,-61
1697465338.79945922,15889475,0.0,0.0,0.25,0.5,0.0,-4.24885368347168,-4.21314811706543,0.0,0.0,-4.179999828338623,0,-62
1697465338.89941907,15989435,0.0,0.0,0.25,0.5,0.0,-4.311608791351318,-4.261772155761719,0.0,0.0,-4.179999828338623,0,-62
1697465338.99937916,16089395,0.0,0.0,0.25,0.5,0.0,-4.374129295349121,-4.331053256988525,0.0,0.0,-4.299999713897705,0,-62
1697465339.09933901,16189355,0.0,0.0,0.25,0.5,0.0,-4.4362473487854,-4.402703285217285,0.0,0.0,-4.299999713897705,0,-62
1697465339.19929910,16289315,0.0,0.0,0.25,0.5,0.0,-4.498620986938477,-4.4488067626953125,0.0,0.0,-4.420000076293945,0,-62
1697465339.29925919,16389275,0.0,0.0,0.25,0.5,0.0,-4.561090469360352,-4.524149417877197,0.0,0.0,-4.420000076293945,0,-62
1697465339.39921904,16489235,0.0,0.0,0.25,0.5,0.0,-4.622842311859131,-4.573720455169678,0.0,0.0,-4.539999961853027,0,-62
1697465339.49917912,16589195,0.0,0.0,0.25,0.5,0.0,-4.684056758880615,-4.648733139038086,0.0,0.0,-4.539999961853027,0,-62
1697465339.59997201,16689988,0.0,0.0,0.25,0.5,0.0,-4.745680809020996,-4.701976299285889,0.0,0.0,-4.670000076293945,0,-61
1697465339.69993210,16789948,0.0,0.0,0.25,0.5,0.0,-4.806728363037109,-4.763832092285156,0.0,0.0,-4.670000076293945,0,-61
1697465339.79989219,16889908,0.0,0.0,0.25,0.5,0.0,-4.867620468139648,-4.816574573516846,0.0,0.0,-4.789999961853027,0,-61
1697465339.89985204,16989868,0.0,0.0,0.25,0.5,0.0,-4.928084373474121,-4.891034126281738,0.0,0.0,-4.789999961853027,0,-61
1697465339.99981213,17089828,0.0,0.0,0.25,0.5,0.0,-4.988593101501465,-4.947757720947266,0.0,0.0,-4.909999847412109,0,-61
1697465340.09977221,17189788,0.0,0.0,0.25,0.5,0.0,-5.049257278442383,-5.017202854156494,0.0,0.0,-4.909999847412109,0,-61
1697465340.19973207,17289748,0.0,0.0,0.25,0.5,0.0,-5.110265731811523,-5.0788960456848145,0.0,0.0,-5.019999980926514,0,-61
1697465340.29969215,17389708,0.0,0.0,0.25,0.5,0.0,-5.171746253967285,-5.137091159820557,0.0,0.0,-5.019999980926514,0,-61
1697465340.39965200,17489668,0.0,0.0,0.25,0.5,0.0,-5.233452796936035,-5.2081403732299805,0.0,0.0,-5.150000095367432,0,-61
1697465340.49961209,17589628,0.0,0.0,0.25,0.5,0.0,-5.295607089996338,-5.256673336029053,0.0,0.0,-5.150000095367432,0,-61
1697465340.59957218,17689588,0.0,0.0,0.25,0.5,0.0,-5.357749938964844,-5.329189300537109,0.0,0.0,-5.269999980926514,0,-61
1697465340.69953203,17789548,0.0,0.0,0.25,0.5,0.0,-5.420004367828369,-5.380455017089844,0.0,0.0,-5.269999980926514,0,-61
1697465340.79949212,17889508,0.0,0.0,0.25,0.5,0.0,-5.48213529586792,-5.4563798904418945,0.0,0.0,-5.389999866485596,0,-61
1697465340.89945221,17989468,0.0,0.0,0.25,0.5,0.0,-5.543985366821289,-5.502175331115723,0.0,0.0,-5.389999866485596,0,-61
1697465340.99941206,18089428,0.0,0.0,0.25,0.5,0.0,-5.546174049377441,-5.567661762237549,0.0,0.0,-5.509999752044678,0,-61
1697465341.09937215,18189388,0.0,0.0,0.25,0.5,0.0,-5.608046531677246,-5.636989116668701,0.0,0.0,-5.509999752044678,0,-61
1697465341.19933200,18289348,0.0,0.0,0.25,0.5,0.0,-5.670073509216309,-5.703094005584717,0.0,0.0,-5.62999963760376,0,-61
1697465341.29929209,18389308,0.0,0.0,0.25,0.5,0.0,-5.732538223266602,-5.754721641540527,0.0,0.0,-5.62999963760376,0,-61
1697465341.39925218,18489268,0.0,0.0,0.25,0.5,0.0,-5.795506954193115,-5.818382263183594,0.0,0.0,-5.75,0,-61
1697465341.49921203,18589228,0.0,0.0,0.25,0.5,0.0,-5.857760429382324,-5.87094783782959,0.0,0.0,-5.75,0,-61
1697465341.59917212,18689188,0.0,0.0,0.25,0.5,0.0,-5.919519424438477,-5.9437127113342285,0.0,0.0,-5.869999885559082,0,-61
1697465341.69996500,18789981,0.0,0.0,0.25,0.5,0.0,-5.981650352478027,-6.0062971115112305,0.0,0.0,-5.869999885559082,0,-61
1697465341.79992509,18889941,0.0,0.0,0.25,0.5,0.0,-6.04354190826416,-6.060530185699463,0.0,0.0,-5.989999771118164,0,-61
1697465341.89988518,18989901,0.0,0.0,0.25,0.5,0.0,-6.105297088623047,-6.129571914672852,0.0,0.0,-5.989999771118164,0,-61
1697465341.99984503,19089861,0.0,0.0,0.25,0.5,0.0,-6.167194843292236,-6.193851470947266,0.0,0.0,-6.109999656677246,0,-61
1697465342.09980512,19189821,0.0,0.0,0.25,0.5,0.0,-6.229403018951416,-6.238444805145264,0.0,0.0,-6.109999656677246,0,-61
1697465342.19976521,19289781,0.0,0.0,0.25,0.5,0.0,-6.291059970855713,-6.310882568359375,0.0,0.0,-6.230000019073486,0,-61
1697465342.29972506,19389741,0.0,0.0,0.25,0.5,0.0,-6.352549076080322,-6.368102073669434,0.0,0.0,-6.230000019073486,0,-61
1697465342.39968514,19489701,0.0,0.0,0.25,0.5,0.0,-6.413862228393555,-6.4380574226379395,0.0,0.0,-6.349999904632568,0,-61
1697465342.49964499,19589661,0.0,0.0,0.25,0.5,0.0,-6.475376605987549,-6.490222454071045,0.0,0.0,-6.349999904632568,0,-61
1697465342.59960508,19689621,0.0,0.0,0.25,0.5,0.0,-6.536715030670166,-6.556290626525879,0.0,0.0,-6.480000019073486,0,-61
1697465342.69956517,19789581,0.0,0.0,0.25,0.5,0.0,-6.598014831542969,-6.619777679443359,0.0,0.0,-6.480000019073486,0,-61
1697465342.79952502,19889541,0.0,0.0,0.25,0.5,0.0,-6.659434795379639,-6.676756381988525,0.0,0.0,-6.599999904632568,0,-61
1697465342.89948511,19989501,0.0,0.0,0.25,0.5,0.0,-6.720764636993408,-6.731673240661621,0.0,0.0,-6.599999904632568,0,-61
1697465342.99944520,20089461,0.0,0.0,0.25,0.5,0.0,-6.781148433685303,-6.802821159362793,0.0,0.0,-6.71999979019165,0,-61
1697465343.09940505,20189421,0.0,0.0,0.25,0.5,0.0,-6.842100143432617,-6.858124256134033,0.0,0.0,-6.71999979019165,0,-61
1697465343.19936514,20289381,0.0,0.0,0.25,0.5,0.0,-6.90295934677124,-6.914887428283691,0.0,0.0,-6.839999675750732,0,-61
1697465343.29932523,20389341,0.0,0.0,0.25,0.5,0.0,-6.963468074798584,-6.98893404006958,0.0,0.0,-6.839999675750732,0,-61
1697465343.39928508,20489301,0.0,0.0,0.25,0.5,0.0,-7.024780750274658,-7.057732105255127,0.0,0.0,-6.960000038146973,0,-61
1697465343.49924517,20589261,0.0,0.0,0.25,0.5,0.0,-7.0863261222839355,-7.115871429443359,0.0,0.0,-6.960000038146973,0,-61
1697465343.59920502,20689221,0.0,0.0,0.25,0.5,0.0,-7.14841890335083,-7.175299167633057,0.0,0.0,-7.079999923706055,0,-61
1697465343.69999814,20790014,0.0,0.0,0.25,0.5,0.0,-7.211275100708008,-7.237665176391602,0.0,0.0,-7.079999923706055,0,-61
1697465343.79995823,20889974,0.0,0.0,0.25,0.5,0.0,-7.273767471313477,-7.305273532867432,0.0,0.0,-7.199999809265137,0,-61
1697465343.89991808,20989934,0.0,0.0,0.25,0.5,0.0,-7.336289405822754,-7.358433723449707,0.0,0.0,-7.199999809265137,0,-61
1697465343.99987817,21089894,0.0,0.0,0.25,0.5,0.0,-7.398481369018555,-7.419384002685547,0.0,0.0,-7.319999694824219,0,-61
1697465344.09983802,21189854,0.0,0.0,0.25,0.5,0.0,-7.460205078125,-7.482159614562988,0.0,0.0,-7.319999694824219,0,-61
1697465344.19979811,21289814,0.0,0.0,0.25,0.5,0.0,-7.521617889404297,-7.553892612457275,0.0,0.0,-7.440000057220459,0,-61
1697465344.29975820,21389774,0.0,0.0,0.25,0.5,0.0,-7.583244323730469,-7.616386413574219,0.0,0.0,-7.440000057220459,0,-61
1697465344.39971805,21489734,0.0,0.0,0.25,0.5,0.0,-7.645338535308838,-7.663398265838623,0.0,0.0,-7.559999942779541,0,-61
1697465344.49967813,21589694,0.0,0.0,0.25,0.5,0.0,-7.707231044769287,-7.737027168273926,0.0,0.0,-7.559999942779541,0,-61
1697465344.59963822,21689654,0.0,0.0,0.25,0.5,0.0,-7.769124984741211,-7.795994281768799,0.0,0.0,-7.679999828338623,0,-61
1697465344.69959807,21789614,0.0,0.0,0.25,0.5,0.0,-7.831161975860596,-7.864429950714111,0.0,0.0,-7.679999828338623,0,-61
1697465344.79955816,21889574,0.0,0.0,0.25,0.5,0.0,-7.893492698669434,-7.921591758728027,0.0,0.0,-7.799999713897705,0,-61
1697465344.89951801,21989534,0.0,0.0,0.25,0.5,0.0,-7.9559807777404785,-7.974855899810791,0.0,0.0,-7.799999713897705,0,-61
1697465344.99947810,22089494,0.0,0.0,0.25,0.5,0.0,-8.018121719360352,-8.046026229858398,0.0,0.0,-7.919999599456787,0,-61
1697465345.09943819,22189454,0.0,0.0,0.25,0.5,0.0,-8.079668045043945,-8.108366966247559,0.0,0.0,-7.919999599456787,0,-61
1697465345.19939804,22289414,0.0,0.0,0.25,0.5,0.0,-8.141884803771973,-8.16057014465332,0.0,0.0,-8.039999961853027,0,-61
1697465345.29935813,22389374,0.0,0.0,0.25,0.5,0.0,-8.203837394714355,-8.220592498779297,0.0,0.0,-8.039999961853027,0,-61
1697465345.39931822,22489334,0.0,0.0,0.25,0.5,0.0,-8.265318870544434,-8.288914680480957,0.0,0.0,-8.15999984741211,0,-61
1697465345.49927807,22589294,0.0,0.0,0.25,0.5,0.0,-8.327207565307617,-8.34955883026123,0.0,0.0,-8.15999984741211,0,-61
1697465345.59923816,22689254,0.0,0.0,0.25,0.5,0.0,-8.38862133026123,-8.407180786132812,0.0,0.0,-8.289999961853027,0,-61
1697465345.69919801,22789214,0.0,0.0,0.25,0.5,0.0,-8.449892044067383,-8.469514846801758,0.0,0.0,-8.289999961853027,0,-61
1697465345.79999113,22890007,0.0,0.0,0.25,0.5,0.0,-8.511528015136719,-8.544584274291992,0.0,0.0,-8.40999984741211,0,-61
1697465345.89995122,22989967,0.0,0.0,0.25,0.5,0.0,-8.573095321655273,-8.59582233428955,0.0,0.0,-8.40999984741211,0,-61
1697465345.99991107,23089927,0.0,0.0,0.25,0.5,0.0,-8.634905815124512,-8.665871620178223,0.0,0.0,-8.529999732971191,0,-61
1697465346.09987116,23189887,0.0,0.0,0.25,0.5,0.0,-8.697007179260254,-8.707775115966797,0.0,0.0,-8.529999732971191,0,-61
1697465346.19983101,23289847,0.0,0.0,0.25,0.5,0.0,-8.75870132446289,-8.78583812713623,0.0,0.0,-8.649999618530273,0,-61
1697465346.29979110,23389807,0.0,0.0,0.25,0.5,0.0,-8.820317268371582,-8.857760429382324,0.0,0.0,-8.649999618530273,0,-61
1697465346.39975119,23489767,0.0,0.0,0.25,0.5,0.0,-8.882627487182617,-8.916622161865234,0.0,0.0,-8.769999504089355,0,-61
1697465346.49971104,23589727,0.0,0.0,0.25,0.5,0.0,-8.945520401000977,-8.969860076904297,0.0,0.0,-8.769999504089355,0,-61
1697465346.59967113,23689687,0.0,0.0,0.25,0.5,0.0,-9.008389472961426,-9.040949821472168,0.0,0.0,-8.880000114440918,0,-61
1697465346.69963121,23789647,0.0,0.0,0.25,0.5,0.0,-9.071380615234375,-9.098672866821289,0.0,0.0,-8.880000114440918,0,-62
1697465346.79959106,23889607,0.0,0.0,0.25,0.5,0.0,-9.134446144104004,-9.16030502319336,0.0,0.0,-9.010000228881836,0,-62
1697465346.89955115,23989567,0.0,0.0,0.25,0.5,0.0,-9.197422981262207,-9.211572647094727,0.0,0.0,-9.010000228881836,0,-62
1697465346.99951100,24089527,0.0,0.0,0.25,0.5,0.0,-9.259870529174805,-9.29101276397705,0.0,0.0,-9.119999885559082,0,-62
1697465347.09947109,24189487,0.0,0.0,0.25,0.5,0.0,-9.322375297546387,-9.352352142333984,0.0,0.0,-9.119999885559082,0,-62
1697465347.19943118,24289447,0.0,0.0,0.25,0.5,0.0,-9.384733200073242,-9.404995918273926,0.0,0.0,-9.25,0,-62
1697465347.29939103,24389407,0.0,0.0,0.25,0.5,0.0,-9.44748592376709,-9.473175048828125,0.0,0.0,-9.25,0,-62
1697465347.39935112,24489367,0.0,0.0,0.25,0.5,0.0,-9.510173797607422,-9.529644966125488,0.0,0.0,-9.369999885559082,0,-62
1697465347.49931121,24589327,0.0,0.0,0.25,0.5,0.0,-9.572702407836914,-9.597740173339844,0.0,0.0,-9.369999885559082,0,-62
1697465347.59927106,24689287,0.0,0.0,0.25,0.5,0.0,-9.635757446289062,-9.648429870605469,0.0,0.0,-9.489999771118164,0,-62
1697465347.69923115,24789247,0.0,0.0,0.25,0.5,0.0,-9.69785213470459,-9.704666137695312,0.0,0.0,-9.489999771118164,0,-62
1697465347.79919100,24889207,0.0,0.0,0.25,0.5,0.0,-9.759262084960938,-9.782279014587402,0.0,0.0,-9.609999656677246,0,-62
1697465347.89998412,24990000,0.0,0.0,0.25,0.5,0.0,-9.821362495422363,-9.847436904907227,0.0,0.0,-9.609999656677246,0,-62
1697465347.99994421,25089960,0.0,0.0,0.25,0.5,0.0,-9.883447647094727,-9.902215003967285,0.0,0.0,-9.729999542236328,0,-62
1697465348.09990406,25189920,0.0,0.0,0.25,0.5,0.0,-9.94565486907959,-9.955987930297852,0.0,0.0,-9.729999542236328,0,-62
1697465348.19986415,25289880,0.0,0.0,0.25,0.5,0.0,-10.007467269897461,-10.02144718170166,0.0,0.0,-9.84999942779541,0,-62
1697465348.29982400,25389840,0.0,0.0,0.25,0.5,0.0,-10.069037437438965,-10.082124710083008,0.0,0.0,-9.84999942779541,0,-62
1697465348.39978409,25489800,0.0,0.0,0.25,0.5,0.0,-10.130435943603516,-10.134112358093262,0.0,0.0,-9.969999313354492,0,-62
1697465348.49974418,25589760,0.0,0.0,0.25,0.5,0.0,-10.191253662109375,-10.1968355178833,0.0,0.0,-9.969999313354492,0,-62
1697465348.59970403,25689720,0.0,0.0,0.25,0.5,0.0,-10.25141716003418,-10.271585464477539,0.0,0.0,-10.09999942779541,0,-61
1697465348.69966412,25789680,0.15302538871765137,0.0,0.22387272119522095,0.5,-10.313968658447266,-10.310404777526855,-10.329506874084473,0.0,0.0,-10.09999942779541,-66,-60
1697465348.79962420,25889640,0.21120578050613403,0.0,0.20578058063983917,0.5,-10.38232707977295,-10.372763633728027,-10.387654304504395,0.0,0.0,-10.210000038146973,-74,-66
1697465348.89958405,25989600,0.2710832357406616,0.0,0.23510663211345673,0.5,-10.45395278930664,-10.439127922058105,-10.452454566955566,0.0,0.0,-10.210000038146973,-75,-67
1697465348.99954414,26089560,0.36779457330703735,0.0,0.29776135087013245,0.5,-10.521224021911621,-10.50307559967041,-10.53046989440918,0.0,0.0,-10.34000015258789,-67,-61
1697465349.09950399,26189520,0.5204019546508789,0.0,0.41554710268974304,0.5,-10.576152801513672,-10.558603286743164,-10.580385208129883,0.0,0.0,-10.34000015258789,-51,-50
1697465349.19946408,26289480,0.5258902311325073,0.0,0.4833950102329254,0.5,-10.614189147949219,-10.601616859436035,-10.640939712524414,0.0,0.0,-10.460000038146973,-34,-38
1697465349.29942417,26389440,0.6042587757110596,0.0,0.5476528406143188,0.5,-10.639640808105469,-10.634714126586914,-10.673800468444824,0.0,0.0,-10.460000038146973,-22,-30
1697465349.39938402,26489400,0.6186537146568298,0.0,0.596476674079895,0.5,-10.656671524047852,-10.66086483001709,-10.69052505493164,0.0,0.0,-10.539999961853027,-12,-22
1697465349.49934411,26589360,0.6061444878578186,0.0,0.6079546809196472,0.5,-10.668061256408691,-10.679089546203613,-10.718459129333496,0.0,0.0,-10.539999961853027,-5,-15
1697465349.59930420,26689320,0.5870859026908875,0.0,0.5989598631858826,0.5,-10.675684928894043,-10.690199851989746,-10.718732833862305,0.0,9.73,-10.59000015258789,-1,-9
1697465349.69926405,26789280,0.5638014078140259,0.0,0.581432044506073,0.5,-10.680781364440918,-10.695483207702637,-10.730464935302734,9.73,9.73,-10.59000015258789,0,-5
1697465349.79922414,26889240,0.5390122532844543,0.0,0.5629413723945618,0.5,-10.68412971496582,-10.696473121643066,-10.742476463317871,9.73,9.61,-10.619999885559082,1,-2
1697465349.89918423,26989200,0.5168213844299316,0.0,0.5456596612930298,0.5,-10.685881614685059,-10.695033073425293,-10.735450744628906,9.73,9.61,-10.619999885559082,1,0
1697465349.99997711,27089993,0.5081052184104919,0.0,0.5284887552261353,0.5,-10.686310768127441,-10.691886901855469,-10.739737510681152,9.73,9.540000000000001,-10.630000114440918,1,1
1697465350.09993720,27189953,0.49300333857536316,0.0,0.5178551077842712,0.5,-10.685564994812012,-10.687906265258789,-10.740045547485352,9.73,9.48,-10.630000114440918,1,1
1697465350.19989705,27289913,0.4830617606639862,0.0,0.5069460868835449,0.5,-10.683719635009766,-10.68346881866455,-10.728586196899414,9.73,9.42,-10.630000114440918,2,2
1697465350.29985714,27389873,0.4692727327346802,0.0,0.49564558267593384,0.5,-10.68081283569336,-10.678279876708984,-10.724136352539062,9.73,9.38,-10.630000114440918,2,3
1697465350.39981723,27489833,0.46117499470710754,0.0,0.4856097996234894,0.5,-10.676957130432129,-10.672194480895996,-10.73425006866455,9.73,9.34,-10.619999885559082,2,4
1697465350.49977708,27589793,0.44648995995521545,0.0,0.4731179475784302,0.5,-10.672123908996582,-10.665884971618652,-10.729138374328613,9.73,9.34,-10.619999885559082,3,4
1697465350.59973717,27689753,0.4545849859714508,0.0,0.4672318696975708,0.5,-10.666460990905762,-10.65964126586914,-10.709854125976562,9.73,9.28,-10.619999885559082,4,5
1697465350.69969702,27789713,0.4526943266391754,0.0,0.4688069820404053,0.5,-10.659942626953125,-10.652972221374512,-10.719944953918457,9.73,9.28,-10.619999885559082,4,5
1697465350.79965711,27889673,0.4566517770290375,0.0,0.47008779644966125,0.5,-10.652667999267578,-10.646132469177246,-10.720499992370605,9.73,9.25,-10.609999656677246,5,6
1697465350.89961720,27989633,0.4655519127845764,0.0,0.47460004687309265,0.5,-10.644674301147461,-10.639578819274902,-10.69897747039795,9.73,9.25,-10.609999656677246,6,6
1697465350.99957705,28089593,0.47941115498542786,0.0,0.48396024107933044,0.5,-10.636058807373047,-10.632619857788086,-10.708420753479004,9.73,9.25,-10.59999942779541,7,7
1697465351.09953713,28189553,0.4955030381679535,0.0,0.49632784724235535,0.5,-10.626921653747559,-10.625558853149414,-10.69352912902832,9.73,9.25,-10.59999942779541,8,7
1697465351.19949722,28289513,0.5161479711532593,0.0,0.5126673579216003,0.5,-10.617351531982422,-10.6183443069458,-10.690373420715332,9.73,9.25,-10.59000015258789,10,7
1697465351.29945707,28389473,0.5363492965698242,0.0,0.5312533974647522,0.5,-10.607427597045898,-10.610974311828613,-10.676319122314453,9.73,9.27,-10.59000015258789,11,8
1697465351.39941716,28489433,0.5374333262443542,0.0,0.54160475730896,0.5,-10.597272872924805,-10.60285472869873,-10.67698860168457,9.73,9.27,-10.579999923706055,11,9
1697465351.49937701,28589393,0.5360042452812195,0.0,0.5440332889556885,0.5,-10.586939811706543,-10.593916893005371,-10.660764694213867,9.73,9.27,-10.579999923706055,12,10
1697465351.59933710,28689353,0.5326031446456909,0.0,0.5424177646636963,0.5,-10.576455116271973,-10.584003448486328,-10.65837574005127,9.73,9.27,-10.559999465942383,12,10
1697465351.69929719,28789313,0.5273085832595825,0.0,0.5378535389900208,0.5,-10.5658540725708,-10.573390007019043,-10.651995658874512,9.73,9.27,-10.559999465942383,12,11
1697465351.79925704,28889273,0.5232365727424622,0.0,0.5312982201576233,0.5,-10.555176734924316,-10.562475204467773,-10.636855125427246,9.73,9.290000000000001,-10.550000190734863,12,11
1697465351.89921713,28989233,0.5251603722572327,0.0,0.5302131175994873,0.5,-10.544559478759766,-10.551615715026855,-10.62226676940918,9.73,9.290000000000001,-10.550000190734863,12,11
1697465351.99917722,29089193,0.5239478945732117,0.0,0.5303424000740051,0.5,-10.533975601196289,-10.54059886932373,-10.60793399810791,9.73,9.290000000000001,-10.529999732971191,12,11
1697465352.09997010,29189986,0.5273773074150085,0.0,0.5306078791618347,0.5,-10.523341178894043,-10.529254913330078,-10.603199005126953,9.73,9.290000000000001,-10.529999732971191,12,11
1697465352.19993019,29289946,0.5272173285484314,0.0,0.5295286178588867,0.5,-10.512796401977539,-10.518028259277344,-10.59961986541748,9.73,9.290000000000001,-10.510000228881836,12,11
1697465352.29989004,29389906,0.5258693695068359,0.0,0.5266252160072327,0.5,-10.502305030822754,-10.507356643676758,-10.576180458068848,9.73,9.31,-10.510000228881836,11,11
1697465352.39985013,29489866,0.5250089168548584,0.0,0.5246632695198059,0.5,-10.491952896118164,-10.496631622314453,-10.566030502319336,9.73,9.31,-10.489999771118164,11,11
1697465352.49981022,29589826,0.5207610130310059,0.0,0.5215175747871399,0.5,-10.481719970703125,-10.485748291015625,-10.552830696105957,9.73,9.32,-10.489999771118164,11,11
1697465352.59977007,29689786,0.5117095112800598,0.0,0.5148584842681885,0.5,-10.471636772155762,-10.474674224853516,-10.551681518554688,9.73,9.33,-10.460000038146973,10,11
1697465352.69973016,29789746,0.5016160011291504,0.0,0.5055943131446838,0.5,-10.46171760559082,-10.46390438079834,-10.53549861907959,9.73,9.33,-10.460000038146973,10,11
1697465352.79969001,29889706,0.4922076463699341,0.0,0.49648842215538025,0.5,-10.451912879943848,-10.453251838684082,-10.528572082519531,9.73,9.33,-10.449999809265137,10,11
1697465352.89965010,29989666,0.48274633288383484,0.0,0.4873432219028473,0.5,-10.442187309265137,-10.442791938781738,-10.513687133789062,9.73,9.33,-10.449999809265137,9,11
1697465352.99961019,30089626,0.4691103398799896,0.0,0.4747866988182068,0.5,-10.4325590133667,-10.43233585357666,-10.52038860321045,9.73,9.370000000000001,-10.429999351501465,9,11
1697465353.09957004,30189586,0.4688390791416168,0.0,0.4635446071624756,0.5,-10.423190116882324,-10.422697067260742,-10.506936073303223,9.73,9.370000000000001,-10.429999351501465,9,10
1697465353.19953012,30289546,0.4742211699485779,0.0,0.46464642882347107,0.5,-10.414031982421875,-10.41409969329834,-10.495308876037598,9.73,9.38,-10.40999984741211,9,10
1697465353.29949021,30389506,0.4779647886753082,0.0,0.46933549642562866,0.5,-10.405067443847656,-10.406201362609863,-10.480956077575684,9.73,9.38,-10.40999984741211,9,9
1697465353.39945006,30489466,0.4751875400543213,0.0,0.4685646891593933,0.5,-10.396288871765137,-10.398358345031738,-10.47827434539795,9.73,9.4,-10.380000114440918,9,9
1697465353.49941015,30589426,0.47859615087509155,0.0,0.4682351052761078,0.5,-10.387735366821289,-10.39051628112793,-10.466069221496582,9.73,9.41,-10.380000114440918,9,9
1697465353.59937000,30689386,0.47906941175460815,0.0,0.46806570887565613,0.5,-10.379416465759277,-10.38268756866455,-10.460399627685547,9.73,9.42,-10.369999885559082,9,9
1697465353.69933009,30789346,0.4777688682079315,0.0,0.4681924283504486,0.5,-10.37132453918457,-10.374975204467773,-10.44658374786377,9.73,9.44,-10.369999885559082,9,9
1697465353.79929018,30889306,0.4773593544960022,0.0,0.46765169501304626,0.5,-10.363460540771484,-10.36711311340332,-10.439043045043945,9.73,9.44,-10.34999942779541,8,9
1697465353.89925003,30989266,0.47619083523750305,0.0,0.4673081636428833,0.5,-10.355815887451172,-10.359328269958496,-10.423639297485352,9.73,9.450000000000001,-10.34999942779541,8,8
1697465353.99921012,31089226,0.4745049476623535,0.0,0.4667051434516907,0.5,-10.348388671875,-10.35133171081543,-10.435956001281738,9.73,9.450000000000001,-10.329999923706055,8,8
1697465354.09917021,31189186,0.47537001967430115,0.0,0.46664080023765564,0.5,-10.341137886047363,-10.344170570373535,-10.416030883789062,9.73,9.450000000000001,-10.329999923706055,8,8
1697465354.19996309,31289979,0.47583791613578796,0.0,0.46630772948265076,0.5,-10.33399772644043,-10.337299346923828,-10.414613723754883,9.73,9.5,-10.319999694824219,7,8
1697465354.29992318,31389939,0.47788721323013306,0.0,0.4664047062397003,0.5,-10.32720947265625,-10.330878257751465,-10.401472091674805,9.73,9.5,-10.319999694824219,7,7
1697465354.39988303,31489899,0.4785018265247345,0.0,0.46764007210731506,0.5,-10.320717811584473,-10.324710845947266,-10.38066291809082,9.73,9.52,-10.300000190734863,7,7
1697465354.49984312,31589859,0.4751178026199341,0.0,0.46636542677879333,0.5,-10.314495086669922,-10.318007469177246,-10.389581680297852,9.73,9.52,-10.300000190734863,7,7
1697465354.59980321,31689819,0.47022056579589844,0.0,0.46385547518730164,0.5,-10.308547019958496,-10.311393737792969,-10.369153022766113,9.73,9.53,-10.289999961853027,6,7
1697465354.69976306,31789779,0.46653521060943604,0.0,0.46048009395599365,0.5,-10.302842140197754,-10.304774284362793,-10.362317085266113,9.73,9.53,-10.289999961853027,6,6
1697465354.79972315,31889739,0.4614303708076477,0.0,0.45691758394241333,0.5,-10.29734992980957,-10.298019409179688,-10.365767478942871,9.73,9.540000000000001,-10.269999504089355,5,6
1697465354.89968300,31989699,0.4591701030731201,0.0,0.45274510979652405,0.5,-10.292057991027832,-10.291762351989746,-10.353732109069824,9.73,9.540000000000001,-10.269999504089355,5,6
1697465354.99964309,32089659,0.46079203486442566,0.0,0.4525285065174103,0.5,-10.286949157714844,-10.286075592041016,-10.356390953063965,9.73,9.56,-10.260000228881836,4,5
1697465355.09960318,32189619,0.4632485806941986,0.0,0.4526035487651825,0.5,-10.28203010559082,-10.281158447265625,-10.354722023010254,9.73,9.57,-10.260000228881836,4,4
1697465355.19956303,32289579,0.4686972200870514,0.0,0.4557740092277527,0.5,-10.277349472045898,-10.277201652526855,-10.344743728637695,9.73,9.57,-10.239999771118164,4,4
1697465355.29952312,32389539,0.47501489520072937,0.0,0.46211427450180054,0.5,-10.27287483215332,-10.273771286010742,-10.33027172088623,9.73,9.58,-10.239999771118164,4,4
1697465355.39948320,32489499,0.47697871923446655,0.0,0.466701865196228,0.5,-10.268590927124023,-10.2700777053833,-10.33049488067627,9.73,9.58,-10.229999542236328,4,4
1697465355.49944305,32589459,0.4733930826187134,0.0,0.46672940254211426,0.5,-10.264479637145996,-10.266036987304688,-10.322224617004395,9.73,9.58,-10.229999542236328,4,4
1697465355.59940314,32689419,0.46840986609458923,0.0,0.46463409066200256,0.5,-10.260506629943848,-10.261617660522461,-10.315282821655273,9.73,9.59,-10.229999542236328,4,4
1697465355.69936299,32789379,0.460973858833313,0.0,0.4586373269557953,0.5,-10.256706237792969,-10.256832122802734,-10.324554443359375,9.73,9.61,-10.229999542236328,3,4
1697465355.79932308,32889339,0.45721036195755005,0.0,0.4522518515586853,0.5,-10.253125190734863,-10.252455711364746,-10.310111999511719,9.73,9.620000000000001,-10.219999313354492,3,3
1697465355.89928317,32989299,0.4580944776535034,0.0,0.45045751333236694,0.5,-10.249770164489746,-10.248501777648926,-10.308063507080078,9.73,9.620000000000001,-10.219999313354492,2,3
1697465355.99924302,33089259,0.45920509099960327,0.0,0.45121195912361145,0.5,-10.24659538269043,-10.244935035705566,-10.312406539916992,9.73,9.620000000000001,-10.210000038146973,2,3
1697465356.09920311,33189219,0.46194377541542053,0.0,0.4527575671672821,0.5,-10.243566513061523,-10.24206256866455,-10.29857063293457,9.73,9.63,-10.210000038146973,2,2
1697465356.19999599,33290012,0.46556904911994934,0.0,0.45626938343048096,0.5,-10.240671157836914,-10.239450454711914,-10.289854049682617,9.73,9.63,-10.199999809265137,2,2
1697465356.29995608,33389972,0.46286463737487793,0.0,0.45646196603775024,0.5,-10.237944602966309,-10.23657512664795,-10.293622970581055,9.73,9.66,-10.199999809265137,2,2
1697465356.39991617,33489932,0.46032828092575073,0.0,0.4541201889514923,0.5,-10.235457420349121,-10.233663558959961,-10.2880859375,9.73,9.66,-10.199999809265137,1,2
1697465356.49987602,33589892,0.458435982465744,0.0,0.45243459939956665,0.5,-10.233173370361328,-10.23088264465332,-10.291070938110352,9.73,9.66,-10.199999809265137,1,1
1697465356.59983611,33689852,0.45850566029548645,0.0,0.4517890214920044,0.5,-10.23104476928711,-10.228480339050293,-10.275837898254395,9.73,9.66,-10.1899995803833,1,1
1697465356.69979620,33789812,0.45867612957954407,0.0,0.45267048478126526,0.5,-10.229036331176758,-10.22606372833252,-10.29210376739502,9.73,9.66,-10.1899995803833,1,1
1697465356.79975605,33889772,0.4593350291252136,0.0,0.45307114720344543,0.5,-10.227116584777832,-10.224102973937988,-10.275790214538574,9.73,9.66,-10.1899995803833,0,1
1697465356.89971614,33989732,0.46207669377326965,0.0,0.45571401715278625,0.5,-10.225262641906738,-10.22237777709961,-10.286261558532715,9.73,9.66,-10.1899995803833,0,0
1697465356.99967623,34089692,0.4636356234550476,0.0,0.457112193107605,0.5,-10.223470687866211,-10.221063613891602,-10.292820930480957,9.73,9.67,-10.1899995803833,1,0
1697465357.09963608,34189652,0.46797698736190796,0.0,0.4587516486644745,0.5,-10.221790313720703,-10.220556259155273,-10.290549278259277,9.73,9.69,-10.1899995803833,1,0
1697465357.19959617,34289612,0.4748634397983551,0.0,0.46346744894981384,0.5,-10.220293998718262,-10.220626831054688,-10.286144256591797,9.73,9.69,-10.1899995803833,1,0
1697465357.29955602,34389572,0.4748051166534424,0.0,0.46847403049468994,0.5,-10.218948364257812,-10.220752716064453,-10.290639877319336,9.73,9.69,-10.1899995803833,1,0
1697465357.39951611,34489532,0.47550684213638306,0.0,0.4679988622665405,0.5,-10.217711448669434,-10.22071647644043,-10.280136108398438,9.73,9.69,-10.179999351501465,2,1
1697465357.49947619,34589492,0.473833829164505,0.0,0.46748560667037964,0.5,-10.216554641723633,-10.22000503540039,-10.269038200378418,9.73,9.700000000000001,-10.179999351501465,2,1
1697465357.59943604,34689452,0.4667932093143463,0.0,0.4652465581893921,0.5,-10.215492248535156,-10.218247413635254,-10.27389907836914,9.73,9.700000000000001,-10.179999351501465,1,1
1697465357.69939613,34789412,0.45729586482048035,0.0,0.4590788781642914,0.5,-10.21452808380127,-10.21597957611084,-10.26729965209961,9.73,9.700000000000001,-10.179999351501465,1,1
1697465357.79935622,34889372,0.4501972198486328,0.0,0.4518769383430481,0.5,-10.213637351989746,-10.21338939666748,-10.278331756591797,9.73,9.700000000000001,-10.179999351501465,0,1
1697465357.89931607,34989332,0.44857150316238403,0.0,0.44688987731933594,0.5,-10.212794303894043,-10.211383819580078,-10.285057067871094,9.73,9.700000000000001,-10.179999351501465,0,1
1697465357.99927616,35089292,0.45479366183280945,0.0,0.44799065589904785,0.5,-10.211991310119629,-10.21064567565918,-10.274444580078125,9.73,9.700000000000001,-10.170000076293945,0,0
1697465358.09923601,35189252,0.4634503126144409,0.0,0.45470350980758667,0.5,-10.211210250854492,-10.210601806640625,-10.27320384979248,9.73,9.700000000000001,-10.170000076293945,0,0
1697465358.19919610,35289212,0.46955031156539917,0.0,0.4619837999343872,0.5,-10.210448265075684,-10.21076774597168,-10.25972843170166,9.73,9.700000000000001,-10.170000076293945,0,0
1697465358.29998922,35390005,0.4699253439903259,0.0,0.46679040789604187,0.5,-10.209689140319824,-10.21027946472168,-10.274077415466309,9.73,9.700000000000001,-10.170000076293945,0,0
1697465358.39994907,35489965,0.4666607677936554,0.0,0.46593397855758667,0.5,-10.208949089050293,-10.209653854370117,-10.256175994873047,9.73,9.700000000000001,-10.170000076293945,0,0
1697465358.49990916,35589925,0.4618089497089386,0.0,0.4639863669872284,0.5,-10.208215713500977,-10.208325386047363,-10.274069786071777,9.73,9.700000000000001,-10.170000076293945,0,0
1697465358.59986901,35689885,0.45732998847961426,0.0,0.45938295125961304,0.5,-10.207483291625977,-10.207141876220703,-10.264546394348145,9.73,9.700000000000001,-10.170000076293945,0,0
1697465358.69982910,35789845,0.45692622661590576,0.0,0.45692896842956543,0.5,-10.206750869750977,-10.206027030944824,-10.267045974731445,9.73,9.700000000000001,-10.170000076293945,0,0
1697465358.79978919,35889805,0.4576912820339203,0.0,0.45632636547088623,0.5,-10.206018447875977,-10.20510196685791,-10.264764785766602,9.73,9.700000000000001,-10.170000076293945,0,0
1697465358.89974904,35989765,0.45854678750038147,0.0,0.45689284801483154,0.5,-10.205286026000977,-10.204343795776367,-10.269353866577148,9.73,9.700000000000001,-10.170000076293945,0,0
1697465358.99970913,36089725,0.4612216651439667,0.0,0.45775315165519714,0.5,-10.204570770263672,-10.20395565032959,-10.27110767364502,9.73,9.71,-10.170000076293945,0,0
1697465359.09966922,36189685,0.4650370180606842,0.0,0.46008726954460144,0.5,-10.203927040100098,-10.204011917114258,-10.271509170532227,9.73,9.71,-10.170000076293945,0,0
1697465359.19962907,36289645,0.4697225093841553,0.0,0.46422648429870605,0.5,-10.203337669372559,-10.204389572143555,-10.263916969299316,9.73,9.71,-10.170000076293945,0,0
1697465359.29958916,36389605,0.47009336948394775,0.0,0.4670655131340027,0.5,-10.202781677246094,-10.204521179199219,-10.245206832885742,9.73,9.71,-10.170000076293945,1,0
1697465359.39954901,36489565,0.46454206109046936,0.0,0.4662131071090698,0.5,-10.202250480651855,-10.203323364257812,-10.251811981201172,9.73,9.71,-10.15999984741211,0,0
1697465359.49950910,36589525,0.4535839557647705,0.0,0.4598238468170166,0.5,-10.201735496520996,-10.20129108428955,-10.26335334777832,9.73,9.71,-10.15999984741211,0,0
1697465359.59946918,36689485,0.44755610823631287,0.0,0.451588898897171,0.5,-10.201227188110352,-10.199522018432617,-10.2454252243042,9.73,9.71,-10.15999984741211,0,0
1697465359.69942904,36789445,0.4462551474571228,0.0,0.4477151334285736,0.5,-10.20073413848877,-10.197641372680664,-10.253022193908691,9.73,9.71,-10.15999984741211,0,0
1697465359.79938912,36889405,0.4466754198074341,0.0,0.4459187090396881,0.5,-10.20024585723877,-10.196110725402832,-10.247668266296387,9.73,9.71,-10.15999984741211,0,0
1697465359.89934921,36989365,0.44883742928504944,0.0,0.44702696800231934,0.5,-10.19975757598877,-10.194976806640625,-10.259469985961914,9.73,9.71,-10.15999984741211,0,0
1697465359.99930906,37089325,0.45447322726249695,0.0,0.45007938146591187,0.5,-10.19926929473877,-10.19476318359375,-10.252018928527832,9.73,9.71,-10.15999984741211,0,0
1697465360.09926915,37189285,0.4611896276473999,0.0,0.45580819249153137,0.5,-10.19878101348877,-10.195059776306152,-10.252701759338379,9.73,9.71,-10.15999984741211,0,0
1697465360.19922900,37289245,0.4662202298641205,0.0,0.4615846276283264,0.5,-10.19829273223877,-10.195520401000977,-10.250777244567871,9.73,9.71,-10.15999984741211,0,0
1697465360.29918909,37389205,0.467963844537735,0.0,0.4639554023742676,0.5,-10.197834014892578,-10.195873260498047,-10.250654220581055,9.73,9.73,-10.15999984741211,0,0
1697465360.39998221,37489998,0.46656495332717896,0.0,0.464063823223114,0.5,-10.197508811950684,-10.1959810256958,-10.272814750671387,9.73,9.73,-10.15999984741211,0,0
1697465360.49994206,37589958,0.4677577614784241,0.0,0.4638250172138214,0.5,-10.197288513183594,-10.196710586547852,-10.258838653564453,9.73,9.73,-10.15999984741211,0,0
1697465360.59990215,37689918,0.4715043902397156,0.0,0.4670261740684509,0.5,-10.19714069366455,-10.197731971740723,-10.267266273498535,9.73,9.700000000000001,-10.170000076293945,0,0
1697465360.69986200,37789878,0.4671452045440674,0.0,0.4695993661880493,0.5,-10.196900367736816,-10.198639869689941,-10.25913143157959,9.73,9.67,-10.170000076293945,0,0
1697465360.79982209,37889838,0.4690449833869934,0.0,0.4737548530101776,0.5,-10.196393966674805,-10.198935508728027,-10.262313842773438,9.73,9.65,-10.170000076293945,1,0
1697465360.89978218,37989798,0.4687672257423401,0.0,0.47615140676498413,0.5,-10.195551872253418,-10.19853401184082,-10.255547523498535,9.73,9.65,-10.170000076293945,1,1
1697465360.99974203,38089758,0.46500957012176514,0.0,0.4756733477115631,0.5,-10.194393157958984,-10.197278022766113,-10.258174896240234,9.73,9.61,-10.170000076293945,2,1
1697465361.09970212,38189718,0.4575168490409851,0.0,0.4721193015575409,0.5,-10.192863464355469,-10.195256233215332,-10.264517784118652,9.73,9.61,-10.170000076293945,2,2
1697465361.19966221,38289678,0.45401719212532043,0.0,0.4659965932369232,0.5,-10.191010475158691,-10.192983627319336,-10.252816200256348,9.73,9.540000000000001,-10.15999984741211,2,2
1697465361.29962206,38389638,0.453574001789093,0.0,0.46841540932655334,0.5,-10.188769340515137,-10.190381050109863,-10.256523132324219,9.73,9.540000000000001,-10.15999984741211,2,3
1697465361.39958215,38489598,0.45431089401245117,0.0,0.4671071171760559,0.5,-10.186053276062012,-10.187408447265625,-10.26189136505127,9.73,9.53,-10.15999984741211,3,3
1697465361.49954200,38589558,0.45944711565971375,0.0,0.46974700689315796,0.5,-10.182916641235352,-10.184600830078125,-10.248117446899414,9.73,9.49,-10.15999984741211,3,3
1697465361.59950209,38689518,0.46194666624069214,0.0,0.47185564041137695,0.5,-10.179299354553223,-10.181435585021973,-10.240945816040039,9.73,9.49,-10.149999618530273,4,4
1697465361.69946218,38789478,0.4664395749568939,0.0,0.47566699981689453,0.5,-10.17524528503418,-10.17745590209961,-10.244007110595703,9.73,9.44,-10.149999618530273,4,4
1697465361.79942203,38889438,0.4693495035171509,0.0,0.479552298784256,0.5,-10.170681953430176,-10.173016548156738,-10.234416961669922,9.73,9.44,-10.139999389648438,5,5
1697465361.89938211,38989398,0.47380197048187256,0.0,0.4832350015640259,0.5,-10.16565227508545,-10.168023109436035,-10.230586051940918,9.73,9.38,-10.139999389648438,5,5
1697465361.99934220,39089358,0.4812348186969757,0.0,0.48983389139175415,0.5,-10.160096168518066,-10.16248893737793,-10.227486610412598,9.73,9.33,-10.130000114440918,6,5
1697465362.09930205,39189318,0.49347952008247375,0.0,0.4999283254146576,0.5,-10.153918266296387,-10.156604766845703,-10.206915855407715,9.73,9.33,-10.130000114440918,7,6
1697465362.19926214,39289278,0.5067129135131836,0.0,0.5115002393722534,0.5,-10.147117614746094,-10.14980411529541,-10.222764015197754,9.73,9.290000000000001,-10.119999885559082,7,6
1697465362.29922223,39389238,0.5188632607460022,0.0,0.5229304432868958,0.5,-10.139683723449707,-10.142932891845703,-10.195096015930176,9.73,9.28,-10.119999885559082,8,6
1697465362.39918208,39489198,0.526300847530365,0.0,0.5346212387084961,0.5,-10.13167667388916,-10.135499954223633,-10.196759223937988,9.73,9.28,-10.109999656677246,9,7
1697465362.49997520,39589991,0.5262834429740906,0.0,0.5380036234855652,0.5,-10.123085975646973,-10.127022743225098,-10.191051483154297,9.73,9.25,-10.109999656677246,9,8
1697465362.59993505,39689951,0.5250334739685059,0.0,0.5387741923332214,0.5,-10.114048957824707,-10.118024826049805,-10.185403823852539,9.73,9.24,-10.09000015258789,10,8
1697465362.69989514,39789911,0.5249399542808533,0.0,0.5383027195930481,0.5,-10.10453987121582,-10.108543395996094,-10.1741304397583,9.73,9.24,-10.09000015258789,10,9
1697465362.79985499,39889871,0.5247546434402466,0.0,0.5373921394348145,0.5,-10.094619750976562,-10.098535537719727,-10.162569046020508,9.73,9.21,-10.079999923706055,11,10
1697465362.89981508,39989831,0.5261618494987488,0.0,0.5385188460350037,0.5,-10.084297180175781,-10.087937355041504,-10.141953468322754,9.73,9.21,-10.079999923706055,11,10
1697465362.99977517,40089791,0.522745668888092,0.0,0.5369894504547119,0.5,-10.073572158813477,-10.07630729675293,-10.141485214233398,9.73,9.21,-10.050000190734863,11,11
1697465363.09973502,40189751,0.5219661593437195,0.0,0.5349543690681458,0.5,-10.062495231628418,-10.064262390136719,-10.135480880737305,9.73,9.16,-10.050000190734863,11,11
1697465363.19969511,40289711,0.5231648683547974,0.0,0.5350954532623291,0.5,-10.050985336303711,-10.052349090576172,-10.11616039276123,9.73,9.16,-10.039999961853027,12,11
1697465363.29965520,40389671,0.5250654220581055,0.0,0.5357672572135925,0.5,-10.039069175720215,-10.040196418762207,-10.110095024108887,9.73,9.15,-10.039999961853027,12,12
1697465363.39961505,40489631,0.5302084684371948,0.0,0.5390565395355225,0.5,-10.026784896850586,-10.027955055236816,-10.087761878967285,9.73,9.120000000000001,-10.010000228881836,12,12
1697465363.49957514,40589591,0.5320539474487305,0.0,0.5423727035522461,0.5,-10.014078140258789,-10.015134811401367,-10.077542304992676,9.73,9.11,-10.010000228881836,13,12
1697465363.59953523,40689551,0.5333014726638794,0.0,0.5444769859313965,0.5,-10.000981330871582,-10.00172233581543,-10.07344913482666,9.73,9.09,-9.989999771118164,13,13
1697465363.69949508,40789511,0.5338183045387268,0.0,0.5448088049888611,0.5,-9.987475395202637,-9.988218307495117,-10.047431945800781,9.73,9.09,-9.989999771118164,13,13
1697465363.79945517,40889471,0.5350630283355713,0.0,0.5457883477210999,0.5,-9.973609924316406,-9.974218368530273,-10.029597282409668,9.73,9.08,-9.960000038146973,14,13
1697465363.89941502,40989431,0.5326459407806396,0.0,0.5449736714363098,0.5,-9.959415435791016,-9.959232330322266,-10.035356521606445,9.73,9.08,-9.960000038146973,14,14
1697465363.99937510,41089391,0.532912015914917,0.0,0.5431588292121887,0.5,-9.944933891296387,-9.944483757019043,-10.00000286102295,9.73,9.040000000000001,-9.920000076293945,14,14
1697465364.09933519,41189351,0.5349612236022949,0.0,0.5454282164573669,0.5,-9.9301118850708,-9.929224967956543,-9.993159294128418,9.73,9.040000000000001,-9.899999618530273,14,14
1697465364.19929504,41289311,0.5351340174674988,0.0,0.5461050271987915,0.5,-9.91494369506836,-9.913616180419922,-9.980399131774902,9.73,9.02,-9.889999389648438,14,14
1697465364.29925513,41389271,0.5356455445289612,0.0,0.5461506247520447,0.5,-9.899425506591797,-9.897806167602539,-9.975011825561523,9.73,9.02,-9.869999885559082,15,15
1697465364.39921522,41489231,0.5408402681350708,0.0,0.5482791066169739,0.5,-9.883598327636719,-9.882492065429688,-9.959447860717773,9.73,9.0,-9.859999656677246,15,15
1697465364.49917507,41589191,0.5479949712753296,0.0,0.5536455512046814,0.5,-9.867448806762695,-9.86745548248291,-9.93459701538086,9.73,8.99,-9.84000015258789,16,15
1697465364.59996819,41689984,0.5533205270767212,0.0,0.5602228045463562,0.5,-9.850833892822266,-9.851795196533203,-9.926228523254395,9.73,8.96,-9.829999923706055,16,15
1697465364.69992805,41789944,0.5545801520347595,0.0,0.5636721253395081,0.5,-9.833991050720215,-9.835846900939941,-9.907048225402832,9.73,8.96,-9.809999465942383,17,16
1697465364.79988813,41889904,0.5564159750938416,0.0,0.5657171607017517,0.5,-9.81682300567627,-9.819389343261719,-9.888713836669922,9.73,8.950000000000001,-9.789999961853027,18,17
1697465364.89984822,41989864,0.5561105012893677,0.0,0.566349446773529,0.5,-9.799359321594238,-9.802263259887695,-9.870418548583984,9.73,8.950000000000001,-9.779999732971191,18,17
1697465364.99980807,42089824,0.5544369220733643,0.0,0.5646854043006897,0.5,-9.78165054321289,-9.784466743469238,-9.848929405212402,9.73,8.96,-9.760000228881836,18,18
1697465365.09976816,42189784,0.5522058010101318,0.0,0.5621894001960754,0.5,-9.763781547546387,-9.76603889465332,-9.840468406677246,9.73,8.96,-9.739999771118164,18,18
1697465365.19972801,42289744,0.5515132546424866,0.0,0.5594943761825562,0.5,-9.745789527893066,-9.747515678405762,-9.8272123336792,9.73,8.96,-9.719999313354492,18,18
1697465365.29968810,42389704,0.5539838671684265,0.0,0.5589656233787537,0.5,-9.727704048156738,-9.729422569274902,-9.795429229736328,9.73,8.96,-9.699999809265137,18,18
1697465365.39964819,42489664,0.5560353994369507,0.0,0.5605053305625916,0.5,-9.709541320800781,-9.711224555969238,-9.775218963623047,9.73,8.950000000000001,-9.6899995803833,18,18
1697465365.49960804,42589624,0.5548078417778015,0.0,0.561472475528717,0.5,-9.691285133361816,-9.692535400390625,-9.77228832244873,9.73,8.950000000000001,-9.670000076293945,18,18
1697465365.59956813,42689584,0.5547087788581848,0.0,0.5602741837501526,0.5,-9.672931671142578,-9.67402172088623,-9.753250122070312,9.73,8.92,-9.649999618530273,18,18
1697465365.69952822,42789544,0.5598767399787903,0.0,0.5649791359901428,0.5,-9.654400825500488,-9.655941009521484,-9.727932929992676,9.73,8.91,-9.630000114440918,19,18
1697465365.79948807,42889504,0.562608003616333,0.0,0.568389892578125,0.5,-9.63561725616455,-9.63770866394043,-9.710177421569824,9.73,8.91,-9.609999656677246,19,18
1697465365.89944816,42989464,0.5631613731384277,0.0,0.5697457194328308,0.5,-9.616633415222168,-9.619222640991211,-9.699405670166016,9.73,8.9,-9.59000015258789,19,19
1697465365.99940801,43089424,0.5646896958351135,0.0,0.5712599754333496,0.5,-9.597469329833984,-9.600483894348145,-9.681293487548828,9.73,8.9,-9.579999923706055,20,19
1697465366.09936810,43189384,0.5673277974128723,0.0,0.572504460811615,0.5,-9.578139305114746,-9.581779479980469,-9.66490364074707,9.73,8.9,-9.559999465942383,20,19
1697465366.19932818,43289344,0.5712339282035828,0.0,0.5758283138275146,0.5,-9.558664321899414,-9.563111305236816,-9.634061813354492,9.73,8.88,-9.539999961853027,20,20
1697465366.29928803,43389304,0.5713556408882141,0.0,0.5782660245895386,0.5,-9.538996696472168,-9.54371452331543,-9.624552726745605,9.73,8.88,-9.519999504089355,21,20
1697465366.39924812,43489264,0.5713425874710083,0.0,0.5777591466903687,0.5,-9.51916790008545,-9.524065971374512,-9.589754104614258,9.73,8.88,-9.5,21,20
1697465366.49920821,43589224,0.5698871612548828,0.0,0.5771793723106384,0.5,-9.499218940734863,-9.50373363494873,-9.578423500061035,9.73,8.88,-9.479999542236328,21,21
1697465366.59916806,43689184,0.5680921077728271,0.0,0.5749366283416748,0.5,-9.479179382324219,-9.482977867126465,-9.562840461730957,9.73,8.870000000000001,-9.460000038146973,21,21
1697465366.69996119,43789977,0.5683847665786743,0.0,0.5744320154190063,0.5,-9.458864212036133,-9.462228775024414,-9.53860855102539,9.73,8.870000000000001,-9.4399995803833,21,21
1697465366.79992104,43889937,0.5706928968429565,0.0,0.5749824047088623,0.5,-9.438610076904297,-9.441773414611816,-9.508471488952637,9.73,8.870000000000001,-9.420000076293945,21,21
1697465366.89988112,43989897,0.5705354809761047,0.0,0.5753164291381836,0.5,-9.418278694152832,-9.420945167541504,-9.495484352111816,9.73,8.870000000000001,-9.399999618530273,21,21
1697465366.99984121,44089857,0.569173276424408,0.0,0.5739079117774963,0.5,-9.397892951965332,-9.399953842163086,-9.470929145812988,9.73,8.84,-9.369999885559082,21,21
1697465367.09980106,44189817,0.5685060024261475,0.0,0.5758543610572815,0.5,-9.377363204956055,-9.378905296325684,-9.444036483764648,9.73,8.84,-9.34999942779541,21,21
1697465367.19976115,44289777,0.5674955248832703,0.0,0.5749005079269409,0.5,-9.356640815734863,-9.35745906829834,-9.414728164672852,9.73,8.83,-9.329999923706055,21,21
1697465367.29972100,44389737,0.5644546151161194,0.0,0.5736398100852966,0.5,-9.335739135742188,-9.335343360900879,-9.399965286254883,9.73,8.83,-9.309999465942383,20,21
1697465367.39968109,44489697,0.5606833100318909,0.0,0.567456066608429,0.5,-9.314715385437012,-9.312949180603027,-9.373200416564941,9.73,8.84,-9.289999961853027,20,21
1697465367.49964118,44589657,0.559046745300293,0.0,0.5655141472816467,0.5,-9.293672561645508,-9.290571212768555,-9.354314804077148,9.73,8.84,-9.269999504089355,20,20
1697465367.59960103,44689617,0.5578627586364746,0.0,0.5630380511283875,0.5,-9.272574424743652,-9.268376350402832,-9.348302841186523,9.73,8.84,-9.239999771118164,19,20
1697465367.69956112,44789577,0.5607364177703857,0.0,0.5625744462013245,0.5,-9.251431465148926,-9.2471284866333,-9.331805229187012,9.73,8.84,-9.220000267028809,19,20
1697465367.79952121,44889537,0.5688069462776184,0.0,0.5663540959358215,0.5,-9.230260848999023,-9.227092742919922,-9.29221248626709,9.73,8.83,-9.199999809265137,20,20
1697465367.89948106,44989497,0.5732771754264832,0.0,0.573472797870636,0.5,-9.209027290344238,-9.207098960876465,-9.29069709777832,9.73,8.83,-9.179999351501465,20,20
1697465367.99944115,45089457,0.5759649276733398,0.0,0.5764563679695129,0.5,-9.187718391418457,-9.18730354309082,-9.25252914428711,9.73,8.83,-9.15999984741211,21,20
1697465368.09940100,45189417,0.5766348242759705,0.0,0.5788013339042664,0.5,-9.166354179382324,-9.166839599609375,-9.234635353088379,9.73,8.83,-9.139999389648438,21,20
1697465368.19936109,45289377,0.574015200138092,0.0,0.5780515074729919,0.5,-9.144959449768066,-9.14559268951416,-9.219964027404785,9.73,8.83,-9.119999885559082,21,21
1697465368.29932117,45389337,0.5726087093353271,0.0,0.5768297910690308,0.5,-9.123525619506836,-9.124095916748047,-9.197218894958496,9.73,8.82,-9.09999942779541,21,21
1697465368.39928102,45489297,0.5720175504684448,0.0,0.5761243104934692,0.5,-9.102014541625977,-9.102355003356934,-9.169241905212402,9.73,8.82,-9.079999923706055,21,21
1697465368.49924111,45589257,0.5718166828155518,0.0,0.5753124952316284,0.5,-9.080431938171387,-9.080462455749512,-9.165751457214355,9.73,8.82,-9.059999465942383,21,21
1697465368.59920120,45689217,0.5732641220092773,0.0,0.57474285364151,0.5,-9.058810234069824,-9.059090614318848,-9.130675315856934,9.73,8.82,-9.029999732971191,21,21
1697465368.69999409,45790010,0.5757284760475159,0.0,0.5763959288597107,0.5,-9.036980628967285,-9.037550926208496,-9.120352745056152,9.73,8.82,-9.010000228881836,21,21
1697465368.79995418,45889970,0.577068030834198,0.0,0.5767531991004944,0.5,-9.015320777893066,-9.016448020935059,-9.09571361541748,9.73,8.83,-8.989999771118164,21,21
1697465368.89991403,45989930,0.5799458622932434,0.0,0.5785562992095947,0.5,-8.993714332580566,-8.995469093322754,-9.074670791625977,9.73,8.83,-8.970000267028809,22,21
1697465368.99987411,46089890,0.5804839134216309,0.0,0.5798983573913574,0.5,-8.972146034240723,-8.974446296691895,-9.060120582580566,9.73,8.82,-8.949999809265137,22,21
1697465369.09983420,46189850,0.582155704498291,0.0,0.5821169018745422,0.5,-8.950560569763184,-8.953593254089355,-9.034476280212402,9.73,8.82,-8.929999351501465,22,21
1697465369.19979405,46289810,0.5834423899650574,0.0,0.5837712287902832,0.5,-8.928933143615723,-8.932622909545898,-8.998921394348145,9.73,8.81,-8.90999984741211,22,22
1697465369.29975414,46389770,0.5806176662445068,0.0,0.584972620010376,0.5,-8.90723991394043,-8.91074275970459,-8.989649772644043,9.73,8.81,-8.889999389648438,22,22
1697465369.39971399,46489730,0.5790302157402039,0.0,0.5826871395111084,0.5,-8.885459899902344,-8.888598442077637,-8.961042404174805,9.73,8.81,-8.859999656677246,22,22
1697465369.49967408,46589690,0.5787875056266785,0.0,0.5817427635192871,0.5,-8.863627433776855,-8.866366386413574,-8.942244529724121,9.73,8.81,-8.84000015258789,22,22
1697465369.59963417,46689650,0.5793200135231018,0.0,0.5811077356338501,0.5,-8.841754913330078,-8.844139099121094,-8.921721458435059,9.73,8.81,-8.819999694824219,22,22
1697465369.69959402,46789610,0.5801417827606201,0.0,0.582788348197937,0.5,-8.819832801818848,-8.822096824645996,-8.898921012878418,9.73,8.790000000000001,-8.800000190734863,22,22
1697465369.79955411,46889570,0.5809706449508667,0.0,0.584143340587616,0.5,-8.797760009765625,-8.800121307373047,-8.865324020385742,9.73,8.790000000000001,-8.779999732971191,22,22
1697465369.89951420,46989530,0.5801985263824463,0.0,0.584464967250824,0.5,-8.775579452514648,-8.777652740478516,-8.85849380493164,9.73,8.790000000000001,-8.75,22,22
1697465369.99947405,47089490,0.5803255438804626,0.0,0.5833814144134521,0.5,-8.753314018249512,-8.755182266235352,-8.824203491210938,9.73,8.790000000000001,-8.729999542236328,22,22
1697465370.09943414,47189450,0.5812892317771912,0.0,0.5835850834846497,0.5,-8.730996131896973,-8.732829093933105,-8.80268383026123,9.73,8.78,-8.710000038146973,22,22
1697465370.19939423,47289410,0.5793233513832092,0.0,0.584078848361969,0.5,-8.708600997924805,-8.710002899169922,-8.781332015991211,9.73,8.78,-8.6899995803833,22,22
1697465370.29935408,47389370,0.5786471366882324,0.0,0.5830254554748535,0.5,-8.686120986938477,-8.68704891204834,-8.75409984588623,9.73,8.77,-8.65999984741211,22,22
1697465370.39931417,47489330,0.5780863165855408,0.0,0.5813719630241394,0.5,-8.663565635681152,-8.663909912109375,-8.732672691345215,9.73,8.790000000000001,-8.639999389648438,22,22
1697465370.49927402,47589290,0.5773184299468994,0.0,0.5796413421630859,0.5,-8.641042709350586,-8.640538215637207,-8.716022491455078,9.73,8.790000000000001,-8.619999885559082,22,22
1697465370.59923410,47689250,0.5774865746498108,0.0,0.5758930444717407,0.5,-8.618581771850586,-8.617734909057617,-8.683454513549805,9.73,8.82,-8.59000015258789,22,22
1697465370.69919419,47789210,0.5788842439651489,0.0,0.5753819346427917,0.5,-8.596335411071777,-8.59514331817627,-8.67442798614502,9.73,8.82,-8.569999694824219,21,22
1697465370.79998708,47890003,0.5791756510734558,0.0,0.5763218998908997,0.5,-8.574058532714844,-8.572916984558105,-8.632291793823242,9.73,8.81,-8.550000190734863,21,21
1697465370.89994717,47989963,0.5793517827987671,0.0,0.5778266191482544,0.5,-8.552018165588379,-8.550734519958496,-8.610546112060547,9.73,8.81,-8.529999732971191,21,21
1697465370.99990702,48089923,0.5751218199729919,0.0,0.5784245133399963,0.5,-8.529974937438965,-8.527973175048828,-8.604470252990723,9.73,8.790000000000001,-8.5,21,21
1697465371.09986711,48189883,0.5731664896011353,0.0,0.5744351148605347,0.5,-8.50784683227539,-8.505406379699707,-8.568367958068848,9.73,8.81,-8.479999542236328,21,21
1697465371.19982719,48289843,0.5742164254188538,0.0,0.575197160243988,0.5,-8.485730171203613,-8.482942581176758,-8.559868812561035,9.73,8.790000000000001,-8.460000038146973,21,21
