,TimeUS,timestamp,ThI,ABst,ThO,ThH,DAlt,Alt,BAlt,DSAlt,SAlt,TAlt,DCRt,CRt,terrain_cm,sub_cm,rf_cm,signal_quality
0,8368318,1705603234.3000402,0.2176876068115234,0.0,0.0845271497964859,0.5,-0.150700494647026,-0.069075770676136,-0.0844730511307716,-0.01,0.0,0.0,-27,-3,,,,
1,8468278,1705603234.4,-0.0834705829620361,0.0,0.005064861383289,0.5,-0.1534229069948196,-0.0764470621943473,-0.0963169634342193,-0.01,0.0,0.0,-25,-3,,,,
2,8568238,1705603234.49996,-0.2063952684402465,0.0,0.0,0.5,-0.1561264097690582,-0.0836454257369041,-0.1062547862529754,-0.01,0.0,0.0,-25,-3,,,,
3,8668198,1705603234.5999203,-0.5421977043151855,0.0,0.0,0.5,-0.1637931615114212,-0.0910020694136619,-0.1075422540307045,-0.01,0.0,0.0,-34,-3,,,,
4,8768158,1705603234.69988,-0.8290868997573853,0.0,0.0,0.5,-0.1830075085163116,-0.0981979221105575,-0.1179918721318245,-0.01,0.0,0.0,-50,-3,,,,
5,8868118,1705603234.7998402,-0.4212843179702759,0.0,0.0,0.5,-0.2085400521755218,-0.1065158322453498,-0.1090377867221832,-0.01,0.0,0.0,-65,-17,,,,
6,8968078,1705603234.8998,0.254174530506134,0.0,0.123981736600399,0.5,-0.2435292750597,-0.1522863507270813,-0.1483147293329239,-0.01,0.0,0.0,-70,-57,,,,
7,9068038,1705603234.99976,0.2438020706176757,0.0,0.1820955276489257,0.5,-0.2906939387321472,-0.2197480499744415,-0.212335780262947,-0.01,0.0,0.0,-72,-69,,,,
8,9167998,1705603235.0997202,0.2130567729473114,0.0,0.1966030299663543,0.5,-0.3453320264816284,-0.294184148311615,-0.2912811040878296,-0.01,0.0,0.0,-73,-72,,,,
9,9267958,1705603235.19968,0.2009953260421753,0.0,0.1981326043605804,0.5,-0.4063368737697601,-0.3713741898536682,-0.3704248964786529,-0.01,0.0,0.0,-74,-73,,,,
10,9367918,1705603235.29964,0.1961476802825927,0.0,0.1959830224514007,0.5,-0.4727659225463867,-0.4504017531871795,-0.4301506578922272,-0.01,0.0,0.0,-75,-74,,,,
11,9467878,1705603235.3996003,0.1884084045886993,0.0,0.1919806450605392,0.5,-0.5438158512115479,-0.5301909446716309,-0.5102527141571045,-0.01,0.0,0.0,-77,-75,,,,
12,9567838,1705603235.49956,0.1816059052944183,0.0,0.1861794292926788,0.5,-0.6188023686408997,-0.6106226444244385,-0.6012093424797058,-0.01,0.0,0.0,-79,-76,,,,
13,9667798,1705603235.5995202,0.1754432022571563,0.0,0.1799193620681762,0.5,-0.6971426606178284,-0.6927604675292969,-0.672268807888031,-0.01,0.0,0.0,-81,-78,,,,
14,9767758,1705603235.69948,0.1703090369701385,0.0,0.1743909865617752,0.5,-0.7783401608467102,-0.7766112089157104,-0.7385777831077576,-0.01,0.0,0.0,-83,-80,,,,
15,9867718,1705603235.79944,0.1631616055965423,0.0,0.1687143445014953,0.5,-0.8619714379310608,-0.8612404465675354,-0.8336240649223328,-0.01,0.0,0.0,-84,-81,,,,
16,9967678,1705603235.8994002,0.1575818359851837,0.0,0.1624109745025634,0.5,-0.947676420211792,-0.947079598903656,-0.911531388759613,-0.01,0.0,0.0,-86,-83,,,,
17,10067638,1705603235.99936,0.1523818075656891,0.0,0.1567066311836242,0.5,-1.0351479053497314,-1.0343356132507324,-0.9949673414230348,-0.01,0.0,0.0,-88,-85,,,,
18,10167598,1705603236.09932,0.1479610800743103,0.0,0.1518933176994323,0.5,-1.1241246461868286,-1.1227599382400513,-1.0811415910720823,-0.01,0.0,0.0,-90,-86,,,,
19,10267558,1705603236.1992803,0.1436806619167328,0.0,0.1469082832336425,0.5,-1.2143834829330444,-1.2122703790664673,-1.1582812070846558,-0.01,0.0,0.0,-91,-88,,,,
20,10367518,1705603236.29924,0.1379100978374481,0.0,0.1421540081501007,0.5,-1.3057342767715454,-1.3024386167526243,-1.2392793893814087,-0.01,0.0,0.0,-92,-89,,,,
21,10468311,1705603236.4000332,0.1322811543941497,0.0,0.1369007378816604,0.5,-1.3987884521484375,-1.39362633228302,-1.328912615776062,-0.01,0.0,0.0,-94,-90,,,,
22,10568271,1705603236.499993,0.1258049607276916,0.0,0.1309096068143844,0.5,-1.4918692111968994,-1.4837801456451416,-1.43026864528656,-0.01,0.0,0.0,-95,-92,,,,
23,10668231,1705603236.5999532,0.1224356293678283,0.0,0.1259622424840927,0.5,-1.585624098777771,-1.5760701894760132,-1.5194244384765625,-0.01,0.0,0.0,-96,-93,,,,
24,10768191,1705603236.6999133,0.1205151677131652,0.0,0.1226676329970359,0.5,-1.6799535751342771,-1.6697919368743896,-1.6051857471466064,-0.01,0.0,0.0,-97,-94,,,,
25,10868151,1705603236.799873,0.1171088218688964,0.0,0.1201737597584724,0.5,-1.7747725248336792,-1.7642606496810913,-1.6879758834838867,-0.01,0.0,0.0,-98,-95,,,,
26,10968111,1705603236.8998332,0.1151674091815948,0.0,0.1181486696004867,0.5,-1.8700087070465088,-1.8595210313797,-1.7849059104919434,-0.01,0.0,0.0,-98,-96,,,,
27,11068071,1705603236.999793,0.1088694334030151,0.0,0.1141841560602188,0.5,-1.9656000137329104,-1.953971028327942,-1.9016988277435305,-0.01,0.0,0.0,-99,-96,,,,
28,11168031,1705603237.0997531,0.1105203628540039,0.0,0.1114488840103149,0.5,-2.0614941120147705,-2.0496623516082764,-1.979368567466736,-0.01,0.0,0.0,-99,-97,,,,
29,11267991,1705603237.1997132,0.1070184707641601,0.0,0.1098965257406234,0.5,-2.1576449871063232,-2.1461081504821777,-2.083216667175293,-0.01,0.0,0.0,-99,-98,,,,
30,11367951,1705603237.299673,0.1110009253025055,0.0,0.1088147684931755,0.5,-2.254016399383545,-2.2429511547088623,-2.1784143447875977,-0.01,0.0,0.0,-99,-98,,,,
31,11467911,1705603237.3996332,0.1090469062328338,0.0,0.109128750860691,0.5,-2.3505754470825195,-2.340169668197632,-2.269883632659912,-0.01,0.0,0.0,-99,-98,,,,
32,11567871,1705603237.4995933,0.1074100136756897,0.0,0.1082149520516395,0.5,-2.447293281555176,-2.4373483657836914,-2.368730068206787,-0.01,0.0,0.0,-99,-98,,,,
33,11667831,1705603237.599553,0.1036029756069183,0.0,0.107553943991661,0.5,-2.5441465377807617,-2.53446626663208,-2.457538366317749,-0.01,0.0,0.0,-99,-98,,,,
34,11767791,1705603237.6995132,0.1054701507091522,0.0,0.1056399568915367,0.5,-2.641115665435791,-2.6312897205352783,-2.5693318843841557,-0.01,0.0,0.0,-100,-98,,,,
35,11867751,1705603237.799473,0.1050434708595275,0.0,0.1047825664281845,0.5,-2.7381834983825684,-2.728482961654663,-2.665887355804444,-0.01,0.0,0.0,-100,-99,,,,
36,11967711,1705603237.8994331,0.1033050715923309,0.0,0.1036964952945709,0.5,-2.835336208343506,-2.82630467414856,-2.757188320159912,-0.01,0.0,0.0,-99,-99,,,,
37,12067671,1705603237.9993932,0.1050159633159637,0.0,0.1038737446069717,0.5,-2.9325602054595947,-2.92421555519104,-2.858082771301269,-0.01,0.0,0.0,-99,-99,,,,
38,12167631,1705603238.099353,0.1045393943786621,0.0,0.1044854670763015,0.5,-3.0298449993133545,-3.022092819213867,-2.964508056640625,-0.01,0.0,0.0,-99,-99,,,,
39,12267591,1705603238.1993132,0.1047674119472503,0.0,0.1048221290111541,0.5,-3.127181053161621,-3.120278835296631,-3.0535402297973637,-0.01,0.0,0.0,-99,-99,,,,
40,12367551,1705603238.2992733,0.1058630943298339,0.0,0.1051830053329467,0.5,-3.22456169128418,-3.21846866607666,-3.1563098430633545,-0.01,0.0,0.0,-99,-99,,,,
41,12467511,1705603238.399233,0.1045010387897491,0.0,0.105511799454689,0.5,-3.3219802379608154,-3.3166072368621826,-3.246100902557373,-0.01,0.0,0.0,-99,-98,,,,
42,12568304,1705603238.5000262,0.1056704223155975,0.0,0.1057145893573761,0.5,-3.42024302482605,-3.414314746856689,-3.3488545417785645,-0.01,0.0,0.0,-99,-98,,,,
43,12668264,1705603238.599986,0.1029054224491119,0.0,0.1052826642990112,0.5,-3.517720937728882,-3.511993408203125,-3.4453628063201904,-0.01,0.0,0.0,-99,-98,,,,
44,12768224,1705603238.699946,0.1046190559864044,0.0,0.1043664440512657,0.5,-3.615222692489624,-3.609733819961548,-3.551051616668701,-0.01,0.0,0.0,-99,-98,,,,
45,12868184,1705603238.7999063,0.1088405847549438,0.0,0.105086050927639,0.5,-3.7127437591552734,-3.707874774932861,-3.65484619140625,-0.01,0.0,0.0,-99,-98,,,,
46,12968144,1705603238.899866,0.1072645187377929,0.0,0.1065082550048828,0.5,-3.810282707214356,-3.806585550308228,-3.7557692527771,-0.01,0.0,0.0,-98,-98,,,,
47,13068104,1705603238.999826,0.1064998507499694,0.0,0.1077496856451034,0.5,-3.907835006713867,-3.9065093994140634,-3.836513757705689,-0.01,0.0,0.0,-97,-98,,,,
48,13168064,1705603239.0997863,0.1091593503952026,0.0,0.1093524992465972,0.5,-4.00540018081665,-4.004953861236572,-3.9360547065734863,-0.01,0.0,0.0,-97,-98,,,,
49,13268024,1705603239.199746,0.1098655462265014,0.0,0.1093603670597076,0.5,-4.102974891662598,-4.102694988250732,-4.035189151763916,-0.01,0.0,0.0,-97,-97,,,,
50,13367984,1705603239.2997062,0.110856145620346,0.0,0.1094324961304664,0.5,-4.200557708740234,-4.200080394744873,-4.130695819854736,-0.01,0.0,0.0,-97,-97,,,,
51,13467944,1705603239.399666,0.1077130138874054,0.0,0.1091672629117965,0.5,-4.29815149307251,-4.2972564697265625,-4.219224452972412,-0.01,0.0,0.0,-97,-97,,,,
52,13567904,1705603239.499626,0.1059424877166748,0.0,0.1076336130499839,0.5,-4.39574670791626,-4.393922805786133,-4.33546781539917,-0.01,0.0,0.0,-98,-97,,,,
53,13667864,1705603239.5995862,0.1086653172969818,0.0,0.1070235818624496,0.5,-4.493353366851807,-4.491150379180908,-4.433159351348877,-0.01,0.0,0.0,-98,-98,,,,
54,13767824,1705603239.699546,0.1092908978462219,0.0,0.1075295954942703,0.5,-4.59096097946167,-4.58912992477417,-4.518232822418213,-0.01,0.0,0.0,-98,-98,,,,
55,13867784,1705603239.799506,0.1032798588275909,0.0,0.107187770307064,0.5,-4.688570499420166,-4.686933517456055,-4.614683628082275,-0.01,0.0,0.0,-98,-98,,,,
56,13967744,1705603239.8994663,0.106308490037918,0.0,0.1065600663423538,0.5,-4.786190032958984,-4.784364223480225,-4.712814807891846,-0.01,0.0,0.0,-98,-98,,,,
57,14067704,1705603239.999426,0.1072342097759246,0.0,0.1060816496610641,0.5,-4.883810043334961,-4.881579875946045,-4.83063554763794,-0.01,0.0,0.0,-98,-98,,,,
58,14167664,1705603240.0993862,0.1079098880290985,0.0,0.1068058311939239,0.5,-4.981429576873779,-4.979676246643066,-4.908934116363525,-0.01,0.0,0.0,-98,-98,,,,
59,14267624,1705603240.199346,0.1046175956726074,0.0,0.1075204014778137,0.5,-5.079049110412598,-5.077691555023193,-5.019134998321533,-0.01,0.0,0.0,-98,-98,,,,
60,14367584,1705603240.299306,0.1071817576885223,0.0,0.107222132384777,0.5,-5.176675796508789,-5.175786018371582,-5.114085674285889,-0.01,0.0,0.0,-97,-98,,,,
61,14467544,1705603240.3992662,0.1096436083316803,0.0,0.1085989400744438,0.5,-5.274307727813721,-5.273926258087158,-5.21718692779541,-0.01,0.0,0.0,-97,-97,,,,
62,14567504,1705603240.499226,0.1074476540088653,0.0,0.1089484244585037,0.5,-5.371939659118652,-5.372206687927246,-5.296606540679932,-0.01,0.0,0.0,-97,-97,,,,
63,14668297,1705603240.6000192,0.1080535650253295,0.0,0.109520137310028,0.5,-5.470385074615479,-5.46973991394043,-5.399964332580566,-0.01,0.0,0.0,-97,-97,,,,
64,14768257,1705603240.699979,0.102558821439743,0.0,0.1082846298813819,0.5,-5.56801700592041,-5.566437721252441,-5.49798059463501,-0.01,0.0,0.0,-98,-97,,,,
65,14868217,1705603240.7999392,0.1037435829639434,0.0,0.1056824699044227,0.5,-5.665648937225342,-5.662646770477295,-5.596279621124268,-0.01,0.0,0.0,-98,-97,,,,
66,14968177,1705603240.8998992,0.1023777425289154,0.0,0.1038970202207565,0.5,-5.763280868530273,-5.758872032165527,-5.696290493011475,-0.01,0.0,0.0,-98,-98,,,,
67,15068137,1705603240.999859,0.1016947031021118,0.0,0.10220517963171,0.5,-5.860912322998047,-5.856287479400635,-5.790225505828857,-0.01,0.0,0.0,-99,-98,,,,
68,15168097,1705603241.0998192,0.1004163026809692,0.0,0.1013423725962638,0.5,-5.9585442543029785,-5.953174114227295,-5.897929668426514,-0.01,0.0,0.0,-99,-98,,,,
69,15268057,1705603241.1997793,0.101127803325653,0.0,0.1006141901016235,0.5,-6.05617618560791,-6.050604343414307,-5.99840784072876,-0.01,0.0,0.0,-99,-98,,,,
70,15368017,1705603241.2997391,0.1009065210819244,0.0,0.1005232036113739,0.5,-6.153808116912842,-6.148730278015137,-6.0994648933410645,-0.01,0.0,0.0,-99,-98,,,,
71,15467977,1705603241.3996992,0.1026394963264465,0.0,0.1018188744783401,0.5,-6.251440048217773,-6.247408866882324,-6.192884922027588,-0.01,0.0,0.0,-98,-98,,,,
72,15567937,1705603241.499659,0.104196548461914,0.0,0.1029437258839607,0.5,-6.349071502685547,-6.346134662628174,-6.281691074371338,-0.01,0.0,0.0,-98,-98,,,,
73,15667897,1705603241.5996192,0.1040827333927154,0.0,0.1036303862929344,0.5,-6.446703433990479,-6.444247245788574,-6.387529373168945,-0.01,0.0,0.0,-98,-98,,,,
74,15767857,1705603241.6995792,0.1039602160453796,0.0,0.1035591438412666,0.5,-6.54433536529541,-6.542006492614746,-6.503189563751221,-0.01,0.0,0.0,-98,-98,,,,
75,15867817,1705603241.799539,0.1050080358982086,0.0,0.1039435043931007,0.5,-6.641967296600342,-6.640422821044922,-6.586309909820557,-0.01,0.0,0.0,-98,-98,,,,
76,15967777,1705603241.8994992,0.1040308773517608,0.0,0.1044704467058181,0.5,-6.739599227905273,-6.738998889923096,-6.694905281066895,-0.01,0.0,0.0,-97,-98,,,,
77,16067737,1705603241.9994593,0.1046477556228637,0.0,0.104883849620819,0.5,-6.837230682373047,-6.837656021118164,-6.772950649261475,-0.01,0.0,0.0,-97,-98,,,,
78,16167697,1705603242.099419,0.1101514995098114,0.0,0.1063178032636642,0.5,-6.9348626136779785,-6.935667514801025,-6.877397060394287,-0.01,0.0,0.0,-97,-97,,,,
79,16267657,1705603242.1993792,0.1055478751659393,0.0,0.1066812127828598,0.5,-7.03249454498291,-7.033005714416504,-6.991692543029785,-0.01,0.0,0.0,-97,-97,,,,
80,16367617,1705603242.299339,0.1051536500453949,0.0,0.1065931096673011,0.5,-7.130126476287842,-7.130765914916992,-7.075429916381836,-0.01,0.0,0.0,-97,-97,,,,
81,16467577,1705603242.3992991,0.1061597168445587,0.0,0.1068795174360275,0.5,-7.227758407592773,-7.228708267211914,-7.1795525550842285,-0.01,0.0,0.0,-97,-97,,,,
82,16567537,1705603242.4992592,0.1076360642910003,0.0,0.107577696442604,0.5,-7.325389862060547,-7.326699733734131,-7.278923034667969,-0.01,0.0,0.0,-97,-97,,,,
83,16667497,1705603242.599219,0.1069684922695159,0.0,0.1075304001569747,0.5,-7.4230217933654785,-7.424861431121826,-7.383848190307617,-0.01,0.0,0.0,-97,-97,,,,
84,16768290,1705603242.7000122,0.107861578464508,0.0,0.1083078831434249,0.5,-7.521467208862305,-7.523374557495117,-7.468714237213135,-0.01,0.0,0.0,-97,-97,,,,
85,16868250,1705603242.799972,0.1098945438861846,0.0,0.109960563480854,0.5,-7.619099140167236,-7.621744632720947,-7.576344966888428,-0.01,0.0,0.0,-96,-97,,,,
86,16968210,1705603242.899932,0.1130715608596801,0.0,0.1109169349074363,0.5,-7.716731071472168,-7.720047950744629,-7.65283727645874,-0.01,0.0,0.0,-96,-97,,,,
87,17068170,1705603242.9998922,0.1115226149559021,0.0,0.1120438277721405,0.5,-7.8143630027771,-7.817623138427734,-7.754605293273926,-0.01,0.0,0.0,-96,-96,,,,
88,17168130,1705603243.099852,0.1080650985240936,0.0,0.1113142445683479,0.5,-7.911994457244873,-7.915218353271484,-7.861973285675049,-0.01,0.0,0.0,-96,-96,,,,
89,17268090,1705603243.199812,0.1094972491264343,0.0,0.1104057282209396,0.5,-8.009626388549805,-8.012161254882812,-7.962275981903076,-0.01,0.0,0.0,-96,-96,,,,
90,17368050,1705603243.2997723,0.1089386045932769,0.0,0.1103222370147705,0.5,-8.107257843017578,-8.10970687866211,-8.04850959777832,-0.01,0.0,0.0,-96,-97,,,,
91,17468010,1705603243.399732,0.1105298995971679,0.0,0.1102877333760261,0.5,-8.204890251159668,-8.20722484588623,-8.150038719177246,-0.01,0.0,0.0,-96,-97,,,,
92,17567970,1705603243.4996922,0.1105401217937469,0.0,0.1103912964463234,0.5,-8.302521705627441,-8.304726600646973,-8.246996879577637,-0.01,0.0,0.0,-97,-97,,,,
93,17667930,1705603243.599652,0.1109605729579925,0.0,0.1105922609567642,0.5,-8.400154113769531,-8.402261734008789,-8.334935188293457,-0.01,0.0,0.0,-97,-97,,,,
94,17767890,1705603243.699612,0.1096307933330535,0.0,0.1103757172822952,0.5,-8.497785568237305,-8.499384880065918,-8.443007469177246,-0.01,0.0,0.0,-97,-97,,,,
95,17867850,1705603243.7995722,0.1089081764221191,0.0,0.1104105412960052,0.5,-8.595417022705078,-8.596643447875977,-8.528685569763184,-0.01,0.0,0.0,-97,-97,,,,
96,17967810,1705603243.899532,0.1052936613559722,0.0,0.1094109341502189,0.5,-8.693049430847168,-8.693676948547363,-8.626242637634277,-0.01,0.0,0.0,-97,-97,,,,
97,18067770,1705603243.999492,0.1071638166904449,0.0,0.1077733188867569,0.5,-8.790680885314941,-8.79050064086914,-8.728224754333496,-0.01,0.0,0.0,-97,-97,,,,
98,18167730,1705603244.0994523,0.0654274523258209,0.0,0.026287930086255,0.5,-8.878549575805664,-8.782512664794922,-8.82003402709961,-0.01,0.0,0.0,-126,-111,,,,
99,18267690,1705603244.199412,-0.0029280185699462,0.0,0.0327500477433204,0.5,-8.963977813720703,-8.897891998291016,-8.951709747314453,-0.01,0.0,0.0,-117,-117,,,,
100,18367650,1705603244.2993722,0.0427637994289398,0.0,0.0452541038393974,0.5,-9.061609268188477,-9.015121459960938,-9.062113761901855,-0.01,0.0,0.0,-111,-115,,,,
101,18467610,1705603244.399332,0.0908927917480468,0.0,0.0657045692205429,0.5,-9.159241676330566,-9.129061698913574,-9.169142723083496,-0.01,0.0,0.0,-106,-110,,,,
102,18567570,1705603244.499292,0.1007745265960693,0.0,0.0827392935752868,0.5,-9.25687313079834,-9.238564491271973,-9.28615951538086,-0.01,0.0,0.0,-103,-106,,,,
103,18667530,1705603244.5992522,0.1000104844570159,0.0,0.0931417196989059,0.5,-9.354504585266112,-9.344521522521973,-9.392218589782717,-0.01,0.0,0.0,-100,-103,,,,
104,18768323,1705603244.700045,0.1016108095645904,0.0,0.0995732322335243,0.5,-9.452950477600098,-9.44868278503418,-9.504773139953612,-0.01,0.0,0.0,-98,-101,,,,
105,18868283,1705603244.8000052,0.1081744730472564,0.0,0.103999026119709,0.5,-9.550581932067873,-9.549592971801758,-9.600624084472656,-0.01,0.0,0.0,-97,-100,,,,
106,18968243,1705603244.899965,0.1113987863063812,0.0,0.1081501394510269,0.5,-9.64821434020996,-9.650117874145508,-9.684999465942385,-0.01,0.0,0.0,-97,-99,,,,
107,19068203,1705603244.9999251,0.1100424230098724,0.0,0.1105568185448646,0.5,-9.745845794677734,-9.74890422821045,-9.79399299621582,-0.01,0.0,0.0,-96,-98,,,,
108,19168163,1705603245.0998852,0.108790636062622,0.0,0.1113131120800972,0.5,-9.843478202819824,-9.846742630004885,-9.882052421569824,-0.01,0.0,0.0,-96,-97,,,,
109,19268123,1705603245.199845,0.111322671175003,0.0,0.1108322292566299,0.5,-9.941109657287598,-9.944547653198242,-9.996319770812988,-0.01,0.0,0.0,-96,-97,,,,
110,19368083,1705603245.2998052,0.1136162877082824,0.0,0.1111624464392662,0.5,-10.038741111755373,-10.04172134399414,-10.070306777954102,-0.01,0.0,0.0,-96,-97,,,,
111,19468043,1705603245.3997653,0.1093389093875885,0.0,0.1106990203261375,0.5,-10.13637351989746,-10.138227462768556,-10.182849884033203,-0.01,0.0,0.0,-97,-97,,,,
112,19568003,1705603245.499725,0.1083970963954925,0.0,0.1096982061862945,0.5,-10.234004974365234,-10.234796524047852,-10.280047416687012,-0.01,0.0,0.0,-97,-97,,,,
113,19667963,1705603245.5996852,0.106215626001358,0.0,0.1088776737451553,0.5,-10.331660270690918,-10.331788063049316,-10.38516616821289,-0.01,0.0,0.0,-97,-97,,,,
114,19767923,1705603245.6996453,0.1092607975006103,0.0,0.1083585992455482,0.5,-10.429316520690918,-10.429473876953123,-10.46306037902832,-0.01,0.0,0.0,-97,-97,,,,
115,19867883,1705603245.7996051,0.1721149682998657,0.0,0.1347023695707321,0.5,-10.526571273803713,-10.526519775390623,-10.570791244506836,-0.01,0.0,0.0,-95,-96,,,,
116,19967843,1705603245.8995652,0.2643237113952636,0.0,0.1976747661828994,0.5,-10.618474960327148,-10.618414878845217,-10.668216705322266,-0.01,0.0,0.0,-86,-87,,,,
117,20067803,1705603245.999525,0.2815500795841217,0.0,0.2436509877443313,0.5,-10.698498725891112,-10.69953441619873,-10.736433029174805,-0.01,0.0,0.0,-73,-76,,,,
118,20167763,1705603246.0994852,0.3133113086223602,0.0,0.2826322317123413,0.5,-10.766674041748049,-10.769402503967283,-10.808734893798828,-0.01,0.0,0.0,-62,-66,,,,
119,20267723,1705603246.1994452,0.3439900577068329,0.0,0.3176073729991913,0.5,-10.824751853942873,-10.829264640808104,-10.878812789916992,-0.01,0.0,0.0,-52,-57,,,,
120,20367683,1705603246.299405,0.3722728788852691,0.0,0.3486111462116241,0.5,-10.874231338500977,-10.880617141723633,-10.92280387878418,-0.01,0.0,0.0,-43,-50,,,,
121,20467643,1705603246.3993652,0.3956843018531799,0.0,0.3757079541683197,0.5,-10.916386604309082,-10.924033164978027,-10.981160163879396,-0.01,0.0,0.0,-36,-43,,,,
122,20567603,1705603246.4993253,0.4153538942337036,0.0,0.3983244895935058,0.5,-10.952295303344728,-10.960947036743164,-11.002561569213867,-0.01,0.0,0.0,-30,-37,,,,
123,20667563,1705603246.5992851,0.4308409094810486,0.0,0.4179377555847168,0.5,-10.982891082763672,-10.99157428741455,-11.049267768859863,-0.01,0.0,0.0,-25,-32,,,,
124,20767523,1705603246.6992452,0.4397989511489868,0.0,0.4311352968215942,0.5,-11.008953094482422,-11.01680850982666,-11.075297355651855,-0.01,0.0,0.0,-21,-28,,,,
125,20868316,1705603246.800038,0.4465125501155853,0.0,0.440660148859024,0.5,-11.031328201293944,-11.038004875183104,-11.09819793701172,-0.01,0.0,0.0,-18,-24,,,,
126,20968276,1705603246.899998,0.4502888023853302,0.0,0.4466512203216553,0.5,-11.050222396850586,-11.055211067199709,-11.12965965270996,-0.01,0.0,0.0,-15,-21,,,,
127,21068236,1705603246.9999583,0.4543804824352264,0.0,0.4509648382663727,0.5,-11.06631851196289,-11.070100784301758,-11.13755226135254,-0.01,0.0,0.0,-13,-18,,,,
128,21168196,1705603247.099918,0.4583954811096191,0.0,0.4554815292358398,0.5,-11.080029487609863,-11.082704544067385,-11.168484687805176,-0.01,0.0,0.0,-11,-16,,,,
129,21268156,1705603247.1998782,0.4614816606044769,0.0,0.4587196111679077,0.5,-11.091704368591309,-11.09373664855957,-11.181241035461426,-0.01,0.0,0.0,-10,-14,,,,
130,21368116,1705603247.299838,0.4666137993335724,0.0,0.4628234505653381,0.5,-11.101654052734377,-11.10373878479004,-11.189057350158691,-0.01,0.0,0.0,-8,-12,,,,
131,21468076,1705603247.399798,0.4706417918205261,0.0,0.4677807688713074,0.5,-11.110132217407228,-11.11231517791748,-11.22356414794922,-0.01,0.0,0.0,-7,-10,,,,
132,21568036,1705603247.4997582,0.4690838754177093,0.0,0.4688202440738678,0.5,-11.117353439331056,-11.120341300964355,-11.237942695617676,-0.01,0.0,0.0,-5,-9,,,,
133,21667996,1705603247.599718,0.4774380028247833,0.0,0.4717079997062683,0.5,-11.123507499694824,-11.128252029418944,-11.230868339538574,-0.01,0.0,0.0,-4,-7,,,,
134,21767956,1705603247.699678,0.4902215301990509,0.0,0.4812660217285156,0.5,-11.128748893737791,-11.135220527648926,-11.253460884094238,-0.01,0.0,0.0,-2,-6,,,,
135,21867916,1705603247.7996383,0.5029953122138977,0.0,0.4928163290023803,0.5,-11.133214950561523,-11.141496658325195,-11.258712768554688,-0.01,0.0,0.0,-1,-5,,,,
136,21967876,1705603247.899598,0.5185864567756653,0.0,0.5064395666122437,0.5,-11.137019157409668,-11.14727783203125,-11.265419960021973,-0.01,0.0,0.0,0,-4,,,,
137,22067836,1705603247.9995582,0.535632312297821,0.0,0.5222263336181641,0.5,-11.14026165008545,-11.152463912963867,-11.263345718383787,-0.01,0.0,0.0,0,-3,,,,
138,22167796,1705603248.099518,0.5398442149162292,0.0,0.5360947251319885,0.5,-11.143022537231444,-11.156683921813965,-11.285601615905762,-0.01,0.0,0.0,1,-2,,,,
139,22267756,1705603248.199478,0.5377019643783569,0.0,0.5377602577209473,0.5,-11.145376205444336,-11.160151481628418,-11.270353317260742,-0.01,0.0,0.0,2,-1,,,,
140,22367716,1705603248.2994382,0.5309889316558838,0.0,0.5355376601219177,0.5,-11.147378921508787,-11.16229248046875,-11.28251838684082,-0.01,0.0,0.0,2,0,,,,
141,22467676,1705603248.399398,0.5270391702651978,0.0,0.5290049910545349,0.5,-11.149085998535156,-11.163227081298828,-11.284383773803713,-0.01,0.0,0.0,2,0,,,,
142,22567636,1705603248.499358,0.5161936283111572,0.0,0.5231886506080627,0.5,-11.150542259216309,-11.16362190246582,-11.294673919677734,-0.01,0.0,0.0,2,1,,,,
143,22667596,1705603248.5993183,0.5037288069725037,0.0,0.5129953622817993,0.5,-11.15178108215332,-11.163909912109377,-11.296201705932615,-0.01,0.0,0.0,2,1,,,,
144,22767556,1705603248.699278,0.4913024306297302,0.0,0.5013006329536438,0.5,-11.152835845947266,-11.164206504821776,-11.291023254394531,-0.01,0.0,0.0,2,2,,,,
145,22867516,1705603248.7992382,0.4771994352340698,0.0,0.4885740876197815,0.5,-11.15373420715332,-11.164155960083008,-11.297699928283691,-0.01,0.0,0.0,2,2,,,,
146,22968309,1705603248.900031,0.4594960808753967,0.0,0.4730051159858703,0.5,-11.154507637023926,-11.164146423339844,-11.294560432434082,-0.01,0.0,0.0,2,3,,,,
147,23068269,1705603248.9999912,0.4552372395992279,0.0,0.460604578256607,0.5,-11.155158996582031,-11.163689613342283,-11.271121978759766,-0.01,0.0,0.0,1,3,,,,
148,23168229,1705603249.0999513,0.4496305882930755,0.0,0.4547567069530487,0.5,-11.155716896057127,-11.162307739257812,-11.276199340820312,-0.01,0.0,0.0,1,3,,,,
149,23268189,1705603249.199911,0.4431197941303253,0.0,0.4482345283031463,0.5,-11.1561861038208,-11.1605224609375,-11.270227432250977,-0.01,0.0,0.0,0,2,,,,
150,23368149,1705603249.2998712,0.4400348663330078,0.0,0.4432871341705322,0.5,-11.156591415405272,-11.158666610717772,-11.269527435302734,-0.01,0.0,0.0,0,2,,,,
151,23468109,1705603249.399831,0.4403419494628906,0.0,0.440933883190155,0.5,-11.156937599182127,-11.157095909118652,-11.281115531921388,-0.01,0.0,0.0,0,1,,,,
152,23568069,1705603249.4997911,0.4457521736621856,0.0,0.4424082636833191,0.5,-11.157230377197266,-11.156692504882812,-11.270204544067385,-0.01,0.0,0.0,0,0,,,,
153,23668029,1705603249.5997512,0.4536865353584289,0.0,0.4482901394367218,0.5,-11.157475471496582,-11.156977653503418,-11.269394874572754,-0.01,0.0,0.0,0,0,,,,
154,23767989,1705603249.699711,0.4592084884643554,0.0,0.4546552002429962,0.5,-11.157684326171877,-11.157544136047363,-11.274489402770996,-0.01,0.0,0.0,0,0,,,,
155,23867949,1705603249.7996712,0.463578313589096,0.0,0.4596521556377411,0.5,-11.157872200012209,-11.15841007232666,-11.281083106994627,-0.01,0.0,0.0,0,0,,,,
156,23967909,1705603249.8996313,0.4684270322322845,0.0,0.4643048644065857,0.5,-11.158019065856934,-11.159711837768556,-11.287317276000977,-0.01,0.0,0.0,0,0,,,,
157,24067869,1705603249.999591,0.4668803215026855,0.0,0.4681686162948608,0.5,-11.158163070678713,-11.161474227905272,-11.294132232666016,-0.01,0.0,0.0,0,0,,,,
158,24167829,1705603250.0995512,0.4702080488204956,0.0,0.4687455892562866,0.5,-11.158260345458984,-11.16349983215332,-11.282027244567873,-0.01,0.0,0.0,1,0,,,,
159,24267789,1705603250.199511,0.4718292355537414,0.0,0.4707923233509063,0.5,-11.158358573913574,-11.164913177490234,-11.289578437805176,-0.01,0.0,0.0,1,0,,,,
160,24367749,1705603250.2994711,0.4687548279762268,0.0,0.4704134464263916,0.5,-11.158455848693848,-11.165817260742188,-11.288565635681152,-0.01,0.0,0.0,2,1,,,,
161,24467709,1705603250.3994312,0.4660431146621704,0.0,0.4670902788639068,0.5,-11.1585111618042,-11.166220664978027,-11.280778884887695,-0.01,0.0,0.0,2,1,,,,
162,24567669,1705603250.499391,0.4659531116485595,0.0,0.4664694666862488,0.5,-11.158559799194336,-11.165943145751951,-11.281912803649902,-0.01,0.0,0.0,2,1,,,,
163,24667629,1705603250.5993512,0.4610222578048706,0.0,0.464031308889389,0.5,-11.158608436584473,-11.165224075317385,-11.288778305053713,-0.01,0.0,0.0,1,2,,,,
164,24767589,1705603250.6993113,0.4578645229339599,0.0,0.4602350294589996,0.5,-11.15865707397461,-11.164627075195312,-11.282548904418944,-0.01,0.0,0.0,1,2,,,,
165,24867549,1705603250.799271,0.4568586051464081,0.0,0.4581251740455627,0.5,-11.158705711364746,-11.164072036743164,-11.270334243774414,-0.01,0.0,0.0,1,1,,,,
166,24967509,1705603250.8992312,0.4544824957847595,0.0,0.4565905928611755,0.5,-11.1587553024292,-11.16303539276123,-11.270177841186523,-0.01,0.0,0.0,1,1,,,,
167,25068302,1705603251.000024,0.4502456188201904,0.0,0.4533136785030365,0.5,-11.158802032470703,-11.161638259887695,-11.269636154174805,-0.01,0.0,0.0,0,1,,,,
168,25168262,1705603251.099984,0.4473978877067566,0.0,0.4497042596340179,0.5,-11.158802032470703,-11.160202026367188,-11.288565635681152,-0.01,0.0,0.0,0,1,,,,
169,25268222,1705603251.1999443,0.4499525427818298,0.0,0.448336124420166,0.5,-11.158802032470703,-11.159778594970703,-11.276010513305664,-0.01,0.0,0.0,0,0,,,,
170,25368182,1705603251.299904,0.4583090841770172,0.0,0.4530729949474334,0.5,-11.158802032470703,-11.16018295288086,-11.2744140625,-0.01,0.0,0.0,0,0,,,,
171,25468142,1705603251.3998642,0.4648343920707702,0.0,0.4595848023891449,0.5,-11.158802032470703,-11.1608247756958,-11.28803825378418,-0.01,0.0,0.0,0,0,,,,
172,25568102,1705603251.499824,0.4707370102405548,0.0,0.4654994010925293,0.5,-11.158802032470703,-11.161985397338867,-11.286877632141112,-0.01,0.0,0.0,0,0,,,,
173,25668062,1705603251.599784,0.4679915010929107,0.0,0.4682050943374634,0.5,-11.158802032470703,-11.16347599029541,-11.27863311767578,-0.01,0.0,0.0,1,0,,,,
174,25768022,1705603251.6997442,0.4670909345149994,0.0,0.4679195880889892,0.5,-11.158802032470703,-11.164386749267578,-11.27699851989746,-0.01,0.0,0.0,1,0,,,,
175,25867982,1705603251.799704,0.4667339324951172,0.0,0.4678291976451874,0.5,-11.158802032470703,-11.164504051208496,-11.275673866271973,-0.01,0.0,0.0,1,1,,,,
176,25967942,1705603251.899664,0.4641894698143005,0.0,0.4657188653945923,0.5,-11.158802032470703,-11.1639986038208,-11.26083755493164,-0.01,0.0,0.0,1,1,,,,
177,26067902,1705603251.9996243,0.4561973810195923,0.0,0.4616641402244568,0.5,-11.158802032470703,-11.162577629089355,-11.265694618225098,-0.01,0.0,0.0,1,1,,,,
178,26167862,1705603252.099584,0.4466276168823242,0.0,0.4536418914794922,0.5,-11.158802032470703,-11.160541534423828,-11.272859573364258,-0.01,0.0,0.0,0,1,,,,
179,26267822,1705603252.199544,0.4426823854446411,0.0,0.4464956820011139,0.5,-11.158802032470703,-11.15881061553955,-11.261109352111816,-0.01,0.0,0.0,0,1,,,,
180,26367782,1705603252.2995043,0.4442632794380188,0.0,0.4443858563899994,0.5,-11.158802032470703,-11.157422065734863,-11.277792930603027,-0.01,0.0,0.0,0,0,,,,
181,26467742,1705603252.399464,0.449105441570282,0.0,0.4456658959388733,0.5,-11.158802032470703,-11.157010078430176,-11.270844459533691,-0.01,0.0,0.0,0,0,,,,
182,26567702,1705603252.4994242,0.4579907655715942,0.0,0.4517904818058014,0.5,-11.158802032470703,-11.157536506652832,-11.27007293701172,-0.01,0.0,0.0,0,0,,,,
183,26667662,1705603252.599384,0.4655677378177643,0.0,0.459492951631546,0.5,-11.158802032470703,-11.158487319946287,-11.27088451385498,-0.01,0.0,0.0,0,0,,,,
184,26767622,1705603252.699344,0.4709842801094055,0.0,0.4661476612091064,0.5,-11.158802032470703,-11.159550666809082,-11.264389991760254,-0.01,0.0,0.0,0,0,,,,
185,26867582,1705603252.7993042,0.4696022868156433,0.0,0.4671184122562408,0.5,-11.158802032470703,-11.160138130187988,-11.265637397766112,-0.01,0.0,0.0,0,0,,,,
186,26967542,1705603252.899264,0.4658026397228241,0.0,0.4660534262657165,0.5,-11.158802032470703,-11.160077095031738,-11.27796459197998,-0.01,0.0,0.0,0,0,,,,
187,27067502,1705603252.999224,0.4624713361263275,0.0,0.4641172587871551,0.5,-11.158802032470703,-11.160104751586914,-11.259662628173828,-0.01,0.0,0.0,0,0,,,,
188,27168295,1705603253.100017,0.4606749415397644,0.0,0.4625371992588043,0.5,-11.158802032470703,-11.159751892089844,-11.274879455566406,-0.01,0.0,0.0,0,0,,,,
189,27268255,1705603253.1999772,0.457463800907135,0.0,0.4595342874526977,0.5,-11.158802032470703,-11.159368515014648,-11.263611793518066,-0.01,0.0,0.0,0,0,,,,
190,27368215,1705603253.2999372,0.4563857614994049,0.0,0.4578341245651245,0.5,-11.158802032470703,-11.158928871154783,-11.264849662780762,-0.01,0.0,0.0,0,0,,,,
191,27468175,1705603253.399897,0.4547717571258545,0.0,0.4562088251113891,0.5,-11.158802032470703,-11.158345222473145,-11.274587631225586,-0.01,0.0,0.0,0,0,,,,
192,27568135,1705603253.4998572,0.4560617506504059,0.0,0.4553682804107666,0.5,-11.158802032470703,-11.158177375793455,-11.274470329284668,-0.01,0.0,0.0,0,0,,,,
193,27668095,1705603253.5998173,0.4602838158607483,0.0,0.4572929441928863,0.5,-11.158802032470703,-11.158588409423828,-11.267950057983398,-0.01,0.0,0.0,0,0,,,,
194,27768055,1705603253.6997771,0.464319109916687,0.0,0.4613330662250519,0.5,-11.158802032470703,-11.159131050109863,-11.263345718383787,-0.01,0.0,0.0,0,0,,,,
195,27868015,1705603253.7997372,0.4649787247180938,0.0,0.4640414714813232,0.5,-11.158802032470703,-11.15933322906494,-11.2716703414917,-0.01,0.0,0.0,0,0,,,,
196,27967975,1705603253.899697,0.4636285603046417,0.0,0.4640372097492218,0.5,-11.158802032470703,-11.159424781799316,-11.26292324066162,-0.01,0.0,0.0,0,0,,,,
197,28067935,1705603253.9996572,0.4612004160881042,0.0,0.4630353450775146,0.5,-11.158802032470703,-11.15922737121582,-11.260818481445312,-0.01,0.0,0.0,0,0,,,,
198,28167895,1705603254.0996172,0.4567549526691437,0.0,0.4601527154445648,0.5,-11.158802032470703,-11.15855598449707,-11.27668571472168,-0.01,0.0,0.0,0,0,,,,
199,28267855,1705603254.199577,0.4550045430660248,0.0,0.4565218389034271,0.5,-11.158802032470703,-11.158206939697266,-11.267498970031738,-0.01,0.0,0.0,0,0,,,,
200,28367815,1705603254.2995372,0.4573904573917389,0.0,0.4564884603023529,0.5,-11.158802032470703,-11.15819263458252,-11.26625919342041,-0.01,0.0,0.0,0,0,,,,
201,28467775,1705603254.3994973,0.4594534933567047,0.0,0.4579769968986511,0.5,-11.158802032470703,-11.15822696685791,-11.27107048034668,-0.01,0.0,0.0,0,0,,,,
202,28567735,1705603254.4994571,0.4607901275157928,0.0,0.4595268666744232,0.5,-11.158802032470703,-11.158447265625,-11.27353858947754,-0.01,0.0,0.0,0,0,,,,
203,28667695,1705603254.5994172,0.4636727273464203,0.0,0.4615498781204223,0.5,-11.158802032470703,-11.15895938873291,-11.26286792755127,-0.01,0.0,0.0,0,0,,,,
204,28767655,1705603254.699377,0.4648017883300781,0.0,0.463883101940155,0.5,-11.158802032470703,-11.159235954284668,-11.268994331359863,-0.01,0.0,0.0,0,0,,,,
205,28867615,1705603254.7993371,0.4635267257690429,0.0,0.4640982449054718,0.5,-11.158802032470703,-11.159266471862791,-11.275382041931152,-0.01,0.0,0.0,0,0,,,,
206,28967575,1705603254.8992972,0.4627555608749389,0.0,0.4631547629833221,0.5,-11.158802032470703,-11.159512519836426,-11.258584976196287,-0.01,0.0,0.0,0,0,,,,
207,29067535,1705603254.999257,0.4616054892539978,0.0,0.4628764986991882,0.5,-11.158802032470703,-11.159199714660645,-11.26202392578125,-0.01,0.0,0.0,0,0,,,,
208,29167495,1705603255.0992172,0.4561653733253479,0.0,0.4597531259059906,0.5,-11.158802032470703,-11.158417701721191,-11.268672943115234,-0.01,0.0,0.0,0,0,,,,
209,29268288,1705603255.20001,0.4525665640830993,0.0,0.4553676545619964,0.5,-11.158802032470703,-11.15773868560791,-11.266347885131836,-0.01,0.0,0.0,0,0,,,,
210,29368248,1705603255.29997,0.4532244205474853,0.0,0.4535854756832123,0.5,-11.158802032470703,-11.157294273376465,-11.258082389831545,-0.01,0.0,0.0,0,0,,,,
211,29468208,1705603255.3999302,0.453180730342865,0.0,0.4534052014350891,0.5,-11.158802032470703,-11.156739234924316,-11.264257431030272,-0.01,0.0,0.0,0,0,,,,
212,29568168,1705603255.49989,0.453329861164093,0.0,0.4532460868358612,0.5,-11.158802032470703,-11.156365394592283,-11.254785537719728,-0.01,0.0,0.0,0,0,,,,
213,29668128,1705603255.59985,0.4531826972961426,0.0,0.4534652233123779,0.5,-11.158802032470703,-11.155855178833008,-11.25705623626709,-0.01,0.0,0.0,0,0,,,,
214,29768088,1705603255.6998103,0.4527361094951629,0.0,0.4529635608196258,0.5,-11.158802032470703,-11.155292510986328,-11.268428802490234,-0.01,0.0,0.0,-1,0,,,,
215,29868048,1705603255.79977,0.4544013142585754,0.0,0.4533077180385589,0.5,-11.158802032470703,-11.155319213867188,-11.27587890625,-0.01,0.0,0.0,-1,0,,,,
216,29968008,1705603255.8997302,0.4611696600914001,0.0,0.4565770924091339,0.5,-11.158802032470703,-11.156302452087402,-11.270764350891112,-0.01,0.0,0.0,0,-1,,,,
217,30067968,1705603255.99969,0.4699424803256988,0.0,0.4636300802230835,0.5,-11.158802032470703,-11.15782356262207,-11.276737213134766,-0.01,0.0,0.0,0,-1,,,,
218,30167928,1705603256.09965,0.468467652797699,0.0,0.4687077701091766,0.5,-11.158802032470703,-11.159547805786133,-11.268960952758787,-0.01,0.0,0.0,0,0,,,,
219,30267888,1705603256.1996102,0.4675127863883972,0.0,0.4685342311859131,0.5,-11.158802032470703,-11.160696983337402,-11.270471572875977,-0.01,0.0,0.0,0,0,,,,
220,30367848,1705603256.29957,0.4672391712665558,0.0,0.4669727683067322,0.5,-11.158802032470703,-11.161086082458496,-11.274484634399414,-0.01,0.0,0.0,0,0,,,,
221,30467808,1705603256.39953,0.4658186137676239,0.0,0.4666673541069031,0.5,-11.158802032470703,-11.161163330078123,-11.266357421875,-0.01,0.0,0.0,0,0,,,,
222,30567768,1705603256.4994903,0.4622725546360016,0.0,0.4648058712482452,0.5,-11.158802032470703,-11.160801887512209,-11.258696556091309,-0.01,0.0,0.0,0,0,,,,
223,30667728,1705603256.59945,0.4554838538169861,0.0,0.4604727327823639,0.5,-11.158802032470703,-11.159680366516112,-11.2744140625,-0.01,0.0,0.0,0,0,,,,
224,30767688,1705603256.6994102,0.4501157104969024,0.0,0.4541690647602081,0.5,-11.158802032470703,-11.158610343933104,-11.262542724609377,-0.01,0.0,0.0,0,0,,,,
225,30867648,1705603256.79937,0.4494667649269104,0.0,0.4509707391262054,0.5,-11.158802032470703,-11.157694816589355,-11.265780448913574,-0.01,0.0,0.0,0,0,,,,
226,30967608,1705603256.89933,0.4501247704029083,0.0,0.4500941336154938,0.5,-11.158802032470703,-11.156997680664062,-11.27419090270996,-0.01,0.0,0.0,0,0,,,,
227,31067568,1705603256.9992902,0.4543516039848327,0.0,0.4515074491500854,0.5,-11.158802032470703,-11.157017707824709,-11.276607513427734,-0.01,0.0,0.0,0,0,,,,
228,31167528,1705603257.09925,0.4614772796630859,0.0,0.4562707245349884,0.5,-11.158802032470703,-11.157879829406738,-11.263774871826172,-0.01,0.0,0.0,0,0,,,,
229,31268321,1705603257.2000432,0.4680682420730591,0.0,0.4630694389343261,0.5,-11.158802032470703,-11.15878963470459,-11.26047706604004,-0.01,0.0,0.0,0,0,,,,
230,31368281,1705603257.300003,0.4675193428993225,0.0,0.4670299887657165,0.5,-11.158802032470703,-11.159116744995115,-11.271333694458008,-0.01,0.0,0.0,0,0,,,,
231,31468241,1705603257.3999631,0.4646540284156799,0.0,0.4658471941947937,0.5,-11.158802032470703,-11.15920352935791,-11.267104148864746,-0.01,0.0,0.0,0,0,,,,
232,31568201,1705603257.4999232,0.4622592628002167,0.0,0.4640436470508575,0.5,-11.158802032470703,-11.159154891967772,-11.276384353637695,-0.01,0.0,0.0,0,0,,,,
233,31668161,1705603257.599883,0.4612298905849457,0.0,0.4620977938175201,0.5,-11.158802032470703,-11.159273147583008,-11.267526626586914,-0.01,0.0,0.0,0,0,,,,
234,31768121,1705603257.6998432,0.4617987871170044,0.0,0.4617893397808075,0.5,-11.158802032470703,-11.159369468688965,-11.261362075805664,-0.01,0.0,0.0,0,0,,,,
235,31868081,1705603257.7998033,0.4596277177333832,0.0,0.4611876010894775,0.5,-11.158802032470703,-11.159015655517578,-11.266255378723145,-0.01,0.0,0.0,0,0,,,,
236,31968041,1705603257.899763,0.4559549987316131,0.0,0.4584581255912781,0.5,-11.158802032470703,-11.158417701721191,-11.266424179077148,-0.01,0.0,0.0,0,0,,,,
237,32068001,1705603257.9997232,0.4539522528648376,0.0,0.4557137489318847,0.5,-11.158802032470703,-11.157851219177246,-11.277632713317873,-0.01,0.0,0.0,0,0,,,,
238,32167961,1705603258.099683,0.4559113979339599,0.0,0.4547137916088104,0.5,-11.158802032470703,-11.157882690429688,-11.267114639282228,-0.01,0.0,0.0,0,0,,,,
239,32267921,1705603258.1996431,0.4601199030876159,0.0,0.4574703872203827,0.5,-11.158802032470703,-11.158242225646973,-11.268353462219238,-0.01,0.0,0.0,0,0,,,,
240,32367881,1705603258.2996032,0.4626736938953399,0.0,0.4606398642063141,0.5,-11.158802032470703,-11.158615112304688,-11.267934799194336,-0.01,0.0,0.0,0,0,,,,
241,32467841,1705603258.399563,0.4638113975524902,0.0,0.4626594483852386,0.5,-11.158802032470703,-11.158917427062988,-11.27232265472412,-0.01,0.0,0.0,0,0,,,,
242,32567801,1705603258.4995232,0.4638656377792358,0.0,0.4635468125343323,0.5,-11.158802032470703,-11.159249305725098,-11.276233673095703,-0.01,0.0,0.0,0,0,,,,
243,32667761,1705603258.5994833,0.4653208553791046,0.0,0.4642654657363891,0.5,-11.158802032470703,-11.159774780273438,-11.285335540771484,-0.01,0.0,0.0,0,0,,,,
244,32767721,1705603258.699443,0.4694560468196869,0.0,0.4663768112659454,0.5,-11.158802032470703,-11.160806655883787,-11.286270141601562,-0.01,0.0,0.0,0,0,,,,
245,32867681,1705603258.7994032,0.4672934710979461,0.0,0.4682135283946991,0.5,-11.158802032470703,-11.162216186523438,-11.280311584472656,-0.01,0.0,0.0,1,0,,,,
246,32967641,1705603258.8993633,0.4663891792297363,0.0,0.4678565263748169,0.5,-11.158802032470703,-11.163304328918455,-11.266255378723145,-0.01,0.0,0.0,1,0,,,,
247,33067601,1705603258.9993231,0.4684376716613769,0.0,0.4671660363674164,0.5,-11.158802032470703,-11.163288116455078,-11.27613639831543,-0.01,0.0,0.0,1,1,,,,
248,33167561,1705603259.0992832,0.4620594680309295,0.0,0.4651972651481628,0.5,-11.158802032470703,-11.162650108337402,-11.260933876037598,-0.01,0.0,0.0,1,1,,,,
249,33267521,1705603259.199243,0.4545847177505493,0.0,0.4600503444671631,0.5,-11.158802032470703,-11.161282539367676,-11.271504402160645,-0.01,0.0,0.0,0,1,,,,
250,33368314,1705603259.300036,0.4470441341400146,0.0,0.4526954889297485,0.5,-11.158802032470703,-11.159637451171877,-11.269418716430664,-0.01,0.0,0.0,0,1,,,,
251,33468274,1705603259.3999963,0.4460933208465576,0.0,0.4479593932628631,0.5,-11.158802032470703,-11.158360481262209,-11.264747619628906,-0.01,0.0,0.0,0,0,,,,
252,33568234,1705603259.499956,0.4482796788215637,0.0,0.4474301338195801,0.5,-11.158802032470703,-11.157384872436523,-11.27343463897705,-0.01,0.0,0.0,0,0,,,,
253,33668194,1705603259.5999162,0.4523554742336273,0.0,0.4491990208625793,0.5,-11.158802032470703,-11.157193183898926,-11.267261505126951,-0.01,0.0,0.0,0,0,,,,
254,33768154,1705603259.699876,0.4582705795764923,0.0,0.453926682472229,0.5,-11.158802032470703,-11.157485008239746,-11.264227867126465,-0.01,0.0,0.0,0,0,,,,
255,33868114,1705603259.799836,0.4621888697147369,0.0,0.4588466584682464,0.5,-11.158802032470703,-11.157854080200195,-11.262065887451172,-0.01,0.0,0.0,0,0,,,,
256,33968074,1705603259.8997962,0.4627971649169922,0.0,0.4616625010967254,0.5,-11.158802032470703,-11.158013343811035,-11.26108169555664,-0.01,0.0,0.0,0,0,,,,
257,34068034,1705603259.999756,0.4607820212841034,0.0,0.4617409110069275,0.5,-11.158802032470703,-11.157855987548828,-11.277164459228516,-0.01,0.0,0.0,0,0,,,,
258,34167994,1705603260.099716,0.4607868194580078,0.0,0.4606436192989349,0.5,-11.158802032470703,-11.158174514770508,-11.276856422424316,-0.01,0.0,0.0,0,0,,,,
259,34267954,1705603260.1996763,0.4654045403003692,0.0,0.4623196721076965,0.5,-11.158802032470703,-11.159029006958008,-11.26462459564209,-0.01,0.0,0.0,0,0,,,,
260,34367914,1705603260.299636,0.4682299792766571,0.0,0.465975672006607,0.5,-11.158802032470703,-11.159613609313965,-11.263068199157717,-0.01,0.0,0.0,0,0,,,,
261,34467874,1705603260.3995962,0.4660264849662781,0.0,0.4663175940513611,0.5,-11.158802032470703,-11.159598350524902,-11.262002944946287,-0.01,0.0,0.0,0,0,,,,
262,34567834,1705603260.499556,0.4601070284843445,0.0,0.4637194573879242,0.5,-11.158802032470703,-11.159018516540527,-11.25997829437256,-0.01,0.0,0.0,0,0,,,,
263,34667794,1705603260.599516,0.4534046053886413,0.0,0.4584613442420959,0.5,-11.158802032470703,-11.157973289489746,-11.264838218688965,-0.01,0.0,0.0,0,0,,,,
264,34767754,1705603260.6994762,0.4494929909706116,0.0,0.4530068933963775,0.5,-11.158802032470703,-11.156957626342772,-11.26900863647461,-0.01,0.0,0.0,0,0,,,,
265,34867714,1705603260.799436,0.4505889415740967,0.0,0.4506059288978576,0.5,-11.158802032470703,-11.156465530395508,-11.271485328674316,-0.01,0.0,0.0,0,0,,,,
266,34967674,1705603260.899396,0.4556616544723511,0.0,0.4524634778499603,0.5,-11.158802032470703,-11.156702995300291,-11.2782564163208,-0.01,0.0,0.0,0,0,,,,
267,35067634,1705603260.9993563,0.4637902379035949,0.0,0.4579056203365326,0.5,-11.158802032470703,-11.157835006713867,-11.262405395507812,-0.01,0.0,0.0,0,0,,,,
268,35167594,1705603261.099316,0.4701035022735595,0.0,0.4651037156581878,0.5,-11.158802032470703,-11.158817291259766,-11.27719497680664,-0.01,0.0,0.0,0,0,,,,
269,35267554,1705603261.1992762,0.4669933021068573,0.0,0.4675141274929046,0.5,-11.158802032470703,-11.159871101379396,-11.270861625671388,-0.01,0.0,0.0,0,0,,,,
270,35367514,1705603261.299236,0.4689482450485229,0.0,0.4669565558433532,0.5,-11.158802032470703,-11.160562515258787,-11.275227546691896,-0.01,0.0,0.0,0,0,,,,
271,35468307,1705603261.4000292,0.4681941866874695,0.0,0.4667388498783111,0.5,-11.158802032470703,-11.160995483398438,-11.277644157409668,-0.01,0.0,0.0,0,0,,,,
272,35568267,1705603261.4999893,0.4675335586071014,0.0,0.4669008255004883,0.5,-11.158802032470703,-11.16139030456543,-11.26461696624756,-0.01,0.0,0.0,0,0,,,,
273,35668227,1705603261.5999491,0.4649624824523926,0.0,0.4662491083145141,0.5,-11.158802032470703,-11.161187171936035,-11.269112586975098,-0.01,0.0,0.0,0,0,,,,
274,35768187,1705603261.6999092,0.4589874446392059,0.0,0.4628561437129974,0.5,-11.158802032470703,-11.160491943359377,-11.26565933227539,-0.01,0.0,0.0,0,0,,,,
275,35868147,1705603261.799869,0.4536894559860229,0.0,0.4578901529312134,0.5,-11.158802032470703,-11.15948486328125,-11.265925407409668,-0.01,0.0,0.0,0,0,,,,
276,35968107,1705603261.8998291,0.4498790800571441,0.0,0.4532000720500946,0.5,-11.158802032470703,-11.158369064331056,-11.268181800842283,-0.01,0.0,0.0,0,0,,,,
277,36068067,1705603261.9997892,0.449660450220108,0.0,0.4504840672016144,0.5,-11.158802032470703,-11.157523155212402,-11.271105766296388,-0.01,0.0,0.0,0,0,,,,
278,36168027,1705603262.099749,0.4523079097270965,0.0,0.4506638646125793,0.5,-11.158802032470703,-11.157246589660645,-11.274085998535156,-0.01,0.0,0.0,0,0,,,,
279,36267987,1705603262.1997092,0.4581276178359985,0.0,0.4541827738285064,0.5,-11.158802032470703,-11.157672882080078,-11.274484634399414,-0.01,0.0,0.0,0,0,,,,
280,36367947,1705603262.2996693,0.4651321172714233,0.0,0.45987069606781,0.5,-11.158802032470703,-11.15864372253418,-11.274940490722656,-0.01,0.0,0.0,0,0,,,,
281,36467907,1705603262.399629,0.4714694023132324,0.0,0.4662128686904907,0.5,-11.158802032470703,-11.159865379333496,-11.267311096191406,-0.01,0.0,0.0,0,0,,,,
282,36567867,1705603262.4995892,0.4682079553604126,0.0,0.4674956500530243,0.5,-11.158802032470703,-11.160654067993164,-11.274654388427734,-0.01,0.0,0.0,0,0,,,,
283,36667827,1705603262.599549,0.4622415900230407,0.0,0.4671891629695892,0.5,-11.158802032470703,-11.160995483398438,-11.267192840576172,-0.01,0.0,0.0,0,0,,,,
284,36767787,1705603262.6995091,0.4646579325199127,0.0,0.4660742878913879,0.5,-11.158802032470703,-11.160863876342772,-11.268505096435549,-0.01,0.0,0.0,0,0,,,,
285,36867747,1705603262.7994692,0.4601430296897888,0.0,0.4632822573184967,0.5,-11.158802032470703,-11.160332679748535,-11.27172565460205,-0.01,0.0,0.0,0,0,,,,
286,36967707,1705603262.899429,0.4565852284431457,0.0,0.459367036819458,0.5,-11.158802032470703,-11.159725189208984,-11.26913833618164,-0.01,0.0,0.0,0,0,,,,
287,37067667,1705603262.9993892,0.4547081589698791,0.0,0.4565236866474151,0.5,-11.158802032470703,-11.15915584564209,-11.268390655517578,-0.01,0.0,0.0,0,0,,,,
288,37167627,1705603263.0993493,0.4548991620540619,0.0,0.4551959335803985,0.5,-11.158802032470703,-11.158665657043455,-11.274578094482422,-0.01,0.0,0.0,0,0,,,,
289,37267587,1705603263.199309,0.4563631117343902,0.0,0.4553485810756683,0.5,-11.158802032470703,-11.158576011657717,-11.26849365234375,-0.01,0.0,0.0,0,0,,,,
290,37367547,1705603263.2992692,0.4597690999507904,0.0,0.4575527012348175,0.5,-11.158802032470703,-11.158726692199709,-11.277671813964844,-0.01,0.0,0.0,0,0,,,,
291,37467507,1705603263.399229,0.4633885324001312,0.0,0.4603638648986816,0.5,-11.158802032470703,-11.159259796142578,-11.260214805603027,-0.01,0.0,0.0,0,0,,,,
292,37568300,1705603263.500022,0.4651367366313934,0.0,0.4636940360069275,0.5,-11.158802032470703,-11.159503936767578,-11.260268211364746,-0.01,0.0,0.0,0,0,,,,
293,37668260,1705603263.5999823,0.4612105786800384,0.0,0.4634410738945007,0.5,-11.158802032470703,-11.159074783325195,-11.261726379394531,-0.01,0.0,0.0,0,0,,,,
294,37768220,1705603263.699942,0.4552449882030487,0.0,0.4594042301177978,0.5,-11.158802032470703,-11.158209800720217,-11.27673053741455,-0.01,0.0,0.0,0,0,,,,
295,37868180,1705603263.7999022,0.4533383250236511,0.0,0.4550900459289551,0.5,-11.158802032470703,-11.1577730178833,-11.270564079284668,-0.01,0.0,0.0,0,0,,,,
296,37968140,1705603263.899862,0.4567908644676208,0.0,0.4553512334823608,0.5,-11.158802032470703,-11.157902717590332,-11.268749237060549,-0.01,0.0,0.0,0,0,,,,
297,38068100,1705603263.999822,0.4609701633453369,0.0,0.4582240283489227,0.5,-11.158802032470703,-11.158252716064451,-11.277043342590332,-0.01,0.0,0.0,0,0,,,,
298,38168060,1705603264.0997822,0.4652333557605743,0.0,0.4618354737758636,0.5,-11.158802032470703,-11.159059524536133,-11.262849807739258,-0.01,0.0,0.0,0,0,,,,
299,38268020,1705603264.199742,0.4678830504417419,0.0,0.4657761752605438,0.5,-11.158802032470703,-11.15953540802002,-11.263113021850586,-0.01,0.0,0.0,0,0,,,,
300,38367980,1705603264.299702,0.464886724948883,0.0,0.4657773971557617,0.5,-11.158802032470703,-11.159419059753418,-11.277814865112305,-0.01,0.0,0.0,0,0,,,,
301,38467940,1705603264.3996623,0.4621661901473999,0.0,0.4636495113372803,0.5,-11.158802032470703,-11.159517288208008,-11.275436401367188,-0.01,0.0,0.0,0,0,,,,
302,38567900,1705603264.499622,0.4631015956401825,0.0,0.4629413485527038,0.5,-11.158802032470703,-11.159870147705078,-11.264883041381836,-0.01,0.0,0.0,0,0,,,,
303,38667860,1705603264.5995822,0.463448166847229,0.0,0.4634688198566437,0.5,-11.158802032470703,-11.15986156463623,-11.25917148590088,-0.01,0.0,0.0,0,0,,,,
304,38767820,1705603264.699542,0.45893394947052,0.0,0.4620100557804107,0.5,-11.158802032470703,-11.15916633605957,-11.255331039428713,-0.01,0.0,0.0,0,0,,,,
305,38867780,1705603264.799502,0.4515354633331299,0.0,0.4569764733314514,0.5,-11.158802032470703,-11.15776538848877,-11.262073516845703,-0.01,0.0,0.0,0,0,,,,
306,38967740,1705603264.8994622,0.4459470808506012,0.0,0.4505666494369507,0.5,-11.158802032470703,-11.156323432922363,-11.253826141357422,-0.01,0.0,0.0,0,0,,,,
307,39067700,1705603264.999422,0.4443743526935577,0.0,0.4466410279273987,0.5,-11.158802032470703,-11.154885292053224,-11.259154319763184,-0.01,0.0,0.0,-1,0,,,,
308,39167660,1705603265.099382,0.444912850856781,0.0,0.4451231062412262,0.5,-11.158802032470703,-11.153901100158691,-11.253082275390623,-0.01,0.0,0.0,-1,0,,,,
309,39267620,1705603265.1993423,0.4485401213169098,0.0,0.4465610384941101,0.5,-11.158802032470703,-11.153274536132812,-11.264501571655272,-0.01,0.0,0.0,-1,0,,,,
310,39367580,1705603265.299302,0.4531547427177429,0.0,0.449514091014862,0.5,-11.158802032470703,-11.153481483459473,-11.276433944702148,-0.01,0.0,0.0,-1,-1,,,,
311,39467540,1705603265.399262,0.4628072381019592,0.0,0.4557161629199981,0.5,-11.158802032470703,-11.154988288879396,-11.268037796020508,-0.01,0.0,0.0,-1,-1,,,,
312,39567500,1705603265.4992223,0.4738181233406067,0.0,0.465373545885086,0.5,-11.158802032470703,-11.157001495361328,-11.27547550201416,-0.01,0.0,0.0,0,-1,,,,
313,39668293,1705603265.6000152,0.4732793271541595,0.0,0.4707515835762024,0.5,-11.158802032470703,-11.159136772155762,-11.267711639404297,-0.01,0.0,0.0,0,-1,,,,
314,39768253,1705603265.6999753,0.4747329652309418,0.0,0.4735419452190399,0.5,-11.158802032470703,-11.160565376281738,-11.259678840637209,-0.01,0.0,0.0,0,0,,,,
315,39868213,1705603265.799935,0.467031717300415,0.0,0.4719417691230774,0.5,-11.158802032470703,-11.160725593566896,-11.275465965270996,-0.01,0.0,0.0,0,0,,,,
316,39968173,1705603265.8998952,0.4591329097747803,0.0,0.4649650454521179,0.5,-11.158802032470703,-11.160441398620604,-11.260015487670898,-0.01,0.0,0.0,0,0,,,,
317,40068133,1705603265.9998553,0.4560775756835937,0.0,0.4604571163654327,0.5,-11.158802032470703,-11.159491539001465,-11.278154373168944,-0.01,0.0,0.0,0,0,,,,
318,40168093,1705603266.0998151,0.4528019726276397,0.0,0.4554263651371002,0.5,-11.158802032470703,-11.158892631530762,-11.261091232299805,-0.01,0.0,0.0,0,0,,,,
319,40268053,1705603266.1997752,0.4525659084320068,0.0,0.4537122249603271,0.5,-11.158802032470703,-11.158187866210938,-11.278182983398438,-0.01,0.0,0.0,0,0,,,,
320,40368013,1705603266.299735,0.4548370838165283,0.0,0.4534758925437927,0.5,-11.158802032470703,-11.15811538696289,-11.271302223205566,-0.01,0.0,0.0,0,0,,,,
321,40467973,1705603266.3996952,0.4599912762641907,0.0,0.4564785063266754,0.5,-11.158802032470703,-11.158496856689451,-11.26278305053711,-0.01,0.0,0.0,0,0,,,,
322,40567933,1705603266.4996552,0.4623472392559051,0.0,0.4602203667163849,0.5,-11.158802032470703,-11.15867519378662,-11.265243530273438,-0.01,0.0,0.0,0,0,,,,
323,40667893,1705603266.599615,0.4614721536636352,0.0,0.4614472389221191,0.5,-11.158802032470703,-11.158615112304688,-11.270151138305664,-0.01,0.0,0.0,0,0,,,,
324,40767853,1705603266.6995752,0.460112065076828,0.0,0.4608946144580841,0.5,-11.158802032470703,-11.158610343933104,-11.265758514404297,-0.01,0.0,0.0,0,0,,,,
325,40867813,1705603266.7995353,0.4601060152053833,0.0,0.460367888212204,0.5,-11.158802032470703,-11.158504486083984,-11.27228832244873,-0.01,0.0,0.0,0,0,,,,
326,40967773,1705603266.8994951,0.4600411355495453,0.0,0.460027813911438,0.5,-11.158802032470703,-11.158595085144045,-11.278068542480469,-0.01,0.0,0.0,0,0,,,,
327,41067733,1705603266.9994552,0.4629811346530914,0.0,0.4610515832901001,0.5,-11.158802032470703,-11.159181594848633,-11.26357364654541,-0.01,0.0,0.0,0,0,,,,
328,41167693,1705603267.099415,0.4650702774524688,0.0,0.4636712074279785,0.5,-11.158802032470703,-11.159478187561035,-11.277867317199709,-0.01,0.0,0.0,0,0,,,,
329,41267653,1705603267.1993752,0.4654076397418976,0.0,0.4647264182567596,0.5,-11.158802032470703,-11.159934997558594,-11.271665573120115,-0.01,0.0,0.0,0,0,,,,
330,41367613,1705603267.2993352,0.4664807319641113,0.0,0.4657860398292541,0.5,-11.158802032470703,-11.160334587097168,-11.265336990356444,-0.01,0.0,0.0,0,0,,,,
331,41467573,1705603267.399295,0.4643049538135528,0.0,0.4653372168540954,0.5,-11.158802032470703,-11.160253524780272,-11.27082347869873,-0.01,0.0,0.0,0,0,,,,
332,41567533,1705603267.4992552,0.4602586627006531,0.0,0.4628927707672119,0.5,-11.158802032470703,-11.159893989562988,-11.264458656311035,-0.01,0.0,0.0,0,0,,,,
333,41668326,1705603267.600048,0.4567057490348816,0.0,0.4595679938793182,0.5,-11.158802032470703,-11.1592378616333,-11.275211334228516,-0.01,0.0,0.0,0,0,,,,
334,41768286,1705603267.700008,0.4546472728252411,0.0,0.4562329351902008,0.5,-11.158802032470703,-11.15877914428711,-11.2639741897583,-0.01,0.0,0.0,0,0,,,,
335,41868246,1705603267.7999682,0.4554764330387115,0.0,0.4554178416728973,0.5,-11.158802032470703,-11.158374786376951,-11.27048397064209,-0.01,0.0,0.0,0,0,,,,
336,41968206,1705603267.899928,0.4560397565364837,0.0,0.4555203020572662,0.5,-11.158802032470703,-11.15813446044922,-11.261380195617676,-0.01,0.0,0.0,0,0,,,,
337,42068166,1705603267.999888,0.4566179811954498,0.0,0.4563043415546417,0.5,-11.158802032470703,-11.157854080200195,-11.261198043823242,-0.01,0.0,0.0,0,0,,,,
338,42168126,1705603268.0998483,0.45530566573143,0.0,0.4562009572982788,0.5,-11.158802032470703,-11.15738296508789,-11.272207260131836,-0.01,0.0,0.0,0,0,,,,
339,42268086,1705603268.199808,0.4561142027378082,0.0,0.4555353820323944,0.5,-11.158802032470703,-11.157261848449709,-11.26503086090088,-0.01,0.0,0.0,0,0,,,,
340,42368046,1705603268.2997682,0.4588216543197632,0.0,0.4569261968135834,0.5,-11.158802032470703,-11.1574068069458,-11.277558326721191,-0.01,0.0,0.0,0,0,,,,
341,42468006,1705603268.399728,0.4625681936740875,0.0,0.4594390988349914,0.5,-11.158802032470703,-11.15807056427002,-11.274600982666016,-0.01,0.0,0.0,0,0,,,,
342,42567966,1705603268.499688,0.4684048593044281,0.0,0.4640558958053589,0.5,-11.158802032470703,-11.15916919708252,-11.276515007019045,-0.01,0.0,0.0,0,0,,,,
343,42667926,1705603268.5996482,0.4685213565826416,0.0,0.4672308266162872,0.5,-11.158802032470703,-11.160369873046877,-11.287357330322266,-0.01,0.0,0.0,0,0,,,,
344,42767886,1705603268.699608,0.4693877398967743,0.0,0.4678008556365967,0.5,-11.158802032470703,-11.16175365447998,-11.270135879516602,-0.01,0.0,0.0,0,0,,,,
345,42867846,1705603268.799568,0.4655086994171142,0.0,0.4673108458518982,0.5,-11.158802032470703,-11.162519454956056,-11.281277656555176,-0.01,0.0,0.0,1,0,,,,
346,42967806,1705603268.8995283,0.4678872227668762,0.0,0.4664522707462311,0.5,-11.158802032470703,-11.16280460357666,-11.289082527160645,-0.01,0.0,0.0,1,0,,,,
347,43067766,1705603268.999488,0.4664171040058136,0.0,0.4668362736701965,0.5,-11.158802032470703,-11.163311958312988,-11.271595001220703,-0.01,0.0,0.0,1,0,,,,
348,43167726,1705603269.0994482,0.4670376777648926,0.0,0.4664145410060882,0.5,-11.158802032470703,-11.163384437561035,-11.272676467895508,-0.01,0.0,0.0,1,1,,,,
349,43267686,1705603269.199408,0.4622352421283722,0.0,0.4646224081516266,0.5,-11.158802032470703,-11.16279125213623,-11.260229110717772,-0.01,0.0,0.0,1,1,,,,
350,43367646,1705603269.299368,0.4545761942863464,0.0,0.4600952267646789,0.5,-11.158802032470703,-11.161351203918455,-11.26601505279541,-0.01,0.0,0.0,0,1,,,,
351,43467606,1705603269.3993282,0.4459235966205597,0.0,0.4524092078208923,0.5,-11.158802032470703,-11.159462928771973,-11.275038719177246,-0.01,0.0,0.0,0,1,,,,
352,43567566,1705603269.499288,0.4443584978580475,0.0,0.4465982615947723,0.5,-11.158802032470703,-11.158090591430664,-11.27631664276123,-0.01,0.0,0.0,0,0,,,,
353,43667526,1705603269.599248,0.4499850869178772,0.0,0.4471142590045929,0.5,-11.158802032470703,-11.157715797424316,-11.278154373168944,-0.01,0.0,0.0,0,0,,,,
354,43768319,1705603269.700041,0.4591268301010132,0.0,0.4528239965438843,0.5,-11.158802032470703,-11.158432006835938,-11.268613815307615,-0.01,0.0,0.0,0,0,,,,
355,43868279,1705603269.8000011,0.4668061435222626,0.0,0.4606887996196747,0.5,-11.158802032470703,-11.159320831298828,-11.262714385986328,-0.01,0.0,0.0,0,0,,,,
356,43968239,1705603269.8999612,0.4690142273902893,0.0,0.4663063883781433,0.5,-11.158802032470703,-11.15975570678711,-11.277502059936523,-0.01,0.0,0.0,0,0,,,,
357,44068199,1705603269.999921,0.4654541015625,0.0,0.4664728045463562,0.5,-11.158802032470703,-11.160237312316896,-11.278325080871582,-0.01,0.0,0.0,0,0,,,,
358,44168159,1705603270.0998812,0.4684009552001953,0.0,0.4668426811695099,0.5,-11.158802032470703,-11.160897254943848,-11.27584743499756,-0.01,0.0,0.0,0,0,,,,
359,44268119,1705603270.1998413,0.4674861431121826,0.0,0.4668580293655395,0.5,-11.158802032470703,-11.161458015441896,-11.260995864868164,-0.01,0.0,0.0,0,0,,,,
360,44368079,1705603270.299801,0.4637340605258941,0.0,0.4664864838123321,0.5,-11.158802032470703,-11.16112995147705,-11.272789001464844,-0.01,0.0,0.0,0,0,,,,
361,44468039,1705603270.3997612,0.4595859348773956,0.0,0.4629713296890259,0.5,-11.158802032470703,-11.16050910949707,-11.268580436706545,-0.01,0.0,0.0,0,0,,,,
362,44567999,1705603270.499721,0.4556276202201843,0.0,0.4588615000247955,0.5,-11.158802032470703,-11.15975284576416,-11.257474899291992,-0.01,0.0,0.0,0,0,,,,
363,44667959,1705603270.5996811,0.4512656927108764,0.0,0.4549181163311004,0.5,-11.158802032470703,-11.158474922180176,-11.252347946166992,-0.01,0.0,0.0,0,0,,,,
364,44767919,1705603270.6996412,0.4455446898937225,0.0,0.450067400932312,0.5,-11.158802032470703,-11.156648635864258,-11.255475997924805,-0.01,0.0,0.0,0,0,,,,
365,44867879,1705603270.799601,0.4419424533843994,0.0,0.4449641108512878,0.5,-11.158802032470703,-11.154825210571287,-11.25822925567627,-0.01,0.0,0.0,-1,0,,,,
366,44967839,1705603270.8995612,0.4430275857448578,0.0,0.4427856504917145,0.5,-11.158802032470703,-11.153566360473633,-11.259690284729004,-0.01,0.0,0.0,-1,0,,,,
367,45067799,1705603270.9995213,0.4480252563953399,0.0,0.4448589384555816,0.5,-11.158802032470703,-11.153139114379885,-11.264854431152344,-0.01,0.0,0.0,-1,0,,,,
368,45167759,1705603271.099481,0.4554543495178222,0.0,0.4500225186347961,0.5,-11.158802032470703,-11.153696060180664,-11.256322860717772,-0.01,0.0,0.0,-1,-1,,,,
369,45198579,1705603271.099481,0.4554543495178222,0.0,0.4500225186347961,0.5,-11.158802032470703,-11.153696060180664,-11.256322860717772,-0.01,0.0,0.0,-1,-1,-2000.0,-1115.350789642334,889.0,100.0
370,45267719,1705603271.1994412,0.4625760614871979,0.0,0.4570910334587097,0.5,-11.158802032470703,-11.15455150604248,-11.250603675842283,-0.01,0.0,0.0,-1,-1,-2000.0,-1115.350789642334,889.0,100.0
371,45298490,1705603271.1994412,0.4625760614871979,0.0,0.4570910334587097,0.5,-11.158802032470703,-11.15455150604248,-11.250603675842283,-0.01,0.0,0.0,-1,-1,-2000.0,-1115.4007452487945,879.0,100.0
372,45367679,1705603271.2994013,0.4643897712230682,0.0,0.4621664583683014,0.5,-11.158802032470703,-11.155038833618164,-11.251017570495604,-0.01,0.0,0.0,-1,-1,-2000.0,-1115.4007452487945,879.0,100.0
373,45400609,1705603271.2994013,0.4643897712230682,0.0,0.4621664583683014,0.5,-11.158802032470703,-11.155038833618164,-11.251017570495604,-0.01,0.0,0.0,-1,-1,-2000.0,-1115.4518045902253,878.0,100.0
