,TimeUS,timestamp,ThI,ABst,ThO,ThH,DAlt,Alt,BAlt,DSAlt,SAlt,TAlt,DCRt,CRt,terrain_z,sub_z,rf
0,8290016,1697465331.2,0.0,0.0,0.5,0.5,0.0,-0.0562481731176376,-0.0901012420654296,0.0,0.0,-0.2299999892711639,0,-1,,,
1,8389976,1697465331.29996,0.0,0.0,0.5,0.5,0.0,-0.062957689166069,-0.0839421227574348,0.0,0.0,-0.2299999892711639,0,-1,,,
2,8489936,1697465331.3999202,0.0,0.0,0.5,0.5,0.0,-0.0694424360990524,-0.1074226722121238,0.0,0.0,-0.2299999892711639,0,-1,,,
3,8589896,1697465331.49988,0.0,0.0,0.5,0.5,0.0,-0.0765042677521705,-0.1044993624091148,0.0,0.0,-0.2299999892711639,0,-1,,,
4,8689856,1697465331.59984,0.0,0.0,0.5,0.5,0.0,-0.0839833617210388,-0.0955189764499664,0.0,0.0,-0.2399999946355819,0,-2,,,
5,8789816,1697465331.6998,0.0,0.0,0.5,0.5,0.0,-0.0906768515706062,-0.1007995828986167,0.0,0.0,-0.2399999946355819,0,-2,,,
6,8889776,1697465331.79976,0.0,0.0,0.5,0.5,0.0,-0.0963524803519249,-0.1100653707981109,0.0,0.0,-0.25,0,-2,,,
7,8989736,1697465331.89972,0.0,0.0,0.5,0.5,0.0,-0.1015042439103126,-0.1011639013886451,0.0,0.0,-0.25,0,-2,,,
8,9089696,1697465331.99968,0.0,0.0,0.5,0.5,0.0,-0.1057456731796264,-0.1101458892226219,0.0,0.0,-0.2599999904632568,0,-1,,,
9,9189656,1697465332.09964,0.0,0.0,0.25,0.5,0.0,-0.1173273250460624,-0.1211846321821212,0.0,0.0,-0.2599999904632568,0,-21,,,
10,9289616,1697465332.1996002,0.0,0.0,0.25,0.5,0.0,-0.1494059264659881,-0.1558777093887329,0.0,0.0,-0.2800000011920929,0,-38,,,
11,9389576,1697465332.29956,0.0,0.0,0.25,0.5,0.0,-0.1963046044111251,-0.2083346545696258,0.0,0.0,-0.2800000011920929,0,-49,,,
12,9489536,1697465332.39952,0.0,0.0,0.25,0.5,0.0,-0.2523398399353027,-0.2435331642627716,0.0,0.0,-0.3400000035762787,0,-54,,,
13,9589496,1697465332.49948,0.0,0.0,0.25,0.5,0.0,-0.3127853572368622,-0.3199051320552826,0.0,0.0,-0.3400000035762787,0,-57,,,
14,9689456,1697465332.59944,0.0,0.0,0.25,0.5,0.0,-0.3754100799560547,-0.3804966509342193,0.0,0.0,-0.4399999976158142,0,-59,,,
15,9789416,1697465332.6994,0.0,0.0,0.25,0.5,0.0,-0.4404103457927704,-0.4398254156112671,0.0,0.0,-0.4399999976158142,0,-60,,,
16,9889376,1697465332.79936,0.0,0.0,0.25,0.5,0.0,-0.506406307220459,-0.4926418960094452,0.0,0.0,-0.5600000023841858,0,-60,,,
17,9989336,1697465332.89932,0.0,0.0,0.25,0.5,0.0,-0.5724741220474243,-0.566226065158844,0.0,0.0,-0.5600000023841858,0,-61,,,
18,10089296,1697465332.9992802,0.0,0.0,0.25,0.5,0.0,-0.6392104625701904,-0.6223756670951843,0.0,0.0,-0.6800000071525574,0,-61,,,
19,10189256,1697465333.09924,0.0,0.0,0.25,0.5,0.0,-0.7054095268249512,-0.691806435585022,0.0,0.0,-0.6800000071525574,0,-62,,,
20,10289216,1697465333.1992,0.0,0.0,0.25,0.5,0.0,-0.7716637253761292,-0.7355731725692749,0.0,0.0,-0.7999999523162842,0,-62,,,
21,10390009,1697465333.299993,0.0,0.0,0.25,0.5,0.0,-0.8377659916877747,-0.8144283890724182,0.0,0.0,-0.7999999523162842,0,-62,,,
22,10489969,1697465333.3999531,0.0,0.0,0.25,0.5,0.0,-0.90301513671875,-0.8772233724594116,0.0,0.0,-0.9199999570846558,0,-62,,,
23,10589929,1697465333.4999132,0.0,0.0,0.25,0.5,0.0,-0.9683700203895568,-0.9223971366882324,0.0,0.0,-0.9199999570846558,0,-63,,,
24,10689889,1697465333.599873,0.0,0.0,0.25,0.5,0.0,-1.033036470413208,-0.9915378093719482,0.0,0.0,-1.0399999618530271,0,-63,,,
25,10789849,1697465333.6998332,0.0,0.0,0.25,0.5,0.0,-1.0970265865325928,-1.0475518703460691,0.0,0.0,-1.0399999618530271,0,-63,,,
26,10889809,1697465333.799793,0.0,0.0,0.25,0.5,0.0,-1.1603723764419556,-1.122291088104248,0.0,0.0,-1.1699999570846558,0,-63,,,
27,10989769,1697465333.899753,0.0,0.0,0.25,0.5,0.0,-1.2235671281814575,-1.1731505393981934,0.0,0.0,-1.1699999570846558,0,-63,,,
28,11089729,1697465333.9997132,0.0,0.0,0.25,0.5,0.0,-1.2864681482315063,-1.2350270748138428,0.0,0.0,-1.2899999618530271,0,-63,,,
29,11189689,1697465334.099673,0.0,0.0,0.25,0.5,0.0,-1.3489441871643066,-1.2979058027267456,0.0,0.0,-1.2899999618530271,0,-63,,,
30,11289649,1697465334.1996331,0.0,0.0,0.25,0.5,0.0,-1.4111262559890747,-1.3599202632904053,0.0,0.0,-1.409999966621399,0,-63,,,
31,11389609,1697465334.2995932,0.0,0.0,0.25,0.5,0.0,-1.4730892181396484,-1.4316877126693726,0.0,0.0,-1.409999966621399,0,-63,,,
32,11489569,1697465334.399553,0.0,0.0,0.25,0.5,0.0,-1.535346508026123,-1.4904775619506836,0.0,0.0,-1.5299999713897705,0,-63,,,
33,11589529,1697465334.4995131,0.0,0.0,0.25,0.5,0.0,-1.5977730751037598,-1.55308997631073,0.0,0.0,-1.5299999713897705,0,-63,,,
34,11689489,1697465334.599473,0.0,0.0,0.25,0.5,0.0,-1.660266995429993,-1.6247648000717163,0.0,0.0,-1.649999976158142,0,-63,,,
35,11789449,1697465334.699433,0.0,0.0,0.25,0.5,0.0,-1.7226969003677368,-1.668796181678772,0.0,0.0,-1.649999976158142,0,-63,,,
36,11889409,1697465334.7993932,0.0,0.0,0.25,0.5,0.0,-1.785233736038208,-1.747095823287964,0.0,0.0,-1.7699999809265137,0,-63,,,
37,11989369,1697465334.899353,0.0,0.0,0.25,0.5,0.0,-1.847927451133728,-1.807220220565796,0.0,0.0,-1.7699999809265137,0,-63,,,
38,12089329,1697465334.999313,0.0,0.0,0.25,0.5,0.0,-1.910830020904541,-1.871894121170044,0.0,0.0,-1.8899999856948853,0,-63,,,
39,12189289,1697465335.0992732,0.0,0.0,0.25,0.5,0.0,-1.9744529724121092,-1.9293009042739868,0.0,0.0,-1.8899999856948853,0,-63,,,
40,12289249,1697465335.199233,0.0,0.0,0.25,0.5,0.0,-2.037447452545166,-1.98517382144928,0.0,0.0,-2.009999990463257,0,-63,,,
41,12389209,1697465335.2991931,0.0,0.0,0.25,0.5,0.0,-2.1000399589538574,-2.04844069480896,0.0,0.0,-2.009999990463257,0,-63,,,
42,12490002,1697465335.399986,0.0,0.0,0.25,0.5,0.0,-2.162825107574463,-2.1169021129608154,0.0,0.0,-2.129999876022339,0,-63,,,
43,12589962,1697465335.499946,0.0,0.0,0.25,0.5,0.0,-2.225127935409546,-2.1795058250427246,0.0,0.0,-2.129999876022339,0,-63,,,
44,12689922,1697465335.5999062,0.0,0.0,0.25,0.5,0.0,-2.287287712097168,-2.23615837097168,0.0,0.0,-2.25,0,-63,,,
45,12789882,1697465335.699866,0.0,0.0,0.25,0.5,0.0,-2.348975419998169,-2.2972304821014404,0.0,0.0,-2.25,0,-63,,,
46,12889842,1697465335.799826,0.0,0.0,0.25,0.5,0.0,-2.4101619720458984,-2.3568637371063232,0.0,0.0,-2.369999885559082,0,-63,,,
47,12989802,1697465335.899786,0.0,0.0,0.25,0.5,0.0,-2.4708950519561768,-2.420248031616211,0.0,0.0,-2.369999885559082,0,-62,,,
48,13089762,1697465335.999746,0.0,0.0,0.25,0.5,0.0,-2.531342029571533,-2.466818332672119,0.0,0.0,-2.490000009536743,0,-62,,,
49,13189722,1697465336.099706,0.0,0.0,0.25,0.5,0.0,-2.5911192893981934,-2.546621561050415,0.0,0.0,-2.490000009536743,0,-62,,,
50,13289682,1697465336.199666,0.0,0.0,0.25,0.5,0.0,-2.6508803367614746,-2.609583139419556,0.0,0.0,-2.609999895095825,0,-62,,,
51,13389642,1697465336.299626,0.0,0.0,0.25,0.5,0.0,-2.7111175060272217,-2.657708168029785,0.0,0.0,-2.609999895095825,0,-62,,,
52,13489602,1697465336.3995862,0.0,0.0,0.25,0.5,0.0,-2.771228313446045,-2.729891538619995,0.0,0.0,-2.7300000190734863,0,-62,,,
53,13589562,1697465336.499546,0.0,0.0,0.25,0.5,0.0,-2.8314080238342285,-2.787421941757202,0.0,0.0,-2.7300000190734863,0,-61,,,
54,13689522,1697465336.599506,0.0,0.0,0.25,0.5,0.0,-2.8917415142059326,-2.8541622161865234,0.0,0.0,-2.8499999046325684,0,-61,,,
55,13789482,1697465336.6994662,0.0,0.0,0.25,0.5,0.0,-2.952328681945801,-2.9067163467407227,0.0,0.0,-2.8499999046325684,0,-61,,,
56,13889442,1697465336.799426,0.0,0.0,0.25,0.5,0.0,-3.0123631954193115,-2.9671006202697754,0.0,0.0,-2.9800000190734863,0,-61,,,
57,13989402,1697465336.899386,0.0,0.0,0.25,0.5,0.0,-3.07267165184021,-3.028195858001709,0.0,0.0,-2.9800000190734863,0,-61,,,
58,14089362,1697465336.999346,0.0,0.0,0.25,0.5,0.0,-3.132793426513672,-3.0910611152648926,0.0,0.0,-3.0999999046325684,0,-61,,,
59,14189322,1697465337.099306,0.0,0.0,0.25,0.5,0.0,-3.192868947982788,-3.159976959228516,0.0,0.0,-3.0999999046325684,0,-61,,,
60,14289282,1697465337.1992662,0.0,0.0,0.25,0.5,0.0,-3.2537920475006104,-3.221351146697998,0.0,0.0,-3.220000028610229,0,-61,,,
61,14389242,1697465337.299226,0.0,0.0,0.25,0.5,0.0,-3.314687490463257,-3.2782835960388184,0.0,0.0,-3.220000028610229,0,-61,,,
62,14489202,1697465337.399186,0.0,0.0,0.25,0.5,0.0,-3.375800371170044,-3.348489284515381,0.0,0.0,-3.3399999141693115,0,-61,,,
63,14589995,1697465337.499979,0.0,0.0,0.25,0.5,0.0,-3.4378819465637207,-3.4021804332733154,0.0,0.0,-3.3399999141693115,0,-61,,,
64,14689955,1697465337.599939,0.0,0.0,0.25,0.5,0.0,-3.4995639324188232,-3.475778818130493,0.0,0.0,-3.4600000381469727,0,-61,,,
65,14789915,1697465337.6998992,0.0,0.0,0.25,0.5,0.0,-3.561797380447388,-3.5235259532928467,0.0,0.0,-3.4600000381469727,0,-61,,,
66,14889875,1697465337.799859,0.0,0.0,0.25,0.5,0.0,-3.62397050857544,-3.5853211879730225,0.0,0.0,-3.5799999237060547,0,-61,,,
67,14989835,1697465337.8998191,0.0,0.0,0.25,0.5,0.0,-3.6859071254730233,-3.656022787094116,0.0,0.0,-3.5799999237060547,0,-61,,,
68,15089795,1697465337.9997792,0.0,0.0,0.25,0.5,0.0,-3.748084306716919,-3.7171356678009033,0.0,0.0,-3.6999998092651367,0,-61,,,
69,15189755,1697465338.099739,0.0,0.0,0.25,0.5,0.0,-3.810513496398926,-3.7808139324188232,0.0,0.0,-3.6999998092651367,0,-61,,,
70,15289715,1697465338.1996992,0.0,0.0,0.25,0.5,0.0,-3.873233556747437,-3.832033634185791,0.0,0.0,-3.819999933242798,0,-61,,,
71,15389675,1697465338.299659,0.0,0.0,0.25,0.5,0.0,-3.935687780380249,-3.892323732376098,0.0,0.0,-3.819999933242798,0,-61,,,
72,15489635,1697465338.399619,0.0,0.0,0.25,0.5,0.0,-3.997714042663574,-3.96457839012146,0.0,0.0,-3.93999981880188,0,-61,,,
73,15589595,1697465338.4995792,0.0,0.0,0.25,0.5,0.0,-4.059891223907471,-4.029280185699463,0.0,0.0,-3.93999981880188,0,-61,,,
74,15689555,1697465338.599539,0.0,0.0,0.25,0.5,0.0,-4.122445106506348,-4.095900058746338,0.0,0.0,-4.059999942779541,0,-61,,,
75,15789515,1697465338.6994991,0.0,0.0,0.25,0.5,0.0,-4.185507774353027,-4.155374050140381,0.0,0.0,-4.059999942779541,0,-61,,,
76,15889475,1697465338.7994592,0.0,0.0,0.25,0.5,0.0,-4.24885368347168,-4.21314811706543,0.0,0.0,-4.179999828338623,0,-62,,,
77,15989435,1697465338.899419,0.0,0.0,0.25,0.5,0.0,-4.311608791351318,-4.261772155761719,0.0,0.0,-4.179999828338623,0,-62,,,
78,16089395,1697465338.9993792,0.0,0.0,0.25,0.5,0.0,-4.374129295349121,-4.331053256988525,0.0,0.0,-4.299999713897705,0,-62,,,
79,16189355,1697465339.099339,0.0,0.0,0.25,0.5,0.0,-4.4362473487854,-4.402703285217285,0.0,0.0,-4.299999713897705,0,-62,,,
80,16289315,1697465339.199299,0.0,0.0,0.25,0.5,0.0,-4.498620986938477,-4.4488067626953125,0.0,0.0,-4.420000076293945,0,-62,,,
81,16389275,1697465339.2992592,0.0,0.0,0.25,0.5,0.0,-4.561090469360352,-4.524149417877197,0.0,0.0,-4.420000076293945,0,-62,,,
82,16489235,1697465339.399219,0.0,0.0,0.25,0.5,0.0,-4.622842311859131,-4.573720455169678,0.0,0.0,-4.539999961853027,0,-62,,,
83,16589195,1697465339.4991791,0.0,0.0,0.25,0.5,0.0,-4.684056758880615,-4.648733139038086,0.0,0.0,-4.539999961853027,0,-62,,,
84,16689988,1697465339.599972,0.0,0.0,0.25,0.5,0.0,-4.745680809020996,-4.701976299285889,0.0,0.0,-4.670000076293945,0,-61,,,
85,16789948,1697465339.699932,0.0,0.0,0.25,0.5,0.0,-4.806728363037109,-4.763832092285156,0.0,0.0,-4.670000076293945,0,-61,,,
86,16889908,1697465339.799892,0.0,0.0,0.25,0.5,0.0,-4.867620468139648,-4.816574573516846,0.0,0.0,-4.789999961853027,0,-61,,,
87,16989868,1697465339.899852,0.0,0.0,0.25,0.5,0.0,-4.928084373474121,-4.891034126281738,0.0,0.0,-4.789999961853027,0,-61,,,
88,17089828,1697465339.999812,0.0,0.0,0.25,0.5,0.0,-4.988593101501465,-4.947757720947266,0.0,0.0,-4.909999847412109,0,-61,,,
89,17189788,1697465340.0997722,0.0,0.0,0.25,0.5,0.0,-5.049257278442383,-5.017202854156494,0.0,0.0,-4.909999847412109,0,-61,,,
90,17289748,1697465340.199732,0.0,0.0,0.25,0.5,0.0,-5.110265731811523,-5.078896045684815,0.0,0.0,-5.019999980926514,0,-61,,,
91,17389708,1697465340.299692,0.0,0.0,0.25,0.5,0.0,-5.171746253967285,-5.137091159820557,0.0,0.0,-5.019999980926514,0,-61,,,
92,17489668,1697465340.399652,0.0,0.0,0.25,0.5,0.0,-5.233452796936035,-5.2081403732299805,0.0,0.0,-5.150000095367432,0,-61,,,
93,17589628,1697465340.499612,0.0,0.0,0.25,0.5,0.0,-5.295607089996338,-5.256673336029053,0.0,0.0,-5.150000095367432,0,-61,,,
94,17689588,1697465340.599572,0.0,0.0,0.25,0.5,0.0,-5.357749938964844,-5.329189300537109,0.0,0.0,-5.269999980926514,0,-61,,,
95,17789548,1697465340.699532,0.0,0.0,0.25,0.5,0.0,-5.420004367828369,-5.380455017089844,0.0,0.0,-5.269999980926514,0,-61,,,
96,17889508,1697465340.799492,0.0,0.0,0.25,0.5,0.0,-5.48213529586792,-5.456379890441895,0.0,0.0,-5.389999866485596,0,-61,,,
97,17989468,1697465340.8994522,0.0,0.0,0.25,0.5,0.0,-5.543985366821289,-5.502175331115723,0.0,0.0,-5.389999866485596,0,-61,,,
98,18089428,1697465340.999412,0.0,0.0,0.25,0.5,0.0,-5.546174049377441,-5.567661762237549,0.0,0.0,-5.509999752044678,0,-61,,,
99,18189388,1697465341.099372,0.0,0.0,0.25,0.5,0.0,-5.608046531677246,-5.636989116668701,0.0,0.0,-5.509999752044678,0,-61,,,
100,18289348,1697465341.199332,0.0,0.0,0.25,0.5,0.0,-5.670073509216309,-5.703094005584717,0.0,0.0,-5.62999963760376,0,-61,,,
101,18389308,1697465341.299292,0.0,0.0,0.25,0.5,0.0,-5.732538223266602,-5.754721641540527,0.0,0.0,-5.62999963760376,0,-61,,,
102,18489268,1697465341.399252,0.0,0.0,0.25,0.5,0.0,-5.795506954193115,-5.818382263183594,0.0,0.0,-5.75,0,-61,,,
103,18589228,1697465341.499212,0.0,0.0,0.25,0.5,0.0,-5.857760429382324,-5.87094783782959,0.0,0.0,-5.75,0,-61,,,
104,18689188,1697465341.599172,0.0,0.0,0.25,0.5,0.0,-5.919519424438477,-5.9437127113342285,0.0,0.0,-5.869999885559082,0,-61,,,
105,18789981,1697465341.699965,0.0,0.0,0.25,0.5,0.0,-5.981650352478027,-6.006297111511231,0.0,0.0,-5.869999885559082,0,-61,,,
106,18889941,1697465341.799925,0.0,0.0,0.25,0.5,0.0,-6.04354190826416,-6.060530185699463,0.0,0.0,-5.989999771118164,0,-61,,,
107,18989901,1697465341.8998852,0.0,0.0,0.25,0.5,0.0,-6.105297088623047,-6.129571914672852,0.0,0.0,-5.989999771118164,0,-61,,,
108,19089861,1697465341.999845,0.0,0.0,0.25,0.5,0.0,-6.167194843292236,-6.193851470947266,0.0,0.0,-6.109999656677246,0,-61,,,
109,19189821,1697465342.099805,0.0,0.0,0.25,0.5,0.0,-6.229403018951416,-6.238444805145264,0.0,0.0,-6.109999656677246,0,-61,,,
110,19289781,1697465342.1997652,0.0,0.0,0.25,0.5,0.0,-6.291059970855713,-6.310882568359375,0.0,0.0,-6.230000019073486,0,-61,,,
111,19389741,1697465342.299725,0.0,0.0,0.25,0.5,0.0,-6.352549076080322,-6.368102073669434,0.0,0.0,-6.230000019073486,0,-61,,,
112,19489701,1697465342.3996851,0.0,0.0,0.25,0.5,0.0,-6.413862228393555,-6.43805742263794,0.0,0.0,-6.349999904632568,0,-61,,,
113,19589661,1697465342.4996448,0.0,0.0,0.25,0.5,0.0,-6.475376605987549,-6.490222454071045,0.0,0.0,-6.349999904632568,0,-61,,,
114,19689621,1697465342.599605,0.0,0.0,0.25,0.5,0.0,-6.536715030670166,-6.556290626525879,0.0,0.0,-6.480000019073486,0,-61,,,
115,19789581,1697465342.6995652,0.0,0.0,0.25,0.5,0.0,-6.598014831542969,-6.619777679443359,0.0,0.0,-6.480000019073486,0,-61,,,
116,19889541,1697465342.799525,0.0,0.0,0.25,0.5,0.0,-6.659434795379639,-6.676756381988525,0.0,0.0,-6.599999904632568,0,-61,,,
117,19989501,1697465342.899485,0.0,0.0,0.25,0.5,0.0,-6.720764636993408,-6.731673240661621,0.0,0.0,-6.599999904632568,0,-61,,,
118,20089461,1697465342.9994452,0.0,0.0,0.25,0.5,0.0,-6.781148433685303,-6.802821159362793,0.0,0.0,-6.71999979019165,0,-61,,,
119,20189421,1697465343.099405,0.0,0.0,0.25,0.5,0.0,-6.842100143432617,-6.858124256134033,0.0,0.0,-6.71999979019165,0,-61,,,
120,20289381,1697465343.1993651,0.0,0.0,0.25,0.5,0.0,-6.90295934677124,-6.914887428283691,0.0,0.0,-6.839999675750732,0,-61,,,
121,20389341,1697465343.2993252,0.0,0.0,0.25,0.5,0.0,-6.963468074798584,-6.98893404006958,0.0,0.0,-6.839999675750732,0,-61,,,
122,20489301,1697465343.399285,0.0,0.0,0.25,0.5,0.0,-7.024780750274658,-7.057732105255127,0.0,0.0,-6.960000038146973,0,-61,,,
123,20589261,1697465343.4992452,0.0,0.0,0.25,0.5,0.0,-7.086326122283936,-7.115871429443359,0.0,0.0,-6.960000038146973,0,-61,,,
124,20689221,1697465343.599205,0.0,0.0,0.25,0.5,0.0,-7.14841890335083,-7.175299167633057,0.0,0.0,-7.079999923706055,0,-61,,,
125,20790014,1697465343.699998,0.0,0.0,0.25,0.5,0.0,-7.211275100708008,-7.237665176391602,0.0,0.0,-7.079999923706055,0,-61,,,
126,20889974,1697465343.7999582,0.0,0.0,0.25,0.5,0.0,-7.273767471313477,-7.305273532867432,0.0,0.0,-7.199999809265137,0,-61,,,
127,20989934,1697465343.899918,0.0,0.0,0.25,0.5,0.0,-7.336289405822754,-7.358433723449707,0.0,0.0,-7.199999809265137,0,-61,,,
128,21089894,1697465343.999878,0.0,0.0,0.25,0.5,0.0,-7.398481369018555,-7.419384002685547,0.0,0.0,-7.319999694824219,0,-61,,,
129,21189854,1697465344.099838,0.0,0.0,0.25,0.5,0.0,-7.460205078125,-7.482159614562988,0.0,0.0,-7.319999694824219,0,-61,,,
130,21289814,1697465344.199798,0.0,0.0,0.25,0.5,0.0,-7.521617889404297,-7.553892612457275,0.0,0.0,-7.440000057220459,0,-61,,,
131,21389774,1697465344.2997582,0.0,0.0,0.25,0.5,0.0,-7.583244323730469,-7.616386413574219,0.0,0.0,-7.440000057220459,0,-61,,,
132,21489734,1697465344.399718,0.0,0.0,0.25,0.5,0.0,-7.645338535308838,-7.663398265838623,0.0,0.0,-7.559999942779541,0,-61,,,
133,21589694,1697465344.499678,0.0,0.0,0.25,0.5,0.0,-7.707231044769287,-7.737027168273926,0.0,0.0,-7.559999942779541,0,-61,,,
134,21689654,1697465344.5996382,0.0,0.0,0.25,0.5,0.0,-7.769124984741211,-7.795994281768799,0.0,0.0,-7.679999828338623,0,-61,,,
135,21789614,1697465344.699598,0.0,0.0,0.25,0.5,0.0,-7.831161975860596,-7.864429950714111,0.0,0.0,-7.679999828338623,0,-61,,,
136,21889574,1697465344.799558,0.0,0.0,0.25,0.5,0.0,-7.893492698669434,-7.921591758728027,0.0,0.0,-7.799999713897705,0,-61,,,
137,21989534,1697465344.899518,0.0,0.0,0.25,0.5,0.0,-7.9559807777404785,-7.974855899810791,0.0,0.0,-7.799999713897705,0,-61,,,
138,22089494,1697465344.999478,0.0,0.0,0.25,0.5,0.0,-8.018121719360352,-8.046026229858398,0.0,0.0,-7.919999599456787,0,-61,,,
139,22189454,1697465345.099438,0.0,0.0,0.25,0.5,0.0,-8.079668045043945,-8.108366966247559,0.0,0.0,-7.919999599456787,0,-61,,,
140,22289414,1697465345.199398,0.0,0.0,0.25,0.5,0.0,-8.141884803771973,-8.16057014465332,0.0,0.0,-8.039999961853027,0,-61,,,
141,22389374,1697465345.299358,0.0,0.0,0.25,0.5,0.0,-8.203837394714355,-8.220592498779297,0.0,0.0,-8.039999961853027,0,-61,,,
142,22489334,1697465345.3993182,0.0,0.0,0.25,0.5,0.0,-8.265318870544434,-8.288914680480957,0.0,0.0,-8.15999984741211,0,-61,,,
143,22589294,1697465345.499278,0.0,0.0,0.25,0.5,0.0,-8.327207565307617,-8.34955883026123,0.0,0.0,-8.15999984741211,0,-61,,,
144,22689254,1697465345.599238,0.0,0.0,0.25,0.5,0.0,-8.38862133026123,-8.407180786132812,0.0,0.0,-8.289999961853027,0,-61,,,
145,22789214,1697465345.699198,0.0,0.0,0.25,0.5,0.0,-8.449892044067383,-8.469514846801758,0.0,0.0,-8.289999961853027,0,-61,,,
146,22890007,1697465345.7999911,0.0,0.0,0.25,0.5,0.0,-8.511528015136719,-8.544584274291992,0.0,0.0,-8.40999984741211,0,-61,,,
147,22989967,1697465345.8999512,0.0,0.0,0.25,0.5,0.0,-8.573095321655273,-8.59582233428955,0.0,0.0,-8.40999984741211,0,-61,,,
148,23089927,1697465345.999911,0.0,0.0,0.25,0.5,0.0,-8.634905815124512,-8.665871620178223,0.0,0.0,-8.529999732971191,0,-61,,,
149,23189887,1697465346.0998712,0.0,0.0,0.25,0.5,0.0,-8.697007179260254,-8.707775115966797,0.0,0.0,-8.529999732971191,0,-61,,,
150,23289847,1697465346.199831,0.0,0.0,0.25,0.5,0.0,-8.75870132446289,-8.78583812713623,0.0,0.0,-8.649999618530273,0,-61,,,
151,23389807,1697465346.299791,0.0,0.0,0.25,0.5,0.0,-8.820317268371582,-8.857760429382324,0.0,0.0,-8.649999618530273,0,-61,,,
152,23489767,1697465346.3997512,0.0,0.0,0.25,0.5,0.0,-8.882627487182617,-8.916622161865234,0.0,0.0,-8.769999504089355,0,-61,,,
153,23589727,1697465346.499711,0.0,0.0,0.25,0.5,0.0,-8.945520401000977,-8.969860076904297,0.0,0.0,-8.769999504089355,0,-61,,,
154,23689687,1697465346.5996711,0.0,0.0,0.25,0.5,0.0,-9.008389472961426,-9.040949821472168,0.0,0.0,-8.880000114440918,0,-61,,,
155,23789647,1697465346.6996312,0.0,0.0,0.25,0.5,0.0,-9.071380615234377,-9.098672866821287,0.0,0.0,-8.880000114440918,0,-62,,,
156,23889607,1697465346.799591,0.0,0.0,0.25,0.5,0.0,-9.134446144104004,-9.16030502319336,0.0,0.0,-9.010000228881836,0,-62,,,
157,23989567,1697465346.8995512,0.0,0.0,0.25,0.5,0.0,-9.197422981262209,-9.211572647094728,0.0,0.0,-9.010000228881836,0,-62,,,
158,24089527,1697465346.999511,0.0,0.0,0.25,0.5,0.0,-9.259870529174805,-9.29101276397705,0.0,0.0,-9.119999885559082,0,-62,,,
159,24189487,1697465347.099471,0.0,0.0,0.25,0.5,0.0,-9.322375297546388,-9.352352142333984,0.0,0.0,-9.119999885559082,0,-62,,,
160,24289447,1697465347.1994312,0.0,0.0,0.25,0.5,0.0,-9.384733200073242,-9.404995918273926,0.0,0.0,-9.25,0,-62,,,
161,24389407,1697465347.299391,0.0,0.0,0.25,0.5,0.0,-9.44748592376709,-9.473175048828123,0.0,0.0,-9.25,0,-62,,,
162,24489367,1697465347.3993511,0.0,0.0,0.25,0.5,0.0,-9.510173797607422,-9.529644966125488,0.0,0.0,-9.369999885559082,0,-62,,,
163,24589327,1697465347.4993112,0.0,0.0,0.25,0.5,0.0,-9.572702407836914,-9.597740173339844,0.0,0.0,-9.369999885559082,0,-62,,,
164,24689287,1697465347.599271,0.0,0.0,0.25,0.5,0.0,-9.635757446289062,-9.648429870605469,0.0,0.0,-9.489999771118164,0,-62,,,
165,24789247,1697465347.6992311,0.0,0.0,0.25,0.5,0.0,-9.69785213470459,-9.704666137695312,0.0,0.0,-9.489999771118164,0,-62,,,
166,24889207,1697465347.799191,0.0,0.0,0.25,0.5,0.0,-9.759262084960938,-9.782279014587402,0.0,0.0,-9.609999656677246,0,-62,,,
167,24990000,1697465347.899984,0.0,0.0,0.25,0.5,0.0,-9.821362495422363,-9.847436904907228,0.0,0.0,-9.609999656677246,0,-62,,,
168,25089960,1697465347.9999442,0.0,0.0,0.25,0.5,0.0,-9.883447647094728,-9.902215003967283,0.0,0.0,-9.729999542236328,0,-62,,,
169,25189920,1697465348.099904,0.0,0.0,0.25,0.5,0.0,-9.94565486907959,-9.955987930297852,0.0,0.0,-9.729999542236328,0,-62,,,
170,25289880,1697465348.199864,0.0,0.0,0.25,0.5,0.0,-10.00746726989746,-10.02144718170166,0.0,0.0,-9.84999942779541,0,-62,,,
171,25389840,1697465348.299824,0.0,0.0,0.25,0.5,0.0,-10.069037437438965,-10.082124710083008,0.0,0.0,-9.84999942779541,0,-62,,,
172,25489800,1697465348.399784,0.0,0.0,0.25,0.5,0.0,-10.130435943603516,-10.134112358093262,0.0,0.0,-9.969999313354492,0,-62,,,
173,25589760,1697465348.499744,0.0,0.0,0.25,0.5,0.0,-10.191253662109377,-10.1968355178833,0.0,0.0,-9.969999313354492,0,-62,,,
174,25689720,1697465348.599704,0.0,0.0,0.25,0.5,0.0,-10.25141716003418,-10.27158546447754,0.0,0.0,-10.09999942779541,0,-61,,,
175,25789680,1697465348.699664,0.1530253887176513,0.0,0.2238727211952209,0.5,-10.313968658447266,-10.310404777526855,-10.329506874084473,0.0,0.0,-10.09999942779541,-66,-60,,,
176,25889640,1697465348.7996242,0.211205780506134,0.0,0.2057805806398391,0.5,-10.38232707977295,-10.372763633728027,-10.387654304504396,0.0,0.0,-10.210000038146973,-74,-66,,,
177,25989600,1697465348.899584,0.2710832357406616,0.0,0.2351066321134567,0.5,-10.45395278930664,-10.439127922058104,-10.452454566955566,0.0,0.0,-10.210000038146973,-75,-67,,,
178,26089560,1697465348.999544,0.3677945733070373,0.0,0.2977613508701324,0.5,-10.52122402191162,-10.50307559967041,-10.53046989440918,0.0,0.0,-10.34000015258789,-67,-61,,,
179,26189520,1697465349.099504,0.5204019546508789,0.0,0.415547102689743,0.5,-10.576152801513672,-10.558603286743164,-10.580385208129885,0.0,0.0,-10.34000015258789,-51,-50,,,
180,26289480,1697465349.199464,0.5258902311325073,0.0,0.4833950102329254,0.5,-10.61418914794922,-10.601616859436035,-10.640939712524414,0.0,0.0,-10.460000038146973,-34,-38,,,
181,26389440,1697465349.299424,0.6042587757110596,0.0,0.5476528406143188,0.5,-10.639640808105469,-10.634714126586914,-10.673800468444824,0.0,0.0,-10.460000038146973,-22,-30,,,
182,26489400,1697465349.399384,0.6186537146568298,0.0,0.596476674079895,0.5,-10.656671524047852,-10.66086483001709,-10.69052505493164,0.0,0.0,-10.539999961853027,-12,-22,,,
183,26589360,1697465349.499344,0.6061444878578186,0.0,0.6079546809196472,0.5,-10.668061256408691,-10.679089546203612,-10.718459129333496,0.0,0.0,-10.539999961853027,-5,-15,,,
184,26590000,1697465349.499344,0.6061444878578186,0.0,0.6079546809196472,0.5,-10.668061256408691,-10.679089546203612,-10.718459129333496,0.0,0.0,-10.539999961853027,-5,-15,-20.0,-10.101238998031617,9.803761001968384
185,26689320,1697465349.5993042,0.5870859026908875,0.0,0.5989598631858826,0.5,-10.675684928894045,-10.690199851989746,-10.718732833862305,0.0,9.73,-10.59000015258789,-1,-9,-20.0,-10.101238998031617,9.803761001968384
186,26698000,1697465349.5993042,0.5870859026908875,0.0,0.5989598631858826,0.5,-10.675684928894045,-10.690199851989746,-10.718732833862305,0.0,9.73,-10.59000015258789,-1,-9,-20.0,-10.160772117233275,9.744227882766722
187,26789280,1697465349.699264,0.5638014078140259,0.0,0.581432044506073,0.5,-10.680781364440918,-10.695483207702637,-10.730464935302734,9.73,9.73,-10.59000015258789,0,-5,-20.0,-10.160772117233275,9.744227882766722
188,26792000,1697465349.699264,0.5638014078140259,0.0,0.581432044506073,0.5,-10.680781364440918,-10.695483207702637,-10.730464935302734,9.73,9.73,-10.59000015258789,0,-5,-20.0,-10.212564572143558,9.692435427856442
189,26889240,1697465349.799224,0.5390122532844543,0.0,0.5629413723945618,0.5,-10.68412971496582,-10.696473121643066,-10.742476463317873,9.73,9.61,-10.619999885559082,1,-2,-20.0,-10.212564572143558,9.692435427856442
190,26897000,1697465349.799224,0.5390122532844543,0.0,0.5629413723945618,0.5,-10.68412971496582,-10.696473121643066,-10.742476463317873,9.73,9.61,-10.619999885559082,1,-2,-20.0,-10.280752285766605,9.624247714233396
191,26989200,1697465349.8991842,0.5168213844299316,0.0,0.5456596612930298,0.5,-10.68588161468506,-10.695033073425291,-10.735450744628906,9.73,9.61,-10.619999885559082,1,0,-20.0,-10.280752285766605,9.624247714233396
192,26992000,1697465349.8991842,0.5168213844299316,0.0,0.5456596612930298,0.5,-10.68588161468506,-10.695033073425291,-10.735450744628906,9.73,9.61,-10.619999885559082,1,0,-20.0,-10.342332527991568,9.562667472008432
193,27089993,1697465349.999977,0.5081052184104919,0.0,0.5284887552261353,0.5,-10.68631076812744,-10.691886901855469,-10.739737510681152,9.73,9.54,-10.630000114440918,1,1,-20.0,-10.342332527991568,9.562667472008432
194,27100000,1697465349.999977,0.5081052184104919,0.0,0.5284887552261353,0.5,-10.68631076812744,-10.691886901855469,-10.739737510681152,9.73,9.54,-10.630000114440918,1,1,-20.0,-10.406478928669843,9.498521071330154
195,27189953,1697465350.0999372,0.4930033385753631,0.0,0.5178551077842712,0.5,-10.685564994812012,-10.687906265258787,-10.740045547485352,9.73,9.48,-10.630000114440918,1,1,-20.0,-10.406478928669843,9.498521071330154
196,27190000,1697465350.0999372,0.4930033385753631,0.0,0.5178551077842712,0.5,-10.685564994812012,-10.687906265258787,-10.740045547485352,9.73,9.48,-10.630000114440918,1,1,-20.0,-10.460115527343753,9.444884472656248
197,27289913,1697465350.199897,0.4830617606639862,0.0,0.5069460868835449,0.5,-10.683719635009766,-10.68346881866455,-10.728586196899414,9.73,9.42,-10.630000114440918,2,2,-20.0,-10.460115527343753,9.444884472656248
198,27297000,1697465350.199897,0.4830617606639862,0.0,0.5069460868835449,0.5,-10.683719635009766,-10.68346881866455,-10.728586196899414,9.73,9.42,-10.630000114440918,2,2,-20.0,-10.502885913085938,9.40211408691406
199,27389873,1697465350.2998571,0.4692727327346802,0.0,0.4956455826759338,0.5,-10.68081283569336,-10.678279876708984,-10.724136352539062,9.73,9.38,-10.630000114440918,2,3,-20.0,-10.502885913085938,9.40211408691406
200,27390000,1697465350.2998571,0.4692727327346802,0.0,0.4956455826759338,0.5,-10.68081283569336,-10.678279876708984,-10.724136352539062,9.73,9.38,-10.630000114440918,2,3,-20.0,-10.539970568847655,9.365029431152344
201,27489833,1697465350.3998172,0.4611749947071075,0.0,0.4856097996234894,0.5,-10.676957130432127,-10.672194480895996,-10.73425006866455,9.73,9.34,-10.619999885559082,2,4,-20.0,-10.539970568847655,9.365029431152344
202,27589000,1697465350.3998172,0.4611749947071075,0.0,0.4856097996234894,0.5,-10.676957130432127,-10.672194480895996,-10.73425006866455,9.73,9.34,-10.619999885559082,2,4,-20.0,-10.589966108322145,9.315033891677857
203,27589793,1697465350.499777,0.4464899599552154,0.0,0.4731179475784302,0.5,-10.672123908996582,-10.665884971618652,-10.729138374328612,9.73,9.34,-10.619999885559082,3,4,-20.0,-10.589966108322145,9.315033891677857
204,27689753,1697465350.5997372,0.4545849859714508,0.0,0.4672318696975708,0.5,-10.666460990905762,-10.65964126586914,-10.709854125976562,9.73,9.28,-10.619999885559082,4,5,-20.0,-10.589966108322145,9.315033891677857
205,27693000,1697465350.5997372,0.4545849859714508,0.0,0.4672318696975708,0.5,-10.666460990905762,-10.65964126586914,-10.709854125976562,9.73,9.28,-10.619999885559082,4,5,-20.0,-10.605542914581298,9.299457085418702
206,27789000,1697465350.5997372,0.4545849859714508,0.0,0.4672318696975708,0.5,-10.666460990905762,-10.65964126586914,-10.709854125976562,9.73,9.28,-10.619999885559082,4,5,-20.0,-10.61998324127197,9.285016758728029
207,27789713,1697465350.699697,0.4526943266391754,0.0,0.4688069820404053,0.5,-10.659942626953123,-10.652972221374512,-10.719944953918455,9.73,9.28,-10.619999885559082,4,5,-20.0,-10.61998324127197,9.285016758728029
208,27889673,1697465350.799657,0.4566517770290375,0.0,0.4700877964496612,0.5,-10.652667999267578,-10.646132469177246,-10.720499992370604,9.73,9.25,-10.609999656677246,5,6,-20.0,-10.61998324127197,9.285016758728029
209,27898000,1697465350.799657,0.4566517770290375,0.0,0.4700877964496612,0.5,-10.652667999267578,-10.646132469177246,-10.720499992370604,9.73,9.25,-10.609999656677246,5,6,-20.0,-10.625447640467172,9.279552359532827
210,27989633,1697465350.8996172,0.4655519127845764,0.0,0.4746000468730926,0.5,-10.64467430114746,-10.639578819274902,-10.69897747039795,9.73,9.25,-10.609999656677246,6,6,-20.0,-10.625447640467172,9.279552359532827
211,27990000,1697465350.8996172,0.4655519127845764,0.0,0.4746000468730926,0.5,-10.64467430114746,-10.639578819274902,-10.69897747039795,9.73,9.25,-10.609999656677246,6,6,-20.0,-10.63,9.275
212,28089593,1697465350.999577,0.4794111549854278,0.0,0.4839602410793304,0.5,-10.636058807373049,-10.632619857788086,-10.708420753479004,9.73,9.25,-10.59999942779541,7,7,-20.0,-10.63,9.275
213,28096000,1697465350.999577,0.4794111549854278,0.0,0.4839602410793304,0.5,-10.636058807373049,-10.632619857788086,-10.708420753479004,9.73,9.25,-10.59999942779541,7,7,-20.0,-10.63,9.275
214,28189000,1697465350.999577,0.4794111549854278,0.0,0.4839602410793304,0.5,-10.636058807373049,-10.632619857788086,-10.708420753479004,9.73,9.25,-10.59999942779541,7,7,-20.0,-10.629906778335572,9.275093221664427
215,28189553,1697465351.0995371,0.4955030381679535,0.0,0.4963278472423553,0.5,-10.62692165374756,-10.625558853149414,-10.69352912902832,9.73,9.25,-10.59999942779541,8,7,-20.0,-10.629906778335572,9.275093221664427
216,28289513,1697465351.1994972,0.5161479711532593,0.0,0.5126673579216003,0.5,-10.617351531982422,-10.6183443069458,-10.690373420715332,9.73,9.25,-10.59000015258789,10,7,-20.0,-10.629906778335572,9.275093221664427
217,28299000,1697465351.1994972,0.5161479711532593,0.0,0.5126673579216003,0.5,-10.617351531982422,-10.6183443069458,-10.690373420715332,9.73,9.25,-10.59000015258789,10,7,-20.0,-10.624452953338624,9.280547046661376
218,28389473,1697465351.299457,0.5363492965698242,0.0,0.5312533974647522,0.5,-10.607427597045898,-10.610974311828612,-10.676319122314451,9.73,9.27,-10.59000015258789,11,8,-20.0,-10.624452953338624,9.280547046661376
219,28392000,1697465351.299457,0.5363492965698242,0.0,0.5312533974647522,0.5,-10.607427597045898,-10.610974311828612,-10.676319122314451,9.73,9.27,-10.59000015258789,11,8,-20.0,-10.62,9.285
220,28489433,1697465351.3994172,0.5374333262443542,0.0,0.54160475730896,0.5,-10.597272872924805,-10.60285472869873,-10.67698860168457,9.73,9.27,-10.579999923706056,11,9,-20.0,-10.62,9.285
221,28498000,1697465351.3994172,0.5374333262443542,0.0,0.54160475730896,0.5,-10.597272872924805,-10.60285472869873,-10.67698860168457,9.73,9.27,-10.579999923706056,11,9,-20.0,-10.62,9.285
222,28589393,1697465351.499377,0.5360042452812195,0.0,0.5440332889556885,0.5,-10.586939811706545,-10.593916893005373,-10.660764694213867,9.73,9.27,-10.579999923706056,12,10,-20.0,-10.62,9.285
223,28592000,1697465351.499377,0.5360042452812195,0.0,0.5440332889556885,0.5,-10.586939811706545,-10.593916893005373,-10.660764694213867,9.73,9.27,-10.579999923706056,12,10,-20.0,-10.619802486801149,9.285197513198852
224,28689353,1697465351.599337,0.5326031446456909,0.0,0.5424177646636963,0.5,-10.576455116271973,-10.584003448486328,-10.65837574005127,9.73,9.27,-10.559999465942385,12,10,-20.0,-10.619802486801149,9.285197513198852
225,28789313,1697465351.6992972,0.5273085832595825,0.0,0.5378535389900208,0.5,-10.5658540725708,-10.573390007019045,-10.651995658874512,9.73,9.27,-10.559999465942385,12,11,-20.0,-10.619802486801149,9.285197513198852
226,28791000,1697465351.6992972,0.5273085832595825,0.0,0.5378535389900208,0.5,-10.5658540725708,-10.573390007019045,-10.651995658874512,9.73,9.27,-10.559999465942385,12,11,-20.0,-10.609806539916992,9.295193460083008
227,28889273,1697465351.799257,0.5232365727424622,0.0,0.5312982201576233,0.5,-10.555176734924316,-10.562475204467772,-10.636855125427246,9.73,9.29,-10.550000190734863,12,11,-20.0,-10.609806539916992,9.295193460083008
228,28897000,1697465351.799257,0.5232365727424622,0.0,0.5312982201576233,0.5,-10.555176734924316,-10.562475204467772,-10.636855125427246,9.73,9.29,-10.550000190734863,12,11,-20.0,-10.60457635154724,9.300423648452758
229,28989233,1697465351.8992171,0.5251603722572327,0.0,0.5302131175994873,0.5,-10.544559478759766,-10.551615715026855,-10.62226676940918,9.73,9.29,-10.550000190734863,12,11,-20.0,-10.60457635154724,9.300423648452758
230,28992000,1697465351.8992171,0.5251603722572327,0.0,0.5302131175994873,0.5,-10.544559478759766,-10.551615715026855,-10.62226676940918,9.73,9.29,-10.550000190734863,12,11,-20.0,-10.599796652463402,9.305203347536596
231,29089193,1697465351.9991772,0.5239478945732117,0.0,0.5303424000740051,0.5,-10.533975601196287,-10.54059886932373,-10.60793399810791,9.73,9.29,-10.529999732971191,12,11,-20.0,-10.599796652463402,9.305203347536596
232,29101000,1697465351.9991772,0.5239478945732117,0.0,0.5303424000740051,0.5,-10.533975601196287,-10.54059886932373,-10.60793399810791,9.73,9.29,-10.529999732971191,12,11,-20.0,-10.594424916635646,9.310575083364354
233,29189986,1697465352.09997,0.5273773074150085,0.0,0.5306078791618347,0.5,-10.523341178894045,-10.529254913330078,-10.603199005126951,9.73,9.29,-10.529999732971191,12,11,-20.0,-10.594424916635646,9.310575083364354
234,29190000,1697465352.09997,0.5273773074150085,0.0,0.5306078791618347,0.5,-10.523341178894045,-10.529254913330078,-10.603199005126951,9.73,9.29,-10.529999732971191,12,11,-20.0,-10.58999342689514,9.315006573104858
235,29289946,1697465352.19993,0.5272173285484314,0.0,0.5295286178588867,0.5,-10.51279640197754,-10.518028259277344,-10.59961986541748,9.73,9.29,-10.510000228881836,12,11,-20.0,-10.58999342689514,9.315006573104858
236,29297000,1697465352.19993,0.5272173285484314,0.0,0.5295286178588867,0.5,-10.51279640197754,-10.518028259277344,-10.59961986541748,9.73,9.29,-10.510000228881836,12,11,-20.0,-10.584638068771362,9.320361931228636
237,29389000,1697465352.19993,0.5272173285484314,0.0,0.5295286178588867,0.5,-10.51279640197754,-10.518028259277344,-10.59961986541748,9.73,9.29,-10.510000228881836,12,11,-20.0,-10.580015838241575,9.324984161758422
238,29389906,1697465352.29989,0.5258693695068359,0.0,0.5266252160072327,0.5,-10.502305030822754,-10.507356643676758,-10.576180458068848,9.73,9.31,-10.510000228881836,11,11,-20.0,-10.580015838241575,9.324984161758422
239,29489866,1697465352.39985,0.5250089168548584,0.0,0.5246632695198059,0.5,-10.491952896118164,-10.496631622314451,-10.566030502319336,9.73,9.31,-10.489999771118164,11,11,-20.0,-10.580015838241575,9.324984161758422
240,29497000,1697465352.39985,0.5250089168548584,0.0,0.5246632695198059,0.5,-10.491952896118164,-10.496631622314451,-10.566030502319336,9.73,9.31,-10.489999771118164,11,11,-20.0,-10.56932000656128,9.33567999343872
241,29589826,1697465352.4998102,0.5207610130310059,0.0,0.5215175747871399,0.5,-10.481719970703123,-10.485748291015623,-10.552830696105955,9.73,9.32,-10.489999771118164,11,11,-20.0,-10.56932000656128,9.33567999343872
242,29590000,1697465352.4998102,0.5207610130310059,0.0,0.5215175747871399,0.5,-10.481719970703123,-10.485748291015623,-10.552830696105955,9.73,9.32,-10.489999771118164,11,11,-20.0,-10.560009741973875,9.344990258026122
243,29689786,1697465352.59977,0.5117095112800598,0.0,0.5148584842681885,0.5,-10.471636772155762,-10.474674224853516,-10.551681518554688,9.73,9.33,-10.460000038146973,10,11,-20.0,-10.560009741973875,9.344990258026122
244,29697000,1697465352.59977,0.5117095112800598,0.0,0.5148584842681885,0.5,-10.471636772155762,-10.474674224853516,-10.551681518554688,9.73,9.33,-10.460000038146973,10,11,-20.0,-10.5546330619812,9.350366938018798
245,29789746,1697465352.69973,0.5016160011291504,0.0,0.5055943131446838,0.5,-10.46171760559082,-10.46390438079834,-10.53549861907959,9.73,9.33,-10.460000038146973,10,11,-20.0,-10.5546330619812,9.350366938018798
246,29791000,1697465352.69973,0.5016160011291504,0.0,0.5055943131446838,0.5,-10.46171760559082,-10.46390438079834,-10.53549861907959,9.73,9.33,-10.460000038146973,10,11,-20.0,-10.549915436253404,9.355084563746596
247,29889706,1697465352.79969,0.4922076463699341,0.0,0.4964884221553802,0.5,-10.451912879943848,-10.453251838684082,-10.528572082519531,9.73,9.33,-10.449999809265137,10,11,-20.0,-10.549915436253404,9.355084563746596
248,29989666,1697465352.89965,0.4827463328838348,0.0,0.4873432219028473,0.5,-10.442187309265137,-10.442791938781738,-10.513687133789062,9.73,9.33,-10.449999809265137,9,11,-20.0,-10.549915436253404,9.355084563746596
249,29991000,1697465352.89965,0.4827463328838348,0.0,0.4873432219028473,0.5,-10.442187309265137,-10.442791938781738,-10.513687133789062,9.73,9.33,-10.449999809265137,9,11,-20.0,-10.529707221984864,9.375292778015137
250,30089626,1697465352.99961,0.4691103398799896,0.0,0.4747866988182068,0.5,-10.4325590133667,-10.43233585357666,-10.52038860321045,9.73,9.37,-10.429999351501465,9,11,-20.0,-10.529707221984864,9.375292778015137
251,30095000,1697465352.99961,0.4691103398799896,0.0,0.4747866988182068,0.5,-10.4325590133667,-10.43233585357666,-10.52038860321045,9.73,9.37,-10.429999351501465,9,11,-20.0,-10.519314556121826,9.385685443878174
252,30189586,1697465353.09957,0.4688390791416168,0.0,0.4635446071624756,0.5,-10.423190116882324,-10.422697067260742,-10.506936073303224,9.73,9.37,-10.429999351501465,9,10,-20.0,-10.519314556121826,9.385685443878174
253,30190000,1697465353.09957,0.4688390791416168,0.0,0.4635446071624756,0.5,-10.423190116882324,-10.422697067260742,-10.506936073303224,9.73,9.37,-10.429999351501465,9,10,-20.0,-10.50980640411377,9.39519359588623
254,30289546,1697465353.19953,0.4742211699485779,0.0,0.464646428823471,0.5,-10.414031982421877,-10.41409969329834,-10.495308876037598,9.73,9.38,-10.40999984741211,9,10,-20.0,-10.50980640411377,9.39519359588623
255,30296000,1697465353.19953,0.4742211699485779,0.0,0.464646428823471,0.5,-10.414031982421877,-10.41409969329834,-10.495308876037598,9.73,9.38,-10.40999984741211,9,10,-20.0,-10.499245414733888,9.405754585266113
256,30389506,1697465353.2994902,0.4779647886753082,0.0,0.4693354964256286,0.5,-10.405067443847656,-10.406201362609863,-10.480956077575684,9.73,9.38,-10.40999984741211,9,9,-20.0,-10.499245414733888,9.405754585266113
257,30390000,1697465353.2994902,0.4779647886753082,0.0,0.4693354964256286,0.5,-10.405067443847656,-10.406201362609863,-10.480956077575684,9.73,9.38,-10.40999984741211,9,9,-20.0,-10.48966597557068,9.41533402442932
258,30489466,1697465353.39945,0.4751875400543213,0.0,0.4685646891593933,0.5,-10.396288871765137,-10.398358345031738,-10.47827434539795,9.73,9.4,-10.380000114440918,9,9,-20.0,-10.48966597557068,9.41533402442932
259,30497000,1697465353.39945,0.4751875400543213,0.0,0.4685646891593933,0.5,-10.396288871765137,-10.398358345031738,-10.47827434539795,9.73,9.4,-10.380000114440918,9,9,-20.0,-10.473644247055054,9.431355752944944
260,30589426,1697465353.49941,0.4785961508750915,0.0,0.4682351052761078,0.5,-10.387735366821287,-10.39051628112793,-10.466069221496582,9.73,9.41,-10.380000114440918,9,9,-20.0,-10.473644247055054,9.431355752944944
261,30592000,1697465353.49941,0.4785961508750915,0.0,0.4682351052761078,0.5,-10.387735366821287,-10.39051628112793,-10.466069221496582,9.73,9.41,-10.380000114440918,9,9,-20.0,-10.459807732009889,9.44519226799011
262,30689386,1697465353.59937,0.4790694117546081,0.0,0.4680657088756561,0.5,-10.379416465759276,-10.38268756866455,-10.460399627685549,9.73,9.42,-10.369999885559082,9,9,-20.0,-10.459807732009889,9.44519226799011
263,30698000,1697465353.59937,0.4790694117546081,0.0,0.4680657088756561,0.5,-10.379416465759276,-10.38268756866455,-10.460399627685549,9.73,9.42,-10.369999885559082,9,9,-20.0,-10.454475023651122,9.450524976348875
264,30789346,1697465353.69933,0.4777688682079315,0.0,0.4681924283504486,0.5,-10.37132453918457,-10.374975204467772,-10.44658374786377,9.73,9.44,-10.369999885559082,9,9,-20.0,-10.454475023651122,9.450524976348875
265,30794000,1697465353.69933,0.4777688682079315,0.0,0.4681924283504486,0.5,-10.37132453918457,-10.374975204467772,-10.44658374786377,9.73,9.44,-10.369999885559082,9,9,-20.0,-10.44941757659912,9.45558242340088
266,30889306,1697465353.79929,0.4773593544960022,0.0,0.4676516950130462,0.5,-10.363460540771484,-10.36711311340332,-10.439043045043944,9.73,9.44,-10.34999942779541,8,9,-20.0,-10.44941757659912,9.45558242340088
267,30901000,1697465353.79929,0.4773593544960022,0.0,0.4676516950130462,0.5,-10.363460540771484,-10.36711311340332,-10.439043045043944,9.73,9.44,-10.34999942779541,8,9,-20.0,-10.438721165466308,9.466278834533693
268,30989266,1697465353.89925,0.476190835237503,0.0,0.4673081636428833,0.5,-10.355815887451172,-10.359328269958496,-10.423639297485352,9.73,9.45,-10.34999942779541,8,8,-20.0,-10.438721165466308,9.466278834533693
269,30993000,1697465353.89925,0.476190835237503,0.0,0.4673081636428833,0.5,-10.355815887451172,-10.359328269958496,-10.423639297485352,9.73,9.45,-10.34999942779541,8,8,-20.0,-10.429461922454834,9.475538077545163
270,31089226,1697465353.99921,0.4745049476623535,0.0,0.4667051434516907,0.5,-10.348388671875,-10.35133171081543,-10.435956001281738,9.73,9.45,-10.329999923706056,8,8,-20.0,-10.429461922454834,9.475538077545163
271,31189186,1697465354.0991702,0.4753700196743011,0.0,0.4666408002376556,0.5,-10.341137886047363,-10.344170570373535,-10.416030883789062,9.73,9.45,-10.329999923706056,8,8,-20.0,-10.429461922454834,9.475538077545163
272,31192000,1697465354.0991702,0.4753700196743011,0.0,0.4666408002376556,0.5,-10.341137886047363,-10.344170570373535,-10.416030883789062,9.73,9.45,-10.329999923706056,8,8,-20.0,-10.409411910784128,9.495588089215872
273,31289979,1697465354.199963,0.4758379161357879,0.0,0.4663077294826507,0.5,-10.33399772644043,-10.337299346923828,-10.414613723754885,9.73,9.5,-10.31999969482422,7,8,-20.0,-10.409411910784128,9.495588089215872
274,31298000,1697465354.199963,0.4758379161357879,0.0,0.4663077294826507,0.5,-10.33399772644043,-10.337299346923828,-10.414613723754885,9.73,9.5,-10.31999969482422,7,8,-20.0,-10.393764098139092,9.511235901860909
275,31389939,1697465354.2999232,0.477887213230133,0.0,0.4664047062397003,0.5,-10.32720947265625,-10.330878257751465,-10.401472091674805,9.73,9.5,-10.31999969482422,7,7,-20.0,-10.393764098139092,9.511235901860909
276,31390000,1697465354.2999232,0.477887213230133,0.0,0.4664047062397003,0.5,-10.32720947265625,-10.330878257751465,-10.401472091674805,9.73,9.5,-10.31999969482422,7,7,-20.0,-10.38000030479809,9.52499969520191
277,31489899,1697465354.399883,0.4785018265247345,0.0,0.467640072107315,0.5,-10.320717811584473,-10.324710845947266,-10.38066291809082,9.73,9.52,-10.300000190734863,7,7,-20.0,-10.38000030479809,9.52499969520191
278,31494000,1697465354.399883,0.4785018265247345,0.0,0.467640072107315,0.5,-10.320717811584473,-10.324710845947266,-10.38066291809082,9.73,9.52,-10.300000190734863,7,7,-20.0,-10.374812114334109,9.530187885665892
279,31589859,1697465354.4998431,0.4751178026199341,0.0,0.4663654267787933,0.5,-10.314495086669922,-10.318007469177246,-10.389581680297852,9.73,9.52,-10.300000190734863,7,7,-20.0,-10.374812114334109,9.530187885665892
280,31590000,1697465354.4998431,0.4751178026199341,0.0,0.4663654267787933,0.5,-10.314495086669922,-10.318007469177246,-10.389581680297852,9.73,9.52,-10.300000190734863,7,7,-20.0,-10.370005824661254,9.534994175338744
281,31689819,1697465354.5998032,0.4702205657958984,0.0,0.4638554751873016,0.5,-10.308547019958496,-10.311393737792969,-10.369153022766112,9.73,9.53,-10.289999961853027,6,7,-20.0,-10.370005824661254,9.534994175338744
282,31698000,1697465354.5998032,0.4702205657958984,0.0,0.4638554751873016,0.5,-10.308547019958496,-10.311393737792969,-10.369153022766112,9.73,9.53,-10.289999961853027,6,7,-20.0,-10.359236560058594,9.545763439941403
283,31789779,1697465354.699763,0.466535210609436,0.0,0.4604800939559936,0.5,-10.302842140197754,-10.304774284362791,-10.362317085266112,9.73,9.53,-10.289999961853027,6,6,-20.0,-10.359236560058594,9.545763439941403
284,31790000,1697465354.699763,0.466535210609436,0.0,0.4604800939559936,0.5,-10.302842140197754,-10.304774284362791,-10.362317085266112,9.73,9.53,-10.289999961853027,6,6,-20.0,-10.349986376953124,9.555013623046875
285,31889739,1697465354.7997231,0.4614303708076477,0.0,0.4569175839424133,0.5,-10.29734992980957,-10.298019409179688,-10.365767478942873,9.73,9.54,-10.269999504089355,5,6,-20.0,-10.349986376953124,9.555013623046875
286,31896000,1697465354.7997231,0.4614303708076477,0.0,0.4569175839424133,0.5,-10.29734992980957,-10.298019409179688,-10.365767478942873,9.73,9.54,-10.269999504089355,5,6,-20.0,-10.33932525177002,9.56567474822998
287,31989699,1697465354.899683,0.4591701030731201,0.0,0.452745109796524,0.5,-10.292057991027832,-10.291762351989746,-10.353732109069824,9.73,9.54,-10.269999504089355,5,6,-20.0,-10.33932525177002,9.56567474822998
288,31991000,1697465354.899683,0.4591701030731201,0.0,0.452745109796524,0.5,-10.292057991027832,-10.291762351989746,-10.353732109069824,9.73,9.54,-10.269999504089355,5,6,-20.0,-10.32991509177468,9.57508490822532
289,32089659,1697465354.999643,0.4607920348644256,0.0,0.4525285065174103,0.5,-10.286949157714844,-10.286075592041016,-10.356390953063965,9.73,9.56,-10.260000228881836,4,5,-20.0,-10.32991509177468,9.57508490822532
290,32097000,1697465354.999643,0.4607920348644256,0.0,0.4525285065174103,0.5,-10.286949157714844,-10.286075592041016,-10.356390953063965,9.73,9.56,-10.260000228881836,4,5,-20.0,-10.324605582266145,9.580394417733856
291,32189000,1697465354.999643,0.4607920348644256,0.0,0.4525285065174103,0.5,-10.286949157714844,-10.286075592041016,-10.356390953063965,9.73,9.56,-10.260000228881836,4,5,-20.0,-10.319831199645996,9.585168800354005
292,32189619,1697465355.0996032,0.4632485806941986,0.0,0.4526035487651825,0.5,-10.28203010559082,-10.281158447265623,-10.354722023010254,9.73,9.57,-10.260000228881836,4,4,-20.0,-10.319831199645996,9.585168800354005
293,32289579,1697465355.199563,0.4686972200870514,0.0,0.4557740092277527,0.5,-10.277349472045898,-10.277201652526855,-10.344743728637695,9.73,9.57,-10.239999771118164,4,4,-20.0,-10.319831199645996,9.585168800354005
294,32296000,1697465355.199563,0.4686972200870514,0.0,0.4557740092277527,0.5,-10.277349472045898,-10.277201652526855,-10.344743728637695,9.73,9.57,-10.239999771118164,4,4,-20.0,-10.309126682281494,9.595873317718503
295,32389000,1697465355.199563,0.4686972200870514,0.0,0.4557740092277527,0.5,-10.277349472045898,-10.277201652526855,-10.344743728637695,9.73,9.57,-10.239999771118164,4,4,-20.0,-10.299915838241578,9.605084161758422
296,32389539,1697465355.299523,0.4750148952007293,0.0,0.4621142745018005,0.5,-10.27287483215332,-10.273771286010742,-10.33027172088623,9.73,9.58,-10.239999771118164,4,4,-20.0,-10.299915838241578,9.605084161758422
297,32489499,1697465355.3994832,0.4769787192344665,0.0,0.466701865196228,0.5,-10.268590927124023,-10.2700777053833,-10.33049488067627,9.73,9.58,-10.229999542236328,4,4,-20.0,-10.299915838241578,9.605084161758422
298,32589459,1697465355.499443,0.4733930826187134,0.0,0.4667294025421142,0.5,-10.264479637145996,-10.266036987304688,-10.322224617004396,9.73,9.58,-10.229999542236328,4,4,-20.0,-10.299915838241578,9.605084161758422
299,32592000,1697465355.499443,0.4733930826187134,0.0,0.4667294025421142,0.5,-10.264479637145996,-10.266036987304688,-10.322224617004396,9.73,9.58,-10.229999542236328,4,4,-20.0,-10.289613556671142,9.615386443328855
300,32689419,1697465355.5994031,0.4684098660945892,0.0,0.4646340906620025,0.5,-10.260506629943848,-10.26161766052246,-10.315282821655272,9.73,9.59,-10.229999542236328,4,4,-20.0,-10.289613556671142,9.615386443328855
301,32695000,1697465355.5994031,0.4684098660945892,0.0,0.4646340906620025,0.5,-10.260506629943848,-10.26161766052246,-10.315282821655272,9.73,9.59,-10.229999542236328,4,4,-20.0,-10.279247116851806,9.625752883148191
302,32789379,1697465355.6993628,0.460973858833313,0.0,0.4586373269557953,0.5,-10.256706237792969,-10.256832122802734,-10.324554443359377,9.73,9.61,-10.229999542236328,3,4,-20.0,-10.279247116851806,9.625752883148191
303,32792000,1697465355.6993628,0.460973858833313,0.0,0.4586373269557953,0.5,-10.256706237792969,-10.256832122802734,-10.324554443359377,9.73,9.61,-10.229999542236328,3,4,-20.0,-10.26978341331482,9.63521658668518
304,32889339,1697465355.799323,0.45721036195755,0.0,0.4522518515586853,0.5,-10.253125190734863,-10.252455711364746,-10.31011199951172,9.73,9.62,-10.219999313354492,3,3,-20.0,-10.26978341331482,9.63521658668518
305,32896000,1697465355.799323,0.45721036195755,0.0,0.4522518515586853,0.5,-10.253125190734863,-10.252455711364746,-10.31011199951172,9.73,9.62,-10.219999313354492,3,3,-20.0,-10.264591848754884,9.640408151245117
306,32989299,1697465355.8992832,0.4580944776535034,0.0,0.4504575133323669,0.5,-10.249770164489746,-10.248501777648926,-10.308063507080078,9.73,9.62,-10.219999313354492,2,3,-20.0,-10.264591848754884,9.640408151245117
307,32993000,1697465355.8992832,0.4580944776535034,0.0,0.4504575133323669,0.5,-10.249770164489746,-10.248501777648926,-10.308063507080078,9.73,9.62,-10.219999313354492,2,3,-20.0,-10.25951342086792,9.64548657913208
308,33089259,1697465355.999243,0.4592050909996032,0.0,0.4512119591236114,0.5,-10.24659538269043,-10.244935035705566,-10.312406539916992,9.73,9.62,-10.210000038146973,2,3,-20.0,-10.25951342086792,9.64548657913208
309,33098000,1697465355.999243,0.4592050909996032,0.0,0.4512119591236114,0.5,-10.24659538269043,-10.244935035705566,-10.312406539916992,9.73,9.62,-10.210000038146973,2,3,-20.0,-10.249048752593994,9.655951247406003
310,33189219,1697465356.099203,0.4619437754154205,0.0,0.4527575671672821,0.5,-10.243566513061523,-10.24206256866455,-10.29857063293457,9.73,9.63,-10.210000038146973,2,2,-20.0,-10.249048752593994,9.655951247406003
311,33193000,1697465356.099203,0.4619437754154205,0.0,0.4527575671672821,0.5,-10.243566513061523,-10.24206256866455,-10.29857063293457,9.73,9.63,-10.210000038146973,2,2,-20.0,-10.239753925965564,9.665246074034435
312,33290012,1697465356.199996,0.4655690491199493,0.0,0.4562693834304809,0.5,-10.240671157836914,-10.239450454711914,-10.289854049682615,9.73,9.63,-10.199999809265137,2,2,-20.0,-10.239753925965564,9.665246074034435
313,33300000,1697465356.199996,0.4655690491199493,0.0,0.4562693834304809,0.5,-10.240671157836914,-10.239450454711914,-10.289854049682615,9.73,9.63,-10.199999809265137,2,2,-20.0,-10.23451154992132,9.67048845007868
314,33389972,1697465356.299956,0.4628646373748779,0.0,0.4564619660377502,0.5,-10.237944602966309,-10.23657512664795,-10.293622970581056,9.73,9.66,-10.199999809265137,2,2,-20.0,-10.23451154992132,9.67048845007868
315,33391000,1697465356.299956,0.4628646373748779,0.0,0.4564619660377502,0.5,-10.237944602966309,-10.23657512664795,-10.293622970581056,9.73,9.66,-10.199999809265137,2,2,-20.0,-10.23,9.675
316,33489932,1697465356.399916,0.4603282809257507,0.0,0.4541201889514923,0.5,-10.23545742034912,-10.23366355895996,-10.2880859375,9.73,9.66,-10.199999809265137,1,2,-20.0,-10.23,9.675
317,33500000,1697465356.399916,0.4603282809257507,0.0,0.4541201889514923,0.5,-10.23545742034912,-10.23366355895996,-10.2880859375,9.73,9.66,-10.199999809265137,1,2,-20.0,-10.23,9.675
318,33589892,1697465356.499876,0.458435982465744,0.0,0.4524345993995666,0.5,-10.233173370361328,-10.23088264465332,-10.291070938110352,9.73,9.66,-10.199999809265137,1,1,-20.0,-10.23,9.675
319,33591000,1697465356.499876,0.458435982465744,0.0,0.4524345993995666,0.5,-10.233173370361328,-10.23088264465332,-10.291070938110352,9.73,9.66,-10.199999809265137,1,1,-20.0,-10.229946935272215,9.675053064727782
320,33689852,1697465356.599836,0.4585056602954864,0.0,0.4517890214920044,0.5,-10.23104476928711,-10.228480339050291,-10.275837898254396,9.73,9.66,-10.1899995803833,1,1,-20.0,-10.229946935272215,9.675053064727782
321,33698000,1697465356.599836,0.4585056602954864,0.0,0.4517890214920044,0.5,-10.23104476928711,-10.228480339050291,-10.275837898254396,9.73,9.66,-10.1899995803833,1,1,-20.0,-10.224650466537476,9.680349533462524
322,33789812,1697465356.6997962,0.458676129579544,0.0,0.4526704847812652,0.5,-10.229036331176758,-10.22606372833252,-10.29210376739502,9.73,9.66,-10.1899995803833,1,1,-20.0,-10.224650466537476,9.680349533462524
323,33791000,1697465356.6997962,0.458676129579544,0.0,0.4526704847812652,0.5,-10.229036331176758,-10.22606372833252,-10.29210376739502,9.73,9.66,-10.1899995803833,1,1,-20.0,-10.21993024597168,9.68506975402832
324,33889772,1697465356.799756,0.4593350291252136,0.0,0.4530711472034454,0.5,-10.227116584777832,-10.224102973937988,-10.275790214538574,9.73,9.66,-10.1899995803833,0,1,-20.0,-10.21993024597168,9.68506975402832
325,33989732,1697465356.899716,0.4620766937732696,0.0,0.4557140171527862,0.5,-10.225262641906738,-10.22237777709961,-10.286261558532717,9.73,9.66,-10.1899995803833,0,0,-20.0,-10.21993024597168,9.68506975402832
326,33990000,1697465356.899716,0.4620766937732696,0.0,0.4557140171527862,0.5,-10.225262641906738,-10.22237777709961,-10.286261558532717,9.73,9.66,-10.1899995803833,0,0,-20.0,-10.210010593032838,9.694989406967162
327,34089692,1697465356.9996762,0.4636356234550476,0.0,0.457112193107605,0.5,-10.223470687866213,-10.221063613891602,-10.292820930480955,9.73,9.67,-10.1899995803833,1,0,-20.0,-10.210010593032838,9.694989406967162
328,34098000,1697465356.9996762,0.4636356234550476,0.0,0.457112193107605,0.5,-10.223470687866213,-10.221063613891602,-10.292820930480955,9.73,9.67,-10.1899995803833,1,0,-20.0,-10.204555008628152,9.700444991371848
329,34189652,1697465357.099636,0.4679769873619079,0.0,0.4587516486644745,0.5,-10.221790313720703,-10.220556259155272,-10.290549278259276,9.73,9.69,-10.1899995803833,1,0,-20.0,-10.204555008628152,9.700444991371848
330,34190000,1697465357.099636,0.4679769873619079,0.0,0.4587516486644745,0.5,-10.221790313720703,-10.220556259155272,-10.290549278259276,9.73,9.69,-10.1899995803833,1,0,-20.0,-10.2,9.705
331,34289612,1697465357.199596,0.4748634397983551,0.0,0.4634674489498138,0.5,-10.220293998718262,-10.220626831054688,-10.286144256591797,9.73,9.69,-10.1899995803833,1,0,-20.0,-10.2,9.705
332,34297000,1697465357.199596,0.4748634397983551,0.0,0.4634674489498138,0.5,-10.220293998718262,-10.220626831054688,-10.286144256591797,9.73,9.69,-10.1899995803833,1,0,-20.0,-10.2,9.705
333,34389572,1697465357.299556,0.4748051166534424,0.0,0.4684740304946899,0.5,-10.218948364257812,-10.220752716064451,-10.290639877319336,9.73,9.69,-10.1899995803833,1,0,-20.0,-10.2,9.705
334,34390000,1697465357.299556,0.4748051166534424,0.0,0.4684740304946899,0.5,-10.218948364257812,-10.220752716064451,-10.290639877319336,9.73,9.69,-10.1899995803833,1,0,-20.0,-10.199910354614255,9.705089645385742
335,34489532,1697465357.399516,0.475506842136383,0.0,0.4679988622665405,0.5,-10.217711448669434,-10.22071647644043,-10.280136108398438,9.73,9.69,-10.179999351501465,2,1,-20.0,-10.199910354614255,9.705089645385742
336,34495000,1697465357.399516,0.475506842136383,0.0,0.4679988622665405,0.5,-10.217711448669434,-10.22071647644043,-10.280136108398438,9.73,9.69,-10.179999351501465,2,1,-20.0,-10.194658708572389,9.710341291427612
337,34589492,1697465357.499476,0.473833829164505,0.0,0.4674856066703796,0.5,-10.216554641723633,-10.22000503540039,-10.269038200378418,9.73,9.7,-10.179999351501465,2,1,-20.0,-10.194658708572389,9.710341291427612
338,34592000,1697465357.499476,0.473833829164505,0.0,0.4674856066703796,0.5,-10.216554641723633,-10.22000503540039,-10.269038200378418,9.73,9.7,-10.179999351501465,2,1,-20.0,-10.19,9.715
339,34689452,1697465357.599436,0.4667932093143463,0.0,0.4652465581893921,0.5,-10.215492248535156,-10.218247413635254,-10.27389907836914,9.73,9.7,-10.179999351501465,1,1,-20.0,-10.19,9.715
340,34696000,1697465357.599436,0.4667932093143463,0.0,0.4652465581893921,0.5,-10.215492248535156,-10.218247413635254,-10.27389907836914,9.73,9.7,-10.179999351501465,1,1,-20.0,-10.19,9.715
341,34789412,1697465357.699396,0.4572958648204803,0.0,0.4590788781642914,0.5,-10.21452808380127,-10.21597957611084,-10.26729965209961,9.73,9.7,-10.179999351501465,1,1,-20.0,-10.19,9.715
342,34792000,1697465357.699396,0.4572958648204803,0.0,0.4590788781642914,0.5,-10.21452808380127,-10.21597957611084,-10.26729965209961,9.73,9.7,-10.179999351501465,1,1,-20.0,-10.19,9.715
343,34889372,1697465357.7993562,0.4501972198486328,0.0,0.4518769383430481,0.5,-10.213637351989746,-10.21338939666748,-10.278331756591797,9.73,9.7,-10.179999351501465,0,1,-20.0,-10.19,9.715
344,34898000,1697465357.7993562,0.4501972198486328,0.0,0.4518769383430481,0.5,-10.213637351989746,-10.21338939666748,-10.278331756591797,9.73,9.7,-10.179999351501465,0,1,-20.0,-10.19,9.715
345,34989332,1697465357.899316,0.448571503162384,0.0,0.4468898773193359,0.5,-10.212794303894045,-10.211383819580078,-10.285057067871094,9.73,9.7,-10.179999351501465,0,1,-20.0,-10.19,9.715
346,34994000,1697465357.899316,0.448571503162384,0.0,0.4468898773193359,0.5,-10.212794303894045,-10.211383819580078,-10.285057067871094,9.73,9.7,-10.179999351501465,0,1,-20.0,-10.19,9.715
347,35089292,1697465357.999276,0.4547936618328094,0.0,0.4479906558990478,0.5,-10.211991310119627,-10.21064567565918,-10.274444580078123,9.73,9.7,-10.170000076293944,0,0,-20.0,-10.19,9.715
348,35102000,1697465357.999276,0.4547936618328094,0.0,0.4479906558990478,0.5,-10.211991310119627,-10.21064567565918,-10.274444580078123,9.73,9.7,-10.170000076293944,0,0,-20.0,-10.19,9.715
349,35189252,1697465358.099236,0.4634503126144409,0.0,0.4547035098075866,0.5,-10.211210250854492,-10.210601806640623,-10.27320384979248,9.73,9.7,-10.170000076293944,0,0,-20.0,-10.19,9.715
350,35193000,1697465358.099236,0.4634503126144409,0.0,0.4547035098075866,0.5,-10.211210250854492,-10.210601806640623,-10.27320384979248,9.73,9.7,-10.170000076293944,0,0,-20.0,-10.189747552399588,9.715252447600411
351,35289212,1697465358.199196,0.4695503115653991,0.0,0.4619837999343872,0.5,-10.210448265075684,-10.21076774597168,-10.25972843170166,9.73,9.7,-10.170000076293944,0,0,-20.0,-10.189747552399588,9.715252447600411
352,35390005,1697465358.2999892,0.4699253439903259,0.0,0.4667904078960418,0.5,-10.209689140319824,-10.21027946472168,-10.274077415466309,9.73,9.7,-10.170000076293944,0,0,-20.0,-10.189747552399588,9.715252447600411
353,35391000,1697465358.2999892,0.4699253439903259,0.0,0.4667904078960418,0.5,-10.209689140319824,-10.21027946472168,-10.274077415466309,9.73,9.7,-10.170000076293944,0,0,-20.0,-10.18,9.725
354,35489965,1697465358.399949,0.4666607677936554,0.0,0.4659339785575866,0.5,-10.208949089050291,-10.209653854370115,-10.256175994873049,9.73,9.7,-10.170000076293944,0,0,-20.0,-10.18,9.725
355,35497000,1697465358.399949,0.4666607677936554,0.0,0.4659339785575866,0.5,-10.208949089050291,-10.209653854370115,-10.256175994873049,9.73,9.7,-10.170000076293944,0,0,-20.0,-10.18,9.725
356,35589925,1697465358.4999092,0.4618089497089386,0.0,0.4639863669872284,0.5,-10.208215713500977,-10.208325386047363,-10.274069786071776,9.73,9.7,-10.170000076293944,0,0,-20.0,-10.18,9.725
357,35590000,1697465358.4999092,0.4618089497089386,0.0,0.4639863669872284,0.5,-10.208215713500977,-10.208325386047363,-10.274069786071776,9.73,9.7,-10.170000076293944,0,0,-20.0,-10.18,9.725
