TimeUS,terrain_z,sub_z,rf
26590000,-20.0,-10.101238998031615,9.803761001968384
26698000,-20.0,-10.160772117233277,9.744227882766722
26792000,-20.0,-10.212564572143558,9.692435427856442
26897000,-20.0,-10.280752285766603,9.624247714233396
26992000,-20.0,-10.342332527991568,9.562667472008432
27100000,-20.0,-10.406478928669845,9.498521071330154
27190000,-20.0,-10.460115527343751,9.444884472656248
27297000,-20.0,-10.502885913085938,9.402114086914061
27390000,-20.0,-10.539970568847655,9.365029431152344
27589000,-20.0,-10.589966108322143,9.315033891677857
27693000,-20.0,-10.605542914581298,9.299457085418702
27789000,-20.0,-10.61998324127197,9.285016758728029
27898000,-20.0,-10.625447640467172,9.279552359532827
27990000,-20.0,-10.63,9.274999999999999
28096000,-20.0,-10.63,9.274999999999999
28189000,-20.0,-10.629906778335572,9.275093221664427
28299000,-20.0,-10.624452953338624,9.280547046661376
28392000,-20.0,-10.62,9.285
28498000,-20.0,-10.62,9.285
28592000,-20.0,-10.619802486801147,9.285197513198852
28791000,-20.0,-10.609806539916992,9.295193460083008
28897000,-20.0,-10.60457635154724,9.300423648452758
28992000,-20.0,-10.599796652463402,9.305203347536597
29101000,-20.0,-10.594424916635646,9.310575083364354
29190000,-20.0,-10.589993426895141,9.315006573104858
29297000,-20.0,-10.584638068771362,9.320361931228637
29389000,-20.0,-10.580015838241577,9.324984161758422
29497000,-20.0,-10.569320006561279,9.33567999343872
29590000,-20.0,-10.560009741973877,9.344990258026122
29697000,-20.0,-10.554633061981201,9.350366938018798
29791000,-20.0,-10.549915436253404,9.355084563746596
29991000,-20.0,-10.529707221984863,9.375292778015137
30095000,-20.0,-10.519314556121826,9.385685443878174
30190000,-20.0,-10.50980640411377,9.39519359588623
30296000,-20.0,-10.499245414733887,9.405754585266113
30390000,-20.0,-10.489665975570679,9.41533402442932
30497000,-20.0,-10.473644247055054,9.431355752944945
30592000,-20.0,-10.459807732009889,9.44519226799011
30698000,-20.0,-10.454475023651122,9.450524976348877
30794000,-20.0,-10.44941757659912,9.455582423400879
30901000,-20.0,-10.438721165466308,9.466278834533691
30993000,-20.0,-10.429461922454834,9.475538077545165
31192000,-20.0,-10.409411910784128,9.495588089215872
31298000,-20.0,-10.393764098139092,9.511235901860907
31390000,-20.0,-10.38000030479809,9.52499969520191
31494000,-20.0,-10.374812114334107,9.530187885665892
31590000,-20.0,-10.370005824661254,9.534994175338745
31698000,-20.0,-10.359236560058594,9.545763439941405
31790000,-20.0,-10.349986376953124,9.555013623046875
31896000,-20.0,-10.33932525177002,9.565674748229979
31991000,-20.0,-10.32991509177468,9.57508490822532
32097000,-20.0,-10.324605582266143,9.580394417733856
32189000,-20.0,-10.319831199645996,9.585168800354003
32296000,-20.0,-10.309126682281494,9.595873317718505
32389000,-20.0,-10.299915838241578,9.605084161758422
32592000,-20.0,-10.289613556671142,9.615386443328857
32695000,-20.0,-10.279247116851806,9.625752883148193
32792000,-20.0,-10.26978341331482,9.63521658668518
32896000,-20.0,-10.264591848754883,9.640408151245117
32993000,-20.0,-10.25951342086792,9.64548657913208
33098000,-20.0,-10.249048752593994,9.655951247406005
33193000,-20.0,-10.239753925965564,9.665246074034435
33300000,-20.0,-10.234511549921319,9.67048845007868
33391000,-20.0,-10.23,9.674999999999999
33500000,-20.0,-10.23,9.674999999999999
33591000,-20.0,-10.229946935272217,9.675053064727782
33698000,-20.0,-10.224650466537476,9.680349533462524
33791000,-20.0,-10.21993024597168,9.68506975402832
33990000,-20.0,-10.210010593032838,9.694989406967162
34098000,-20.0,-10.204555008628152,9.700444991371848
34190000,-20.0,-10.2,9.705
34297000,-20.0,-10.2,9.705
34390000,-20.0,-10.199910354614257,9.705089645385742
34495000,-20.0,-10.194658708572387,9.710341291427612
34592000,-20.0,-10.19,9.715
34696000,-20.0,-10.19,9.715
34792000,-20.0,-10.19,9.715
34898000,-20.0,-10.19,9.715
34994000,-20.0,-10.19,9.715
35102000,-20.0,-10.19,9.715
35193000,-20.0,-10.189747552399588,9.715252447600411
35391000,-20.0,-10.18,9.725
35497000,-20.0,-10.18,9.725
35590000,-20.0,-10.18,9.725
35697000,-20.0,-10.18,9.725
35791000,-20.0,-10.179929530715942,9.725070469284057
35990000,-20.0,-10.17000177154541,9.73499822845459
36101000,-20.0,-10.17,9.735
36190000,-20.0,-10.17,9.735
36301000,-20.0,-10.17,9.735
36390000,-20.0,-10.17,9.735
36590000,-20.0,-10.17,9.735
36693000,-20.0,-10.17,9.735
36792000,-20.0,-10.17,9.735
36895000,-20.0,-10.17,9.735
36993000,-20.0,-10.17,9.735
37101000,-20.0,-10.17,9.735
37192000,-20.0,-10.16979104270935,9.735208957290649
37301000,-20.0,-10.164376318359375,9.740623681640624
37392000,-20.0,-10.16,9.745
37502000,-20.0,-10.16,9.745
37590000,-19.97,-10.16,9.714999999999998
37697000,-19.95,-10.16,9.694999999999999
37789000,-19.92,-10.16,9.665000000000001
37990000,-19.9,-10.16,9.644999999999998
38096000,-19.88,-10.16,9.624999999999998
38190000,-19.85,-10.16,9.595
38294000,-19.82,-10.16,9.565
38391000,-19.8,-10.160125408172608,9.544874591827393
38499000,-19.77,-10.165507707595825,9.509492292404174
38591000,-19.75,-10.17,9.485
38698000,-19.72,-10.17,9.454999999999998
38793000,-19.7,-10.17,9.434999999999999
38903000,-19.67,-10.17,9.405000000000001
39016000,-19.65,-10.168841431045532,9.386158568954466
39005000,-19.62,-10.169328987503052,9.355671012496948
39114000,-19.6,-10.16376191368103,9.34123808631897
39193000,-19.57,-10.16,9.315
39300000,-19.55,-10.16,9.295
39394000,-19.52,-10.159721113903688,9.265278886096311
39590000,-19.5,-10.150011196325321,9.254988803674678
39789000,-19.47,-10.140011546707154,9.234988453292845
39898000,-19.45,-10.134605643844605,9.220394356155394
39993000,-19.42,-10.129811751937867,9.195188248062134
40098000,-19.4,-10.12460159072876,9.180398409271238
40190000,-19.38,-10.11996373879789,9.165036261202108
40392000,-19.35,-10.10971342086792,9.145286579132081
40497000,-19.32,-10.09906660079956,9.12593339920044
40591000,-19.3,-10.089884605407715,9.115115394592285
40789000,-19.27,-10.079738216400147,9.095261783599852
40893000,-19.25,-10.064220027923584,9.090779972076415
40991000,-19.22,-10.049821560287477,9.075178439712522
41097000,-19.2,-10.044523661041259,9.06047633895874
41192000,-19.17,-10.039321629714964,9.035678370285037
41297000,-19.15,-10.02364250869751,9.031357491302488
41391000,-19.12,-10.009636921691895,9.015363078308106
41497000,-19.1,-9.999126000213623,9.005873999786377
41592000,-19.07,-9.989436696874034,8.985563303125966
41698000,-19.05,-9.97361608977365,8.98138391022635
41790000,-19.02,-9.960039254367942,8.964960745632057
41896000,-19.0,-9.928093057250976,8.976906942749023
41991000,-18.97,-9.899893019485473,8.975106980514525
42189000,-18.95,-9.870052521514893,8.984947478485106
42294000,-18.93,-9.854404871749878,8.98059512825012
42390000,-18.9,-9.839974301656087,8.965025698343911
42496000,-18.88,-9.824071782430012,8.960928217569986
42590000,-18.85,-9.809660968780516,8.945339031219484
42700000,-18.82,-9.793186483383177,8.931813516616822
42790000,-18.8,-9.779692916870117,8.925307083129884
42895000,-18.77,-9.75848606109619,8.916513938903808
42992000,-18.75,-9.739083108520507,8.915916891479492
43098000,-18.72,-9.717941102600097,8.907058897399901
43192000,-18.7,-9.699445368957518,8.905554631042481
43392000,-18.67,-9.669216622924804,8.905783377075197
43496000,-18.65,-9.648286332702636,8.906713667297362
43592000,-18.62,-9.629223434901474,8.895776565098526
43700000,-18.6,-9.607912118741782,8.89708788125822
43789000,-18.57,-9.590034398749323,8.884965601250677
43894000,-18.55,-9.574294722366332,8.880705277633668
43991000,-18.52,-9.559751501464843,8.865248498535156
44098000,-18.5,-9.53842734375,8.86657265625
44189000,-18.47,-9.520089102172852,8.854910897827146
44389000,-18.45,-9.480076704406738,8.87492329559326
44492000,-18.42,-9.459286415793677,8.865713584206324
44589000,-18.4,-9.439679565429685,8.865320434570313
44696000,-18.38,-9.418506088256835,8.866493911743163
44790000,-18.35,-9.399511241912842,8.855488758087159
44895000,-18.32,-9.373479509353636,8.851520490646363
44994000,-18.3,-9.348828477478026,8.856171522521974
45099000,-18.27,-9.327938241577149,8.84706175842285
45192000,-18.25,-9.309065942382812,8.845934057617187
45298000,-18.22,-9.288175706481933,8.836824293518065
45393000,-18.2,-9.268747789382934,8.836252210617065
45498000,-18.17,-9.24251936149597,8.83248063850403
45592000,-18.15,-9.219102573205928,8.83589742679407
45789000,-18.12,-9.180104271917058,8.844895728082943
45899000,-18.1,-9.158293829345702,8.846706170654299
45991000,-18.07,-9.139814443969726,8.835185556030273
46098000,-18.05,-9.118486471557617,8.836513528442383
46189000,-18.02,-9.10007098236084,8.824929017639159
46296000,-18.0,-9.078702001953125,8.826297998046874
46391000,-17.98,-9.059810265049789,8.82518973495021
46497000,-17.95,-9.033230205882678,8.821769794117321
46591000,-17.92,-9.00944496154785,8.815555038452151
46695000,-17.9,-8.988628158569336,8.816371841430662
46791000,-17.88,-8.969456405639649,8.81554359436035
46897000,-17.85,-8.948264808654784,8.806735191345217
46992000,-17.82,-8.92914741516113,8.795852584838869
47098000,-17.8,-8.908205680847168,8.796794319152832
47193000,-17.77,-8.888771631240845,8.786228368759154
47392000,-17.75,-8.839175614929198,8.815824385070801
47592000,-17.73,-8.798950445175171,8.836049554824829
47697000,-17.7,-8.772735130310059,8.83226486968994
47791000,-17.67,-8.74926120418133,8.82573879581867
47895000,-17.65,-8.728747764058632,8.826252235941366
47990000,-17.62,-8.709936140060424,8.815063859939576
48098000,-17.6,-8.682974575042724,8.822025424957276
48189000,-17.57,-8.660108993530274,8.814891006469725
48293000,-17.55,-8.639257040405273,8.815742959594727
48389000,-17.52,-8.620118666076658,8.80488133392334
48493000,-17.5,-8.594118984222412,8.810881015777587
48589000,-17.47,-8.570148332595824,8.804851667404174
48789000,-17.45,-8.5296018409729,8.825398159027099
48895000,-17.42,-8.503214864730834,8.821785135269167
48989000,-17.4,-8.479683380126952,8.825316619873046
49096000,-17.38,-8.45839069366455,8.826609306335449
49192000,-17.35,-8.438959981918334,8.816040018081667
49297000,-17.32,-8.412733938217164,8.812266061782836
49391000,-17.3,-8.389262399291992,8.815737600708008
49498000,-17.27,-8.368068894958496,8.806931105041503
49592000,-17.25,-8.349232835388182,8.805767164611817
49698000,-17.22,-8.328016442871094,8.796983557128904
49791000,-17.2,-8.309144962046405,8.795855037953594
49989000,-17.17,-8.260093750906462,8.81490624909354
50100000,-17.15,-8.232398794174195,8.822601205825803
50190000,-17.12,-8.210024354934694,8.814975645065307
50296000,-17.1,-8.188778295898437,8.816221704101563
50389000,-17.07,-8.170062399291991,8.804937600708008
50496000,-17.05,-8.149050093078612,8.805949906921388
50590000,-17.02,-8.1300337890625,8.794966210937499
50693000,-17.0,-8.103817823390767,8.801182176609233
50789000,-16.97,-8.079676704406738,8.79532329559326
50894000,-16.95,-8.05874355316162,8.79625644683838
50990000,-16.92,-8.039365806579587,8.785634193420414
51097000,-16.9,-8.012856044769286,8.792143955230712
51190000,-16.88,-7.989496459960938,8.79550354003906
51294000,-16.85,-7.968780746459961,8.78621925354004
51393000,-16.82,-7.948741828918457,8.776258171081542
51592000,-16.8,-7.899260491943359,8.805739508056641
51702000,-16.77,-7.877349824523926,8.797650175476074
51792000,-16.75,-7.859075614929199,8.7959243850708
51900000,-16.72,-7.832121202468871,8.792878797531127
51995000,-16.7,-7.808685222663501,8.796314777336498
52100000,-16.67,-7.787758208926361,8.78724179107364
52190000,-16.65,-7.769908721923828,8.78509127807617
52295000,-16.62,-7.743859107971191,8.78114089202881
52390000,-16.6,-7.719875479125975,8.785124520874026
52494000,-16.57,-7.6991120819091785,8.775887918090822
52590000,-16.55,-7.679909914016722,8.775090085983278
52695000,-16.52,-7.653823345184324,8.771176654815674
52791000,-16.5,-7.629890597565004,8.775109402434994
52991000,-16.47,-7.589217987060545,8.785782012939453
53098000,-16.45,-7.5623899364471425,8.792610063552855
53189000,-16.42,-7.539712944030762,8.78528705596924
53295000,-16.4,-7.518581428527832,8.786418571472167
53393000,-16.38,-7.498827659606933,8.786172340393065
53497000,-16.35,-7.472638570785521,8.78236142921448
53592000,-16.32,-7.448903953552246,8.776096046447753
53698000,-16.3,-7.422458564758301,8.782541435241699
53792000,-16.27,-7.398908721923828,8.776091278076171
53896000,-16.25,-7.373030769348143,8.781969230651855
53994000,-16.22,-7.34882874592696,8.776171254073038
54190000,-16.2,-7.310049506461266,8.794950493538733
54389000,-16.17,-7.260083959579466,8.814916040420535
54496000,-16.15,-7.238930883789061,8.816069116210937
54590000,-16.12,-7.220032835388182,8.804967164611819
54694000,-16.1,-7.194052227020261,8.81094777297974
54789000,-16.07,-7.1700839595794665,8.804916040420533
54896000,-16.05,-7.14894829489968,8.806051705100321
54989000,-16.02,-7.129575614929197,8.7954243850708
55095000,-16.0,-7.103087310791015,8.801912689208985
55189000,-16.0,-7.079637603759766,8.825362396240234
55296000,-16.0,-7.053102807998658,8.85189719200134
55390000,-16.0,-7.029621391296387,8.875378608703612
55497000,-16.0,-7.008219032287597,8.896780967712402
55591000,-16.0,-6.98912568283081,8.91587431716919
55791000,-16.0,-6.939279565429687,8.965720434570313
55900000,-16.0,-6.917618760681152,8.987381239318848
55992000,-16.0,-6.89903031539917,9.00596968460083
56100000,-16.0,-6.872005569458008,9.032994430541992
56190000,-16.0,-6.849626084129409,9.055373915870591
56299000,-16.0,-6.828142917746364,9.076857082253635
56390000,-16.0,-6.81001645834139,9.094983541658609
56499000,-16.0,-6.78835009613037,9.11664990386963
56594000,-16.0,-6.769416761779784,9.135583238220216
56698000,-16.0,-6.74841113128662,9.15658886871338
56790000,-16.0,-6.729904083868469,9.17509591613153
56894000,-16.0,-6.70894733159229,9.19605266840771
56991000,-16.0,-6.689267578124999,9.215732421875002
57095000,-16.0,-6.668528022766113,9.236471977233887
57190000,-16.0,-6.649516487121582,9.255483512878417
57296000,-16.0,-6.628598594665528,9.276401405334472
57390000,-16.0,-6.609615907669068,9.295384092330933
57592000,-16.0,-6.579437501144409,9.325562498855591
57698000,-16.0,-6.563518769454956,9.341481230545044
57792000,-16.0,-6.5494367858886715,9.355563214111328
57901000,-16.0,-6.533131100845336,9.371868899154665
57993000,-16.0,-6.5192565414428705,9.385743458557128
58100000,-16.0,-6.503216216278076,9.401783783721923
58192000,-16.0,-6.489440945918017,9.415559054081983
58390000,-16.0,-6.460032172627968,9.44496782737203
58495000,-16.0,-6.444179566192626,9.460820433807372
58590000,-16.0,-6.430029633331298,9.474970366668702
58696000,-16.0,-6.419378180694579,9.48562181930542
58790000,-16.0,-6.410019755554199,9.4949802444458
58897000,-16.0,-6.399330020141601,9.505669979858398
58991000,-16.0,-6.38987883057257,9.51512116942743
59097000,-16.0,-6.3791682973534165,9.525831702646583
59190000,-16.0,-6.369826431274414,9.535173568725584
59390000,-16.0,-6.349814510345459,9.55518548965454
59497000,-16.0,-6.3391705513000485,9.56582944869995
59592000,-16.0,-6.329804394149781,9.575195605850219
59698000,-16.0,-6.32450506439209,9.58049493560791
59791000,-16.0,-6.319635014343262,9.585364985656737
59901000,-16.0,-6.30873404006958,9.596265959930419
59994000,-16.0,-6.299680654907227,9.605319345092772
60098000,-16.0,-6.294481937789917,9.610518062210081
60192000,-16.0,-6.2897791841714685,9.61522081582853
60298000,-16.0,-6.284601960134978,9.620398039865021
60391000,-16.0,-6.279947412109375,9.625052587890623
60497000,-16.0,-6.274695527648926,9.630304472351073
60590000,-16.0,-6.269972684478759,9.63502731552124
60695000,-16.0,-6.264778258895873,9.640221741104126
60790000,-16.0,-6.259972922897338,9.645027077102661
60990000,-16.0,-6.249999381171333,9.655000618828668
61098000,-16.0,-6.24454128149784,9.66045871850216
61190000,-16.0,-6.24,9.665
61297000,-16.0,-6.24,9.665
61389000,-16.0,-6.239919414520264,9.665080585479735
61590000,-16.0,-6.22988865852356,9.67511134147644
61696000,-16.0,-6.224641542434692,9.680358457565307
61794000,-16.0,-6.22,9.685
61900000,-16.0,-6.22,9.685
61992000,-16.0,-6.219808208847046,9.685191791152954
62100000,-16.0,-6.214395630264282,9.690604369735718
62192000,-16.0,-6.21,9.694999999999999
62299000,-16.0,-6.21,9.694999999999999
62392000,-16.0,-6.21,9.694999999999999
62589000,-16.0,-6.21,9.694999999999999
62697000,-16.0,-6.204684083557129,9.70031591644287
62790000,-16.0,-6.200003202056885,9.704996797943116
62898000,-16.0,-6.2,9.705
62991000,-16.0,-6.2,9.705
63099000,-16.0,-6.2,9.705
63190000,-16.0,-6.2,9.705
63297000,-16.0,-6.194572588988025,9.710427411011974
63390000,-16.0,-6.19,9.714999999999998
63494000,-16.0,-6.19,9.714999999999998
63590000,-16.0,-6.19,9.714999999999998
63694000,-16.0,-6.19,9.714999999999998
63793000,-16.0,-6.189752657318116,9.715247342681883
63898000,-16.0,-6.1845129322052,9.7204870677948
63993000,-16.0,-6.18,9.725
64191000,-16.0,-6.18,9.725
64298000,-16.0,-6.18,9.725
64392000,-16.0,-6.18,9.725
64501000,-16.0,-6.18,9.725
64590000,-16.0,-6.18,9.725
64697000,-16.0,-6.18,9.725
64790000,-16.0,-6.179970777130126,9.725029222869873
64896000,-16.0,-6.174687182998657,9.730312817001343
64991000,-16.0,-6.17,9.735
65095000,-16.0,-6.17,9.735
65190000,-16.0,-6.17,9.735
65299000,-16.0,-6.17,9.735
65391000,-16.0,-6.17,9.735
65496000,-16.0,-6.17,9.735
65790000,-16.0,-6.17,9.735
65895000,-16.0,-6.17,9.735
65992000,-16.0,-6.17,9.735
66104000,-16.0,-6.17,9.735
66221000,-16.02,-6.168579647445679,9.75642035255432
66336000,-16.05,-6.162787506484985,9.792212493515015
66195000,-16.08,-6.169729053878784,9.815270946121213
66302000,-16.1,-6.164387524032593,9.840612475967408
66393000,-16.12,-6.16,9.865
66499000,-16.15,-6.16,9.894999999999998
66593000,-16.17,-6.16,9.915000000000001
66791000,-16.2,-6.16,9.944999999999999
66991000,-16.23,-6.16,9.975
67096000,-16.25,-6.16,9.995
67191000,-16.27,-6.16,10.014999999999999
67390000,-16.3,-6.16,10.045
67497000,-16.33,-6.165406459076236,10.069593540923762
67589000,-16.35,-6.17,10.085
67698000,-16.38,-6.17,10.114999999999998
67790000,-16.4,-6.170080585479737,10.13491941452026
67898000,-16.42,-6.17550127029419,10.14949872970581
67993000,-16.45,-6.180276191329956,10.174723808670043
68102000,-16.48,-6.185607946014405,10.199392053985596
68193000,-16.5,-6.190230414962769,10.21476958503723
68296000,-16.52,-6.195432708358765,10.229567291641233
68392000,-16.55,-6.200227077102661,10.25477292289734
68592000,-16.58,-6.210180922026681,10.274819077973318
68699000,-16.6,-6.215501197210632,10.28949880278937
68789000,-16.62,-6.219970391150748,10.305029608849251
68898000,-16.65,-6.2307615325927745,10.324238467407223
68991000,-16.67,-6.240090393829346,10.334909606170655
69097000,-16.7,-6.250758671569825,10.354241328430174
69190000,-16.73,-6.260018732452393,10.374981267547607
69299000,-16.75,-6.2653919719696045,10.389608028030395
69391000,-16.77,-6.270065779252485,10.404934220747514
69500000,-16.8,-6.281039295389195,10.423960704610804
69592000,-16.83,-6.290465631484985,10.444534368515013
69790000,-16.85,-6.320174522399904,10.434825477600096
69898000,-16.88,-6.3309987258911145,10.454001274108885
69994000,-16.9,-6.340840018081666,10.464159981918332
70102000,-16.92,-6.357028401184083,10.467971598815918
70192000,-16.95,-6.370367846679687,10.48463215332031
70298000,-16.98,-6.380943618011474,10.504056381988525
70393000,-17.0,-6.390705550003051,10.514294449996948
70498000,-17.03,-6.406484091567992,10.528515908432007
70592000,-17.05,-6.420673070095552,10.534326929904447
70789000,-17.08,-6.449914714322233,10.535085285677765
70894000,-17.1,-6.465644480895998,10.539355519104003
70989000,-17.12,-6.4799145767211925,10.545085423278808
71189000,-17.15,-6.509933173370362,10.545066826629636
71295000,-17.17,-6.530809716796876,10.544190283203125
71390000,-17.2,-6.549977655029298,10.5550223449707
71496000,-17.23,-6.565863916801684,10.569136083198316
71590000,-17.25,-6.58044059753418,10.57455940246582
71696000,-17.28,-6.6014996337890635,10.583500366210936
71790000,-17.3,-6.620442504882815,10.584557495117185
71896000,-17.33,-6.641614074707034,10.593385925292964
71992000,-17.35,-6.660661849975586,10.594338150024415
72097000,-17.38,-6.681899223327637,10.603100776672362
72192000,-17.4,-6.700566075134277,10.604433924865722
72299000,-17.42,-6.716624281692504,10.608375718307498
72392000,-17.45,-6.730759535217285,10.624240464782714
72499000,-17.48,-6.752123747253417,10.632876252746582
72592000,-17.5,-6.7707604888916,10.6342395111084
72792000,-17.53,-6.8107671227785636,10.624232877221436
72896000,-17.55,-6.831352324532992,10.623647675467007
72991000,-17.58,-6.850169343566895,10.634830656433103
73102000,-17.6,-6.872154397583008,10.632845602416992
73190000,-17.62,-6.889943322753907,10.635056677246093
73294000,-17.65,-6.910888871765137,10.64411112823486
73391000,-17.67,-6.930142640686036,10.644857359313965
73496000,-17.7,-6.951071977233887,10.653928022766111
73591000,-17.73,-6.970199953329685,10.664800046670315
73696000,-17.75,-6.991324321091779,10.663675678908222
73791000,-17.78,-7.010742673873905,10.674257326126096
73897000,-17.8,-7.037102231979373,10.667897768020628
73991000,-17.83,-7.060684738159179,10.67431526184082
74192000,-17.85,-7.100745230102538,10.654254769897463
74302000,-17.88,-7.122715025329589,10.66228497467041
74392000,-17.9,-7.140717573547362,10.664282426452635
74496000,-17.92,-7.1617193893432605,10.66328061065674
74591000,-17.95,-7.180885046005248,10.674114953994751
74698000,-17.98,-7.207626073837281,10.67737392616272
74793000,-18.0,-7.230935196073931,10.674064803926068
74898000,-18.02,-7.251901867554921,10.673098132445078
74991000,-18.05,-7.27033088874817,10.68466911125183
75097000,-18.08,-7.296756011962891,10.688243988037106
75191000,-18.1,-7.320163621520997,10.684836378479003
75389000,-18.12,-7.35988419494629,10.665115805053711
75589000,-18.15,-7.399914712524415,10.655085287475583
75693000,-18.18,-7.425982290325745,10.659017709674254
75790000,-18.2,-7.4503490447998075,10.654650955200191
75895000,-18.23,-7.471258354187015,10.663741645812985
75989000,-18.25,-7.490332832336426,10.664667167663573
76095000,-18.27,-7.511330833435059,10.66366916656494
76189000,-18.3,-7.530392198562622,10.674607801437377
76294000,-18.33,-7.556575326919555,10.678424673080443
76392000,-18.35,-7.580758581542968,10.674241418457033
76499000,-18.38,-7.602103720092773,10.682896279907226
76591000,-18.4,-7.6208957748413075,10.68410422515869
76697000,-18.43,-7.647264869689942,10.687735130310058
76792000,-18.45,-7.670764303588869,10.68423569641113
76899000,-18.48,-7.692112303161623,10.692887696838378
76993000,-18.5,-7.711287024091968,10.693712975908031
77098000,-18.53,-7.737315959363883,10.697684040636117
77190000,-18.55,-7.759944018373396,10.695055981626604
77390000,-18.58,-7.79998242340088,10.685017576599117
77494000,-18.6,-7.826155197143555,10.678844802856446
77589000,-18.62,-7.849856435775758,10.675143564224243
77694000,-18.65,-7.870894593811036,10.684105406188962
77790000,-18.68,-7.889980516052247,10.695019483947751
77896000,-18.7,-7.91151505595506,10.693484944044938
77992000,-18.73,-7.930920295715332,10.704079704284668
78101000,-18.75,-7.957961730957031,10.697038269042968
78191000,-18.78,-7.980520706176758,10.704479293823242
78295000,-18.8,-8.001324157714844,10.703675842285156
78392000,-18.83,-8.021093662261961,10.713906337738036
78496000,-18.85,-8.047047908782957,10.707952091217043
78593000,-18.88,-8.070914030456542,10.714085969543456
78696000,-18.9,-8.09150195159912,10.713498048400877
78792000,-18.93,-8.11104717063904,10.72395282936096
78992000,-18.95,-8.160902147954054,10.694097852045944
79100000,-18.98,-8.182014231162498,10.702985768837502
79191000,-19.0,-8.199940106986773,10.705059893013226
79301000,-19.03,-8.22750464630127,10.70749535369873
79391000,-19.05,-8.250212871551515,10.704787128448485
79500000,-19.08,-8.277188741683961,10.707811258316037
79591000,-19.1,-8.30012833557129,10.70487166442871
79695000,-19.12,-8.320940370178224,10.704059629821776
79790000,-19.15,-8.340121099298651,10.714878900701347
79894000,-19.18,-8.366383267026961,10.718616732973038
79992000,-19.2,-8.390799179077149,10.71420082092285
80189000,-19.23,-8.430361204147339,10.704638795852661
80296000,-19.25,-8.457118921279907,10.697881078720092
80391000,-19.28,-8.480686102294921,10.70431389770508
80498000,-19.3,-8.502037916564941,10.70296208343506
80592000,-19.33,-8.521107967376707,10.71389203262329
80700000,-19.35,-8.547815616607666,10.707184383392335
80793000,-19.38,-8.571205718994143,10.713794281005855
80898000,-19.4,-8.597214801788331,10.707785198211667
80994000,-19.43,-8.621132540561186,10.713867459438813
81102000,-19.45,-8.64249673371268,10.71250326628732
81191000,-19.48,-8.660173532485963,10.724826467514037
81390000,-19.5,-8.70991723251343,10.69508276748657
81500000,-19.53,-8.73177483520508,10.70322516479492
81591000,-19.55,-8.7499719329834,10.7050280670166
81698000,-19.58,-8.776876413345338,10.70812358665466
81790000,-19.6,-8.79993034553528,10.70506965446472
81989000,-19.62,-8.840408887863159,10.684591112136841
82096000,-19.65,-8.866955604553223,10.688044395446775
82191000,-19.68,-8.890494718551636,10.694505281448363
82297000,-19.7,-8.917198791503905,10.687801208496094
82391000,-19.73,-8.940468492507934,10.694531507492066
82496000,-19.75,-8.967039051055908,10.687960948944092
82592000,-19.78,-8.990767164611816,10.694232835388185
82792000,-19.8,-9.030968492507936,10.674031507492064
82898000,-19.83,-9.057505672454836,10.677494327545162
82992000,-19.85,-9.080915937805178,10.674084062194822
83098000,-19.88,-9.102072248840333,10.682927751159665
83191000,-19.9,-9.120886905783472,10.684113094216526
83295000,-19.93,-9.146586540146629,10.68841345985337
83389000,-19.95,-9.169893265903587,10.685106734096411
83494000,-19.98,-9.190886964416505,10.694113035583495
83591000,-20.0,-9.209989099121096,10.695010900878904
83699000,-20.0,-9.236851379394531,10.668148620605468
83790000,-20.0,-9.25989577484131,10.64510422515869
83990000,-20.0,-9.299938554382326,10.605061445617673
84097000,-20.0,-9.326830000829215,10.578169999170784
84190000,-20.0,-9.350385284423828,10.554614715576172
84296000,-20.0,-9.371516799926757,10.533483200073242
84389000,-20.0,-9.390401735305787,10.514598264694213
84496000,-20.0,-9.41687096595764,10.488129034042359
84592000,-20.0,-9.440772886657713,10.464227113342286
84698000,-20.0,-9.461774702453614,10.443225297546386
84792000,-20.0,-9.48075381317139,10.42424618682861
84899000,-20.0,-9.50220862426758,10.40279137573242
84994000,-20.0,-9.521206808471682,10.383793191528317
85099000,-20.0,-9.542204809570315,10.362795190429685
85192000,-20.0,-9.560894594098082,10.344105405901917
85296000,-20.0,-9.581455245820601,10.323544754179398
85391000,-20.0,-9.600204629516602,10.304795370483397
85590000,-20.0,-9.639951905822755,10.265048094177244
85700000,-20.0,-9.661804399108888,10.243195600891111
85790000,-20.0,-9.679936647033692,10.225063352966307
85896000,-20.0,-9.695962054443362,10.209037945556638
85992000,-20.0,-9.710350229282573,10.194649770717426
86101000,-20.0,-9.732268362334281,10.172731637665718
86191000,-20.0,-9.750407695770264,10.154592304229736
86298000,-20.0,-9.766409397125244,10.138590602874755
86392000,-20.0,-9.780488519668578,10.124511480331421
86504000,-20.0,-9.796606092453002,10.108393907546997
86602000,-20.0,-9.810978469848633,10.094021530151366
86718000,-20.0,-9.828115997314454,10.076884002685546
86792000,-20.0,-9.840556776809693,10.064443223190306
86993000,-20.0,-9.870517096710206,10.034482903289794
87101000,-20.0,-9.881191096496583,10.023808903503417
87193000,-20.0,-9.890462260437012,10.014537739562988
87299000,-20.0,-9.901082377624512,10.003917622375488
87392000,-20.0,-9.910432661453095,9.994567338546904
87501000,-20.0,-9.92111806284083,9.98388193715917
87591000,-20.0,-9.93005749206543,9.97494250793457
87789000,-20.0,-9.949938282775879,9.95506171722412
87992000,-20.0,-9.970084671783448,9.934915328216551
88100000,-20.0,-9.981024269866944,9.923975730133055
88189000,-20.0,-9.989957833099366,9.915042166900633
88294000,-20.0,-9.99523210043859,9.909767899561409
88400000,-20.0,-10.000728130340576,9.904271869659423
88513000,-20.0,-10.011956214904785,9.893043785095214
88630000,-20.0,-10.021848211288452,9.883151788711547
88740000,-20.0,-10.02743459701538,9.877565402984619
88594000,-20.0,-10.02018572807312,9.88481427192688
88702000,-20.0,-10.025646705627441,9.879353294372558
88795000,-20.0,-10.03029073486328,9.874709265136719
88993000,-20.0,-10.040251872634887,9.864748127365113
89192000,-20.0,-10.050189168548584,9.854810831451415
89391000,-20.0,-10.06,9.844999999999999
89501000,-20.0,-10.06,9.844999999999999
89613000,-20.0,-10.06101589202881,9.84398410797119
89592000,-20.0,-10.060047819519044,9.844952180480956
89700000,-20.0,-10.065465643310548,9.839534356689452
89792000,-20.0,-10.070076668167115,9.834923331832885
89993000,-20.0,-10.080148432159424,9.824851567840575
90100000,-20.0,-10.085456106567383,9.819543893432616
90191000,-20.0,-10.09,9.815
90294000,-20.0,-10.09,9.815
90390000,-20.0,-10.090125169754028,9.814874830245971
90589000,-20.0,-10.1,9.805
90700000,-20.0,-10.1,9.805
90790000,-20.0,-10.100085830688476,9.804914169311523
90896000,-20.0,-10.105382299423217,9.799617700576782
90993000,-20.0,-10.11,9.795
91100000,-20.0,-10.11,9.795
91192000,-20.0,-10.11021658668518,9.79478341331482
91298000,-20.0,-10.115500896072387,9.789499103927612
91392000,-20.0,-10.12,9.785
91499000,-20.0,-10.12,9.785
91593000,-20.0,-10.12,9.785
91789000,-20.0,-10.12,9.785
91897000,-20.0,-10.12,9.785
91990000,-20.0,-10.12,9.785
92097000,-20.0,-10.12,9.785
92189000,-20.0,-10.12,9.785
92297000,-20.0,-10.125327663516524,9.779672336483475
92390000,-20.0,-10.129968413547498,9.775031586452501
92499000,-20.0,-10.13,9.774999999999999
92591000,-20.0,-10.13,9.774999999999999
92697000,-20.0,-10.13,9.774999999999999
92792000,-20.0,-10.13,9.774999999999999
92897000,-20.0,-10.13,9.774999999999999
92994000,-20.0,-10.130273568725586,9.774726431274413
93192000,-20.0,-10.14,9.764999999999999
93299000,-20.0,-10.14,9.764999999999999
93392000,-20.0,-10.14,9.764999999999999
93502000,-20.0,-10.14,9.764999999999999
93593000,-20.0,-10.14,9.764999999999999
93790000,-20.0,-10.14,9.764999999999999
93897000,-20.0,-10.14,9.764999999999999
93990000,-20.0,-10.14,9.764999999999999
94190000,-20.0,-10.14,9.764999999999999
94296000,-20.0,-10.14,9.764999999999999
94390000,-20.0,-10.14,9.764999999999999
94496000,-20.0,-10.14,9.764999999999999
94591000,-20.0,-10.14,9.764999999999999
94696000,-20.0,-10.14,9.764999999999999
94790000,-19.97,-10.14,9.734999999999998
94897000,-19.95,-10.14,9.714999999999998
94991000,-19.92,-10.140173909759522,9.68482609024048
95100000,-19.9,-10.145541188812256,9.659458811187742
95193000,-19.88,-10.15,9.634999999999998
95302000,-19.85,-10.15,9.605
95392000,-19.82,-10.15,9.575
95500000,-19.8,-10.15,9.555
95593000,-19.77,-10.15,9.524999999999999
95698000,-19.75,-10.15,9.504999999999999
95791000,-19.72,-10.15,9.474999999999998
95993000,-19.7,-10.15,9.454999999999998
96099000,-19.67,-10.15,9.425
96194000,-19.65,-10.15,9.404999999999998
96393000,-19.62,-10.149932431307706,9.375067568692295
96512000,-19.6,-10.144398712004074,9.360601287995927
96633000,-19.57,-10.138308906555176,9.336691093444824
96759000,-19.55,-10.13187804222107,9.32312195777893
96600000,-19.52,-10.139655723571778,9.285344276428221
96714000,-19.5,-10.133910789489747,9.271089210510253
96795000,-19.47,-10.129767541885377,9.245232458114621
96995000,-19.45,-10.119793291091918,9.23520670890808
97195000,-19.42,-10.109448094177246,9.215551905822755
97394000,-19.4,-10.089755279922485,9.215244720077512
97507000,-19.38,-10.08421324005127,9.200786759948729
97619000,-19.35,-10.077524552154541,9.17747544784546
97600000,-19.32,-10.079233040618897,9.145766959381103
97798000,-19.3,-10.059321366111831,9.145678633888169
97907000,-19.27,-10.048436731772846,9.126563268227153
97997000,-19.25,-10.039731166458129,9.11526883354187
98190000,-19.22,-10.030011546707152,9.094988453292846
98393000,-19.2,-10.00983293800354,9.09516706199646
98499000,-19.17,-9.993864138412475,9.081135861587526
98592000,-19.15,-9.97982980554754,9.075170194452458
98701000,-19.12,-9.963695370067247,9.061304629932753
98790000,-19.1,-9.949749183654783,9.055250816345218
98897000,-19.07,-9.939347934722898,9.035652065277102
98991000,-19.05,-9.929610185623169,9.025389814376831
99098000,-19.02,-9.913806610107422,9.011193389892577
99191000,-19.0,-9.899489714813233,9.005510285186766
99298000,-18.97,-9.883707596969606,8.991292403030393
99392000,-18.95,-9.869248094177246,8.985751905822752
99501000,-18.93,-9.847723664855957,8.987276335144042
99592000,-18.9,-9.829451091003419,8.97554890899658
99795000,-18.88,-9.799240532676771,8.985759467323227
99904000,-18.85,-9.782884546034406,8.972115453965595
99996000,-18.82,-9.769368737030028,8.955631262969971
100107000,-18.8,-9.752630322265624,8.952369677734376
100191000,-18.77,-9.739900274658202,8.935099725341797
100295000,-18.75,-9.719159765625,8.935840234375
100394000,-18.72,-9.699659130859374,8.925340869140625
100502000,-18.7,-9.683614514160155,8.921385485839844
100590000,-18.67,-9.669901193946298,8.905098806053703
100792000,-18.65,-9.629608039855956,8.925391960144042
100901000,-18.62,-9.613202934265136,8.911797065734865
100995000,-18.6,-9.599027252197265,8.905972747802736
101104000,-18.57,-9.577008819580078,8.897991180419922
101195000,-18.55,-9.55903964996338,8.89596035003662
101302000,-18.52,-9.537320671081543,8.887679328918455
101395000,-18.5,-9.518668260192872,8.886331739807128
101503000,-18.47,-9.497377481079102,8.877622518920896
101593000,-18.45,-9.479318768692018,8.875681231307981
101700000,-18.42,-9.463617474746703,8.861382525253298
101793000,-18.4,-9.448768054962155,8.856231945037843
101995000,-18.38,-9.399014759630258,8.88598524036974
102104000,-18.35,-9.37702831759311,8.87797168240689
102192000,-18.32,-9.359861174011229,8.86513882598877
102300000,-18.3,-9.338003912353514,8.866996087646486
102412000,-18.27,-9.317777395629882,8.857222604370117
102532000,-18.25,-9.29395556488037,8.861044435119629
102653000,-18.22,-9.26903224029541,8.855967759704589
102600000,-18.2,-9.279068670654295,8.825931329345703
102714000,-18.17,-9.256103239440916,8.818896760559085
102795000,-18.15,-9.239587155737057,8.81541284426294
102991000,-18.12,-9.199387741088866,8.825612258911134
103190000,-18.1,-9.159651908874512,8.845348091125489
103391000,-18.07,-9.11911256980896,8.85588743019104
103499000,-18.05,-9.092192728042605,8.862807271957395
103593000,-18.02,-9.06912793121338,8.855872068786619
103697000,-18.0,-9.048144235229492,8.856855764770508
103792000,-17.98,-9.029123162841794,8.855876837158206
103898000,-17.95,-9.00822911224365,8.846770887756348
103994000,-17.92,-8.988541833858676,8.836458166141325
104190000,-17.9,-8.940132700476314,8.864867299523684
104297000,-17.88,-8.918627615356444,8.866372384643554
104389000,-17.85,-8.900125341796874,8.854874658203126
104497000,-17.82,-8.873210609436034,8.851789390563965
104589000,-17.8,-8.850154293060301,8.854845706939699
104697000,-17.77,-8.828734426879882,8.846265573120117
104790000,-17.75,-8.809944542778862,8.845055457221138
104894000,-17.73,-8.788939625133166,8.846060374866834
104992000,-17.7,-8.769289512634277,8.835710487365722
105097000,-17.67,-8.748266716003418,8.826733283996584
105190000,-17.65,-8.729368190765381,8.825631809234617
105392000,-17.62,-8.679237603759766,8.845762396240234
105496000,-17.6,-8.658358811950684,8.846641188049317
105592000,-17.57,-8.639304360961916,8.835695639038084
105696000,-17.55,-8.618367395019531,8.836632604980469
105791000,-17.52,-8.599311990356442,8.825688009643557
105897000,-17.5,-8.578259629821776,8.826740370178223
105993000,-17.47,-8.558681108078153,8.816318891921846
106100000,-17.45,-8.532422016257105,8.822577983742894
106191000,-17.42,-8.50987166442871,8.815128335571291
106296000,-17.4,-8.488971891784667,8.816028108215331
106391000,-17.38,-8.469746597290039,8.81525340270996
106497000,-17.35,-8.443444259643554,8.811555740356447
106591000,-17.32,-8.419901228332519,8.805098771667481
106790000,-17.3,-8.38005763092041,8.82494236907959
106900000,-17.27,-8.357853977704288,8.817146022295711
106991000,-17.25,-8.339263286590576,8.815736713409423
107097000,-17.22,-8.312771406173706,8.812228593826292
107191000,-17.2,-8.28951171875,8.81548828125
107297000,-17.17,-8.268301048278808,8.806698951721193
107391000,-17.15,-8.249452590942383,8.805547409057615
107499000,-17.12,-8.22799301147461,8.797006988525391
107593000,-17.1,-8.208753749847414,8.796246250152587
107700000,-17.07,-8.18219868850708,8.79280131149292
107793000,-17.05,-8.158830043792722,8.796169956207278
107905000,-17.02,-8.132228490829466,8.792771509170533
108002000,-17.0,-8.108329705810544,8.796670294189456
108120000,-16.97,-8.084735803222655,8.790264196777343
108231000,-16.95,-8.05990333859283,8.795096661407168
108194000,-16.92,-8.068835726067572,8.756164273932429
108391000,-16.9,-8.019884062194823,8.785115937805175
108498000,-16.88,-7.998499822998046,8.786500177001953
108591000,-16.85,-7.979774015426635,8.775225984573366
108791000,-16.82,-7.929885969543456,8.795114030456544
108992000,-16.8,-7.889705505371092,8.815294494628908
109099000,-16.77,-7.862682324804441,8.812317675195558
109190000,-16.75,-7.839692916870117,8.815307083129882
109390000,-16.72,-7.799542236328125,8.825457763671873
109500000,-16.7,-7.772058534622193,8.832941465377806
109592000,-16.67,-7.749279565429688,8.825720434570313
109702000,-16.65,-7.727415628051758,8.82758437194824
109792000,-16.62,-7.709081575393674,8.815918424606325
109901000,-16.6,-7.681801721572874,8.823198278427126
109995000,-16.57,-7.6587645812988265,8.816235418701174
110105000,-16.55,-7.637163858032225,8.817836141967776
110193000,-16.52,-7.6188829376673946,8.806117062332605
110297000,-16.5,-7.593020423284853,8.811979576715148
110391000,-16.47,-7.569753749847411,8.805246250152587
110590000,-16.45,-7.52006965446472,8.834930345535279
110699000,-16.42,-7.498276663208007,8.826723336791995
110790000,-16.4,-7.480065260314941,8.824934739685057
110897000,-16.38,-7.458603773498534,8.826396226501464
110994000,-16.35,-7.439475515731656,8.815524484268344
111103000,-16.32,-7.411904454086766,8.813095545913233
111191000,-16.3,-7.389507904052734,8.815492095947265
111296000,-16.27,-7.368602409362793,8.806397590637205
111390000,-16.25,-7.349399185180664,8.805600814819336
111495000,-16.22,-7.323404407501221,8.801595592498776
111591000,-16.2,-7.299417304992676,8.805582695007322
111792000,-16.17,-7.259103033065793,8.815896966934208
111899000,-16.15,-7.232205841064451,8.822794158935546
111993000,-16.12,-7.209102182006834,8.815897817993166
112100000,-16.1,-7.187672166442869,8.817327833557131
112192000,-16.07,-7.169134606933595,8.805865393066405
112296000,-16.05,-7.148374070739747,8.806625929260253
112393000,-16.02,-7.1287755312778,8.7962244687222
112499000,-16.0,-7.102649812226249,8.80235018777375
112591000,-16.0,-7.079813490295409,8.82518650970459
112790000,-16.0,-7.040064306640624,8.864935693359376
112895000,-16.0,-7.013650491714475,8.891349508285524
112991000,-16.0,-6.989896459960937,8.915103540039063
113098000,-16.0,-6.968464537048339,8.93653546295166
113189000,-16.0,-6.950122480773925,8.954877519226075
113300000,-16.0,-6.9223981491243,8.9826018508757
113391000,-16.0,-6.899478340148926,9.005521659851073
113495000,-16.0,-6.878558540344239,9.02644145965576
113591000,-16.0,-6.8593455410003665,9.045654458999634
113695000,-16.0,-6.833299503326415,9.071700496673584
113792000,-16.0,-6.809137467956541,9.095862532043459
113991000,-16.0,-6.769320573425291,9.13567942657471
114100000,-16.0,-6.747671212768553,9.157328787231446
114191000,-16.0,-6.729322480773927,9.175677519226072
114299000,-16.0,-6.707888650512697,9.197111349487303
114392000,-16.0,-6.689153561733738,9.215846438266261
114497000,-16.0,-6.668546642643391,9.236453357356607
114591000,-16.0,-6.649892645263671,9.255107354736328
114695000,-16.0,-6.629043417358398,9.275956582641601
114791000,-16.0,-6.609856541442871,9.29514345855713
114897000,-16.0,-6.594040806579589,9.31095919342041
114996000,-16.0,-6.579154501342773,9.325845498657227
115190000,-16.0,-6.540092916870116,9.364907083129884
115297000,-16.0,-6.523794349901603,9.381205650098396
115389000,-16.0,-6.50985933303833,9.39514066696167
115500000,-16.0,-6.498860607147217,9.406139392852783
115591000,-16.0,-6.489555110931397,9.415444889068603
115698000,-16.0,-6.473685731887817,9.431314268112184
115791000,-16.0,-6.4597425079345685,9.445257492065432
115895000,-16.0,-6.449274978637694,9.455725021362305
115994000,-16.0,-6.439125649642944,9.465874350357057
116192000,-16.0,-6.409644551086426,9.495355448913573
116302000,-16.0,-6.398636765289307,9.506363234710692
116392000,-16.0,-6.38963549118042,9.515364508819578
116499000,-16.0,-6.3789552925109865,9.526044707489012
116590000,-16.0,-6.369757804492913,9.535242195507086
116695000,-16.0,-6.359450568019754,9.545549431980247
116789000,-16.0,-6.35006252251049,9.554937477489508
116898000,-16.0,-6.339503588867187,9.565496411132813
116990000,-16.0,-6.329969210815429,9.57503078918457
117190000,-16.0,-6.3100364448547355,9.594963555145265
117295000,-16.0,-6.304737314551767,9.600262685448232
117390000,-16.0,-6.299921560287475,9.605078439712523
117495000,-16.0,-6.294638442993164,9.610361557006835
117590000,-16.0,-6.289844074249268,9.615155925750733
117696000,-16.0,-6.279203453063964,9.625796546936035
117791000,-16.0,-6.269907732009886,9.635092267990112
117904000,-16.0,-6.26454092979431,9.640459070205688
118024000,-16.0,-6.26,9.645
118002000,-16.0,-6.26,9.645
118116000,-16.0,-6.26,9.645
118226000,-16.0,-6.25822368850708,9.64677631149292
118194000,-16.0,-6.259764816665649,9.64523518333435
118394000,-16.0,-6.249771015548706,9.655228984451293
118592000,-16.0,-6.24,9.665
118790000,-16.0,-6.24,9.665
118990000,-16.0,-6.230022275543213,9.674977724456786
119101000,-16.0,-6.23,9.674999999999999
119190000,-16.0,-6.23,9.674999999999999
119294000,-16.0,-6.224804008102417,9.680195991897582
119390000,-16.0,-6.220016791915893,9.684983208084107
119495000,-16.0,-6.214706970368972,9.690293029631027
119590000,-16.0,-6.21,9.694999999999999
119695000,-16.0,-6.21,9.694999999999999
119790000,-16.0,-6.209915122985839,9.69508487701416
119897000,-16.0,-6.204568347930907,9.700431652069092
119994000,-16.0,-6.2,9.705
120192000,-16.0,-6.2,9.705
120299000,-16.0,-6.2,9.705
120392000,-16.0,-6.199821560287476,9.705178439712524
120498000,-16.0,-6.194508402252198,9.710491597747803
120592000,-16.0,-6.19,9.714999999999998
120699000,-16.0,-6.19,9.714999999999998
120792000,-16.0,-6.19,9.714999999999998
120897000,-16.0,-6.19,9.714999999999998
120991000,-16.0,-6.19,9.714999999999998
121190000,-16.0,-6.19,9.714999999999998
121297000,-16.0,-6.184641883468628,9.72035811653137
121390000,-16.0,-6.180030381774902,9.724969618225098
121496000,-16.0,-6.18,9.725
121590000,-16.0,-6.18,9.725
121696000,-16.0,-6.18,9.725
121790000,-16.0,-6.18,9.725
121916000,-16.0,-6.18,9.725
122029000,-16.0,-6.18,9.725
122000000,-16.0,-6.18,9.725
122114000,-16.0,-6.18,9.725
122225000,-16.0,-6.18,9.725
122195000,-16.0,-6.18,9.725
122394000,-16.0,-6.18,9.725
122500000,-16.0,-6.18,9.725
122594000,-16.0,-6.18,9.725
122793000,-16.0,-6.179773990895487,9.725226009104512
122991000,-16.0,-6.17,9.735
123190000,-16.0,-6.17,9.735
123298000,-16.0,-6.17,9.735
123390000,-16.0,-6.17,9.735
123497000,-16.0,-6.17,9.735
123590000,-16.0,-6.17,9.735
123701000,-16.02,-6.17,9.754999999999999
123793000,-16.05,-6.17,9.785
123899000,-16.08,-6.17,9.814999999999998
123991000,-16.1,-6.169839782714844,9.835160217285157
124095000,-16.12,-6.164637489318848,9.860362510681153
124192000,-16.15,-6.16,9.894999999999998
124392000,-16.17,-6.16,9.915000000000001
124499000,-16.2,-6.16,9.944999999999999
124592000,-16.23,-6.16,9.975
124700000,-16.25,-6.16,9.995
124792000,-16.27,-6.16,10.014999999999999
124902000,-16.3,-6.16,10.045
124992000,-16.33,-6.16,10.074999999999998
125097000,-16.35,-6.16,10.095
125190000,-16.38,-6.160013725662232,10.124986274337767
125294000,-16.4,-6.165185501480103,10.139814498519895
125390000,-16.42,-6.170013964080811,10.15498603591919
125590000,-16.45,-6.179969618225098,10.175030381774901
125697000,-16.48,-6.18,10.205
125793000,-16.5,-6.180118732452393,10.224881267547607
125899000,-16.52,-6.185468130111695,10.239531869888305
125991000,-16.55,-6.190141382217408,10.264858617782592
126102000,-16.58,-6.195637407302857,10.28936259269714
126191000,-16.6,-6.200260829925537,10.304739170074464
126296000,-16.62,-6.210780811309815,10.314219188690187
126393000,-16.65,-6.220235898590087,10.334764101409911
126499000,-16.67,-6.225541904067993,10.34945809593201
126593000,-16.7,-6.230470366668701,10.374529633331298
126701000,-16.73,-6.241163916778564,10.393836083221435
126794000,-16.75,-6.250504222106935,10.404495777893064
126994000,-16.77,-6.270437382613078,10.40456261738692
127105000,-16.8,-6.28143674113963,10.423563258860371
127194000,-16.83,-6.290111374664307,10.444888625335691
127390000,-16.85,-6.309987397003174,10.445012602996828
127498000,-16.88,-6.325971352767945,10.459028647232055
127591000,-16.9,-6.340029017639161,10.464970982360837
127702000,-16.92,-6.35658289642334,10.46841710357666
127791000,-16.95,-6.369985387039185,10.485014612960812
127898000,-16.98,-6.380854340370256,10.504145659629744
127990000,-17.0,-6.390243902206421,10.514756097793578
128099000,-17.03,-6.406530990600586,10.528469009399414
128191000,-17.05,-6.4202882480621355,10.534711751937865
128392000,-17.08,-6.450768118286135,10.534231881713863
128499000,-17.1,-6.471727972412111,10.53327202758789
128593000,-17.12,-6.490619004058837,10.534380995941163
128699000,-17.15,-6.506584227371216,10.54841577262878
128792000,-17.17,-6.520574658203124,10.554425341796877
128903000,-17.2,-6.537060587692256,10.567939412307743
128994000,-17.23,-6.55102395388159,10.58397604611841
129101000,-17.25,-6.5723041103854,10.5826958896146
129195000,-17.28,-6.590184228134154,10.594815771865846
129304000,-17.3,-6.606891171646118,10.598108828353881
129391000,-17.33,-6.620011987304686,10.614988012695312
129591000,-17.35,-6.6600110336303695,10.594988966369632
129699000,-17.38,-6.681563119506833,10.603436880493165
129791000,-17.4,-6.700005365236839,10.604994634763159
129899000,-17.42,-6.721844507082541,10.60315549291746
129993000,-17.45,-6.740873565673823,10.614126434326176
130101000,-17.48,-6.762495269775386,10.622504730224614
130191000,-17.5,-6.78056266784668,10.624437332153319
130298000,-17.53,-6.801608352661134,10.633391647338867
130394000,-17.55,-6.8209950927734395,10.63400490722656
130500000,-17.58,-6.8422067169189456,10.642793283081053
130593000,-17.6,-6.8609464553832975,10.644053544616703
130792000,-17.62,-6.900725202941891,10.624274797058108
130898000,-17.65,-6.9218948654174755,10.633105134582523
130993000,-17.67,-6.940786951650484,10.634213048349517
131103000,-17.7,-6.962702576287899,10.6422974237121
131194000,-17.73,-6.980349588012694,10.654650411987307
131301000,-17.75,-7.002008485412597,10.652991514587402
131391000,-17.78,-7.020209295272824,10.664790704727176
131496000,-17.8,-7.046367389678954,10.658632610321046
131592000,-17.83,-7.070283784484862,10.664716215515137
131699000,-17.85,-7.091493501281735,10.663506498718265
131791000,-17.88,-7.1101354117345315,10.674864588265466
131991000,-17.9,-7.150377655029292,10.654622344970706
132190000,-17.92,-7.190373840332032,10.634626159667969
132297000,-17.95,-7.211511077880861,10.643488922119138
132391000,-17.98,-7.23052809715271,10.65447190284729
132501000,-18.0,-7.257770996093748,10.647229003906252
132593000,-18.02,-7.280816755676266,10.644183244323733
132702000,-18.05,-7.302591047668455,10.652408952331546
132793000,-18.08,-7.320844412231442,10.664155587768557
132911000,-18.1,-7.343323469543452,10.661676530456548
133027000,-18.12,-7.368073318481437,10.656926681518565
133003000,-18.15,-7.3621570091247515,10.692842990875247
133116000,-18.18,-7.391319177627561,10.693680822372437
133195000,-18.2,-7.410950303785868,10.694049696214131
133303000,-18.23,-7.432524116440572,10.702475883559428
133391000,-18.25,-7.450012940979002,10.704987059020997
133591000,-18.27,-7.489989099121092,10.685010900878906
133790000,-18.3,-7.53993988227844,10.665060117721561
133900000,-18.33,-7.561795816040038,10.673204183959959
133992000,-18.35,-7.580404070844551,10.67459592915545
134099000,-18.38,-7.607346574417265,10.677653425582735
134191000,-18.4,-7.630468254089355,10.674531745910643
134300000,-18.43,-7.652111892700196,10.682888107299803
134391000,-18.45,-7.67063419342041,10.684365806579589
134497000,-18.48,-7.696941299438474,10.688058700561525
134594000,-18.5,-7.721274860382075,10.683725139617925
134708000,-18.53,-7.74808979797363,10.68691020202637
134803000,-18.55,-7.771685552978512,10.68331444702149
134917000,-18.58,-7.794993353271478,10.69000664672852
134995000,-18.6,-7.811075201416012,10.69392479858399
135109000,-18.62,-7.833492269897458,10.691507730102542
135193000,-18.65,-7.851001393913037,10.70399860608696
135390000,-18.68,-7.899934576053429,10.68506542394657
135590000,-18.7,-7.939976701354979,10.66502329864502
135698000,-18.73,-7.9668394584655715,10.668160541534428
135791000,-18.75,-7.9900673004150375,10.664932699584961
135897000,-18.78,-8.011392411804199,10.673607588195802
135991000,-18.8,-8.030288473957715,10.674711526042286
136095000,-18.83,-8.056537396209405,10.678462603790592
136192000,-18.85,-8.080579833984375,10.674420166015626
136390000,-18.88,-8.120340461730956,10.664659538269042
136501000,-18.9,-8.142389411926267,10.662610588073731
136590000,-18.93,-8.160422000885003,10.674577999114996
136701000,-18.95,-8.188035640716548,10.666964359283451
136793000,-18.98,-8.210955992126461,10.674044007873539
136901000,-19.0,-8.232412710571284,10.672587289428716
136994000,-19.03,-8.25136665153503,10.683633348464971
137098000,-19.05,-8.277484214782712,10.677515785217288
137193000,-19.08,-8.300864439392086,10.684135560607912
137298000,-19.1,-8.321868162536619,10.683131837463382
137393000,-19.12,-8.34108991566271,10.68391008433729
137590000,-19.15,-8.38991805199349,10.665081948006508
137701000,-19.18,-8.411974153137203,10.673025846862796
137790000,-19.2,-8.42992806396484,10.675071936035158
137897000,-19.23,-8.45675601196289,10.67824398803711
137991000,-19.25,-8.480253266906736,10.674746733093263
138098000,-19.28,-8.501493501281734,10.683506498718266
138192000,-19.3,-8.52024512512515,10.68475487487485
138298000,-19.33,-8.546957639058432,10.688042360941566
138392000,-19.35,-8.570603675842285,10.684396324157715
138591000,-19.38,-8.610345230102533,10.674654769897465
138701000,-19.4,-8.632365570068355,10.672634429931643
138792000,-19.43,-8.650904119491573,10.684095880508426
138903000,-19.45,-8.678448617935173,10.676551382064826
138994000,-19.48,-8.701124792480464,10.683875207519536
139103000,-19.5,-8.722794180297848,10.682205819702151
139193000,-19.53,-8.74114611434936,10.69385388565064
139300000,-19.55,-8.767279174804685,10.687720825195315
139393000,-19.58,-8.790898371026069,10.694101628973929
139590000,-19.6,-8.829882508834988,10.675117491165013
139695000,-19.62,-8.850963258361812,10.674036741638188
139790000,-19.65,-8.86988324127197,10.685116758728029
139897000,-19.68,-8.896655876159667,10.688344123840333
139991000,-19.7,-8.920243730163572,10.684756269836427
140101000,-19.73,-8.941966523742673,10.693033476257327
140191000,-19.75,-8.96015481505731,10.69484518494269
140295000,-19.78,-8.986357980207965,10.698642019792036
140390000,-19.8,-9.010459671020508,10.694540328979492
140495000,-19.83,-9.03126884460449,10.703731155395507
140592000,-19.85,-9.050747442245477,10.704252557754524
140793000,-19.88,-9.100734739685054,10.684265260314945
140900000,-19.9,-9.12245371856689,10.682546281433108
140994000,-19.93,-9.141214063644405,10.693785936355594
141105000,-19.95,-9.168936183929441,10.686063816070558
141194000,-19.98,-9.191090460205073,10.693909539794927
141299000,-20.0,-9.212156172180173,10.692843827819827
141392000,-20.0,-9.230864378674198,10.674135621325801
141496000,-20.0,-9.25136082262096,10.65363917737904
141590000,-20.0,-9.2700829334259,10.634917066574099
141695000,-20.0,-9.29610751342773,10.60889248657227
141790000,-20.0,-9.320082933425901,10.584917066574098
141990000,-20.0,-9.369937498092648,10.535062501907351
142101000,-20.0,-9.392054261779782,10.512945738220218
142190000,-20.0,-9.409935693359373,10.495064306640627
142301000,-20.0,-9.437817390904284,10.467182609095715
142391000,-20.0,-9.460536918640138,10.444463081359862
142500000,-20.0,-9.482199630737304,10.422800369262696
142591000,-20.0,-9.50067234039306,10.40432765960694
142698000,-20.0,-9.527104616165156,10.377895383834844
142791000,-20.0,-9.55051498413086,10.35448501586914
142897000,-20.0,-9.571569252014159,10.33343074798584
142994000,-20.0,-9.59118678131103,10.313813218688969
143192000,-20.0,-9.630735693359371,10.274264306640628
143303000,-20.0,-9.652720747375486,10.252279252624513
143392000,-20.0,-9.670551770019532,10.234448229980467
143502000,-20.0,-9.6869118144989,10.218088185501099
143593000,-20.0,-9.700919144129985,10.204080855870014
143791000,-20.0,-9.739942939682761,10.165057060317238
143898000,-20.0,-9.756044308853149,10.14895569114685
143991000,-20.0,-9.769958207321165,10.135041792678834
144190000,-20.0,-9.809964303588865,10.095035696411134
144295000,-20.0,-9.820436806488036,10.084563193511963
144390000,-20.0,-9.829954972076415,10.075045027923585
144494000,-20.0,-9.845702803640652,10.059297196359347
144590000,-20.0,-9.860153541564937,10.044846458435062
144695000,-20.0,-9.870668277740476,10.034331722259523
144790000,-20.0,-9.88020742416382,10.02479257583618
144895000,-20.0,-9.895987396240233,10.009012603759766
145001000,-20.0,-9.911280288696288,9.993719711303712
144993000,-20.0,-9.910515666198728,9.994484333801271
145099000,-20.0,-9.921001315307615,9.983998684692384
145193000,-20.0,-9.93022969970703,9.974770300292969
145392000,-20.0,-9.940368323516847,9.964631676483153
145500000,-20.0,-9.951150088500977,9.953849911499022
145592000,-20.0,-9.960368453677336,9.944631546322663
145791000,-20.0,-9.980016484069823,9.924983515930176
145898000,-20.0,-9.990726723480224,9.914273276519776
145991000,-20.0,-9.999976429748534,9.905023570251466
146099000,-20.0,-10.005430357360838,9.899569642639161
146190000,-20.0,-10.009972240829468,9.895027759170532
146390000,-20.0,-10.01997939338684,9.885020606613159
146496000,-20.0,-10.025280988288648,9.879719011711352
146591000,-20.0,-10.03011086463928,9.87488913536072
146697000,-20.0,-10.035407094955442,9.869592905044557
146790000,-20.0,-10.040084161758422,9.864915838241577
146894000,-20.0,-10.045292415618896,9.859707584381104
146990000,-20.0,-10.05006866455078,9.85493133544922
147096000,-20.0,-10.055391359329223,9.849608640670777
147193000,-20.0,-10.060187976455689,9.84481202354431
147299000,-20.0,-10.065520446395874,9.839479553604125
147405000,-20.0,-10.070843141174317,9.834156858825683
147592000,-20.0,-10.080181777572632,9.824818222427368
147706000,-20.0,-10.085512578582764,9.819487421417236
147820000,-20.0,-10.09,9.815
147939000,-20.0,-10.09,9.815
148050000,-20.0,-10.09277088165283,9.812229118347169
147796000,-20.0,-10.09,9.815
147905000,-20.0,-10.09,9.815
147993000,-20.0,-10.090127451324463,9.814872548675536
148191000,-20.0,-10.1,9.805
148391000,-20.0,-10.1,9.805
148590000,-20.0,-10.100015550093216,9.804984449906783
148696000,-20.0,-10.105307238415033,9.799692761584966
148792000,-20.0,-10.11,9.795
148898000,-20.0,-10.11,9.795
148992000,-20.0,-10.11,9.795
149195000,-20.0,-10.110231130218505,9.794768869781494
149303000,-20.0,-10.115655152893066,9.789344847106934
149392000,-20.0,-10.12,9.785
149499000,-20.0,-10.12,9.785
149592000,-20.0,-10.12,9.785
149701000,-20.0,-10.12,9.785
149793000,-20.0,-10.120227425452505,9.784772574547494
149899000,-20.0,-10.125506154428614,9.779493845571386
149994000,-20.0,-10.13,9.774999999999999
150100000,-20.0,-10.13,9.774999999999999
150190000,-20.0,-10.13,9.774999999999999
150390000,-20.0,-10.13,9.774999999999999
150498000,-20.0,-10.13,9.774999999999999
150590000,-20.0,-10.13,9.774999999999999
150701000,-20.0,-10.13,9.774999999999999
150791000,-20.0,-10.13,9.774999999999999
150897000,-20.0,-10.13,9.774999999999999
150991000,-20.0,-10.130160694122313,9.774839305877686
151097000,-20.0,-10.135409717559813,9.769590282440186
151192000,-20.0,-10.14,9.764999999999999
151392000,-20.0,-10.14,9.764999999999999
151499000,-20.0,-10.14,9.764999999999999
151612000,-20.0,-10.14,9.764999999999999
151606000,-20.0,-10.14,9.764999999999999
151718000,-20.0,-10.14,9.764999999999999
151829000,-20.0,-10.14,9.764999999999999
151795000,-20.0,-10.14,9.764999999999999
151992000,-20.0,-10.14,9.764999999999999
152100000,-20.0,-10.14,9.764999999999999
152192000,-20.0,-10.14,9.764999999999999
152391000,-19.97,-10.14,9.734999999999998
152590000,-19.95,-10.14,9.714999999999998
152698000,-19.92,-10.145385988794192,9.679614011205809
152790000,-19.9,-10.15,9.654999999999998
152990000,-19.88,-10.15,9.634999999999998
153097000,-19.85,-10.15,9.605
153190000,-19.82,-10.15,9.575
153300000,-19.8,-10.15,9.555
153393000,-19.77,-10.15,9.524999999999999
153500000,-19.75,-10.15,9.504999999999999
153592000,-19.72,-10.149823706054688,9.47517629394531
153697000,-19.7,-10.144567530059815,9.460432469940184
153792000,-19.67,-10.14,9.435
153897000,-19.65,-10.14,9.414999999999997
153995000,-19.62,-10.139708130713737,9.385291869286263
154190000,-19.6,-10.130007891513335,9.374992108486666
154297000,-19.57,-10.13,9.344999999999999
154390000,-19.55,-10.13,9.325
154496000,-19.52,-10.13,9.294999999999998
154590000,-19.5,-10.13,9.274999999999999
154696000,-19.47,-10.124733197784424,9.250266802215574
154792000,-19.45,-10.119923520714345,9.235076479285654
154897000,-19.42,-10.114624125933407,9.210375874066594
154991000,-19.4,-10.109872207641603,9.195127792358395
155190000,-19.38,-10.099833583831787,9.185166416168212
155294000,-19.35,-10.089387989044189,9.165612010955812
155392000,-19.32,-10.079642643737792,9.145357356262208
155498000,-19.3,-10.069051136779786,9.135948863220214
155593000,-19.27,-10.059563965606692,9.115436034393307
155708000,-19.25,-10.048678250122071,9.106321749877928
155827000,-19.22,-10.036783070373536,9.088216929626462
155803000,-19.2,-10.039167713928224,9.065832286071775
155914000,-19.17,-10.027846169281009,9.047153830718992
156025000,-19.15,-10.016638349778585,9.038361650221413
155997000,-19.12,-10.019328447851805,9.005671552148195
156192000,-19.1,-9.99990231781006,9.005097682189941
156299000,-19.07,-9.983799050140382,8.991200949859618
156391000,-19.05,-9.969900172042848,8.985099827957152
156591000,-19.02,-9.939938080596924,8.985061919403075
156792000,-19.0,-9.909808853611803,8.995191146388196
156992000,-18.97,-9.879432802200322,8.995567197799677
157098000,-18.95,-9.863584165573124,8.991415834426874
157190000,-18.93,-9.849770402908325,8.985229597091674
157296000,-18.9,-9.834064102172851,8.970935897827147
157390000,-18.88,-9.819743938446045,8.965256061553953
157503000,-18.85,-9.803783721923828,8.951216278076172
157621000,-18.82,-9.784738616943361,8.940261383056638
157598000,-18.8,-9.788603410339359,8.916396589660641
157707000,-18.77,-9.766588792419435,8.908411207580563
157794000,-18.75,-9.749355961990359,8.90564403800964
