timestamp,TimeUS,ThI,ABst,ThO,ThH,DAlt,Alt,BAlt,DSAlt,SAlt,TAlt,DCRt,CRt
1680023519.36001611,209372884,0.0,0.0,0.5,0.5,0.0,-0.2818830609321594,-0.2851395010948181,0.0,0.0,0.0,0,-3
1680023519.45997596,209472844,0.0,0.0,0.5,0.5,0.0,-0.2668391466140747,-0.05783402547240257,0.0,0.0,0.0,0,-2
1680023519.55993605,209572804,0.0,0.0,0.5,0.5,0.0,-0.2542094886302948,-0.2577012777328491,0.0,0.0,0.0,0,-1
1680023519.65989614,209672764,0.0,0.0,0.5,0.5,0.0,-0.240302175283432,-0.2982182800769806,0.0,0.0,0.0,0,0
1680023519.75985599,209772724,0.0,0.0,0.5,0.5,0.0,-0.22716599702835083,-0.3609064221382141,0.0,0.0,0.0,0,0
1680023519.85981607,209872684,0.0,0.0,0.5,0.5,0.0,-0.22094793617725372,-0.2213907092809677,0.0,0.0,0.0,0,0
1680023519.95977616,209972644,0.0,0.0,0.5,0.5,0.0,-0.22288990020751953,-0.23621651530265808,0.0,0.0,0.0,0,0
1680023520.06056905,210073437,0.0,0.0,0.5,0.5,0.0,-0.22819019854068756,-0.16455316543579102,0.0,0.0,0.0,0,0
1680023520.16052914,210173397,0.0,0.0,0.5,0.5,0.0,-0.232360377907753,-0.19297273457050323,0.0,0.0,0.0,0,0
1680023520.26048899,210273357,0.0,0.0,0.5,0.5,0.0,-0.23373305797576904,-0.20944595336914062,0.0,0.0,0.0,0,0
1680023520.36044908,210373317,0.0,0.0,0.5,0.5,0.0,-0.231723353266716,-0.3309949040412903,0.0,0.0,0.0,0,0
1680023520.46040916,210473277,0.0,0.0,0.5,0.5,0.0,-0.22850050032138824,-0.0360124371945858,0.0,0.0,0.0,0,0
1680023520.56036901,210573237,0.0,0.0,0.5,0.5,0.0,-0.22861233353614807,-0.40120893716812134,0.0,0.0,0.0,0,0
1680023520.66032910,210673197,0.0,0.0,0.5,0.5,0.0,-0.2253478467464447,-0.14141660928726196,0.0,0.0,0.0,0,0
1680023520.76028895,210773157,0.0,0.0,0.5,0.5,0.0,-0.22150196135044098,-0.023761160671710968,0.0,0.0,0.0,0,0
1680023520.86024904,210873117,0.0,0.0,0.5,0.5,0.0,-0.2229403257369995,-0.11616111546754837,0.0,0.0,0.0,0,0
1680023520.96020913,210973077,0.0,0.0,0.5,0.5,0.0,-0.2158222198486328,-0.09320791065692902,0.0,0.0,0.0,0,1
1680023521.06016898,211073037,0.0,0.0,0.5,0.5,0.0,-0.20091372728347778,-0.14859335124492645,0.0,0.0,0.0,0,2
1680023521.16012907,211172997,0.0,0.0,0.5,0.5,0.0,-0.18356779217720032,-0.12827327847480774,0.0,0.0,0.0,0,3
1680023521.26008916,211272957,0.0,0.0,0.5,0.5,0.0,-0.16534194350242615,-0.3138093948364258,0.0,0.0,0.0,0,4
1680023521.36004901,211372917,0.0,0.0,0.5,0.5,0.0,-0.14872488379478455,-0.12724609673023224,0.0,0.0,0.0,0,5
1680023521.46000910,211472877,0.0,0.0,0.5,0.5,0.0,-0.13752980530261993,-0.1776510626077652,0.0,0.0,0.0,0,6
1680023521.55996919,211572837,0.0,0.0,0.5,0.5,0.0,-0.13303619623184204,-0.4090118706226349,0.0,0.0,0.0,0,5
1680023521.65992904,211672797,0.0,0.0,0.5,0.5,0.0,-0.1281691938638687,-0.1611507534980774,0.0,0.0,0.0,0,5
1680023521.75988913,211772757,0.0,0.0,0.5,0.5,0.0,-0.13069340586662292,-0.3640325963497162,0.0,0.0,0.0,0,5
1680023521.85984898,211872717,0.0,0.0,0.5,0.5,0.0,-0.14080126583576202,-0.18049027025699615,0.0,0.0,0.0,0,4
1680023521.95980906,211972677,0.0,0.0,0.5,0.5,0.0,-0.15207071602344513,-0.14454957842826843,0.0,0.0,0.0,0,2
1680023522.05976915,212072637,0.0,0.0,0.5,0.5,0.0,-0.16689170897006989,-0.08250518143177032,0.0,0.0,0.0,0,1
1680023522.16056204,212173430,0.0,0.0,0.5,0.5,0.0,-0.17639011144638062,-0.2537555694580078,0.0,0.0,0.0,0,1
1680023522.26052213,212273390,0.0,0.0,0.5,0.5,0.0,-0.17908170819282532,-0.07541852444410324,0.0,0.0,0.0,0,1
1680023522.36048198,212373350,0.0,0.0,0.5,0.5,0.0,-0.17846937477588654,-0.42912110686302185,0.0,0.0,0.0,0,1
1680023522.46044207,212473310,0.0,0.0,0.5,0.5,0.0,-0.1772506833076477,-0.09552615135908127,0.0,0.0,0.0,0,1
1680023522.56040215,212573270,0.0,0.0,0.5,0.5,0.0,-0.17757830023765564,-0.06154097616672516,0.0,0.0,0.0,0,1
1680023522.66036201,212673230,0.0,0.0,0.5,0.5,0.0,-0.1838274449110031,-0.37929806113243103,0.0,0.0,0.0,0,1
1680023522.76032209,212773190,0.0,0.0,0.5,0.5,0.0,-0.18163356184959412,-0.17050701379776,0.0,0.0,0.0,0,1
1680023522.86028218,212873150,0.0,0.0,0.5,0.5,0.0,-0.17988237738609314,-0.13539062440395355,0.0,0.0,0.0,0,1
1680023522.96024203,212973110,0.0,0.0,0.5,0.5,0.0,-0.18464361131191254,-0.2927550971508026,0.0,0.0,0.0,0,1
1680023523.06020212,213073070,0.0,0.0,0.5,0.5,0.0,-0.18574467301368713,-0.41203564405441284,0.0,0.0,0.0,0,1
1680023523.16016197,213173030,0.0,0.0,0.5,0.5,0.0,-0.1868341565132141,-0.036761797964572906,0.0,0.0,0.0,0,1
1680023523.26012206,213272990,0.0,0.0,0.5,0.5,0.0,-0.1960742324590683,-0.09338727593421936,0.0,0.0,0.0,0,0
1680023523.36008215,213372950,0.0,0.0,0.48875001072883606,0.5,0.0,-0.2062896341085434,-0.3727678656578064,0.0,0.0,0.0,0,0
1680023523.46004200,213472910,0.0,0.0,0.4749999940395355,0.5,0.0,-0.20524685084819794,-0.17821867763996124,0.0,0.0,0.0,0,0
1680023523.56000209,213572870,0.0,0.0,0.42750000953674316,0.5,0.0,-0.20510129630565643,-0.1948074847459793,0.0,0.0,0.0,0,-1
1680023523.65996218,213672830,0.0,0.0,0.41749998927116394,0.5,0.0,-0.21203012764453888,-0.029243463650345802,0.0,0.0,0.0,0,-3
1680023523.75992203,213772790,0.0,0.0,0.4025000035762787,0.5,0.0,-0.218765988945961,-0.05255022272467613,0.0,0.0,0.0,0,-6
1680023523.85988212,213872750,0.0,0.0,0.3812499940395355,0.5,0.0,-0.2242429554462433,-0.16983777284622192,0.0,0.0,0.0,0,-11
1680023523.95984197,213972710,0.0,0.0,0.3812499940395355,0.5,0.0,-0.22539766132831573,-0.4455835521221161,0.0,0.0,0.0,0,-14
1680023524.05980206,214072670,0.0,0.0,0.3812499940395355,0.5,0.0,-0.22772257030010223,-0.4482131004333496,0.0,0.0,0.0,0,-16
1680023524.15976214,214172630,0.0,0.0,0.3812499940395355,0.5,0.0,-0.2414393573999405,-0.4018957316875458,0.0,0.0,0.0,0,-19
1680023524.26055503,214273423,0.0,0.0,0.3812499940395355,0.5,0.0,-0.2746488153934479,-0.45323941111564636,0.0,0.0,0.0,0,-22
1680023524.36051512,214373383,0.0,0.0,0.3812499940395355,0.5,0.0,-0.316697359085083,-0.5282952189445496,0.0,0.0,0.0,0,-25
1680023524.46047497,214473343,0.0,0.0,0.3812499940395355,0.5,0.0,-0.36442986130714417,-0.33758530020713806,0.0,0.0,0.0,0,-28
1680023524.56043506,214573303,0.0,0.0,0.3812499940395355,0.5,0.0,-0.41772574186325073,-0.4652630686759949,0.0,0.0,0.0,0,-30
1680023524.66039515,214673263,0.0,0.0,0.3812499940395355,0.5,0.0,-0.4693375825881958,-0.3068849742412567,0.0,0.0,0.0,0,-32
1680023524.76035500,214773223,0.0,0.0,0.3812499940395355,0.5,0.0,-0.5155962705612183,-0.43962612748146057,0.0,0.0,0.0,0,-33
1680023524.86031508,214873183,0.0,0.0,0.3812499940395355,0.5,0.0,-0.5547224879264832,-0.40451809763908386,0.0,0.0,0.0,0,-33
1680023524.96027517,214973143,0.0,0.0,0.3812499940395355,0.5,0.0,-0.5862095355987549,-0.48332032561302185,0.0,0.0,0.0,0,-33
1680023525.06023502,215073103,0.0,0.0,0.3812499940395355,0.5,0.0,-0.6129108667373657,-0.40064293146133423,0.0,0.0,0.0,0,-32
1680023525.16019511,215173063,0.0,0.0,0.3812499940395355,0.5,0.0,-0.6358174085617065,-0.4309554398059845,0.0,0.0,0.0,0,-32
1680023525.26015496,215273023,0.0,0.0,0.3812499940395355,0.5,0.0,-0.6542116403579712,-0.41265466809272766,0.0,0.0,0.0,0,-31
1680023525.36011505,215372983,0.0,0.0,0.3812499940395355,0.5,0.0,-0.6667256355285645,-0.6091170907020569,0.0,0.0,0.0,0,-29
1680023525.46007514,215472943,0.0,0.0,0.3812499940395355,0.5,0.0,-0.6741761565208435,-0.686008870601654,0.0,0.0,0.0,0,-28
1680023525.56003499,215572903,0.0,0.0,0.3812499940395355,0.5,0.0,-0.682345449924469,-0.7776088118553162,0.0,0.0,0.0,0,-27
1680023525.65999508,215672863,0.0,0.0,0.3812499940395355,0.5,0.0,-0.6975669860839844,-0.8123417496681213,0.0,0.0,0.0,0,-26
1680023525.75995517,215772823,0.0,0.0,0.3812499940395355,0.5,0.0,-0.7215244770050049,-0.6170759201049805,0.0,0.0,0.0,0,-26
1680023525.85991502,215872783,0.0,0.0,0.3812499940395355,0.5,0.0,-0.753960371017456,-0.9370300769805908,0.0,0.0,0.0,0,-27
1680023525.95987511,215972743,0.0,0.0,0.3812499940395355,0.5,0.0,-0.786044716835022,-0.9172213673591614,0.0,0.0,0.0,0,-27
1680023526.05983496,216072703,0.0,0.0,0.3812499940395355,0.5,0.0,-0.8205385804176331,-0.6709331274032593,0.0,0.0,0.0,0,-28
1680023526.15979505,216172663,0.0,0.0,0.3812499940395355,0.5,0.0,-0.8619369268417358,-0.6410132050514221,0.0,0.0,0.0,0,-29
1680023526.26058817,216273456,0.0,0.0,0.3812499940395355,0.5,0.0,-0.9010405540466309,-0.8311994075775146,0.0,0.0,0.0,0,-30
1680023526.36054802,216373416,0.0,0.0,0.3812499940395355,0.5,0.0,-0.9274765849113464,-0.7970675230026245,0.0,0.0,0.0,0,-29
1680023526.46050811,216473376,0.0,0.0,0.3812499940395355,0.5,0.0,-0.9465160369873047,-0.9134179949760437,0.0,0.0,0.0,0,-28
1680023526.56046796,216573336,0.0,0.0,0.3812499940395355,0.5,0.0,-0.9643792510032654,-0.9533286690711975,0.0,0.0,0.0,0,-27
1680023526.66042805,216673296,0.0,0.0,0.3812499940395355,0.5,0.0,-0.981463611125946,-0.9112591743469238,0.0,0.0,0.0,0,-27
1680023526.76038814,216773256,0.0,0.0,0.3812499940395355,0.5,0.0,-1.001940369606018,-0.8871883153915405,0.0,0.0,0.0,0,-26
1680023526.86034799,216873216,0.0,0.0,0.3812499940395355,0.5,0.0,-1.0236012935638428,-1.2236443758010864,0.0,0.0,0.0,0,-26
1680023526.96030807,216973176,0.0,0.0,0.3812499940395355,0.5,0.0,-1.0430614948272705,-1.2066031694412231,0.0,0.0,0.0,0,-26
1680023527.06026816,217073136,0.0,0.0,0.3812499940395355,0.5,0.0,-1.0664523839950562,-0.9506126642227173,0.0,0.0,0.0,0,-25
1680023527.16022801,217173096,0.0,0.0,0.3812499940395355,0.5,0.0,-1.1022086143493652,-1.2110323905944824,0.0,0.0,0.0,0,-26
1680023527.26018810,217273056,0.0,0.0,0.3812499940395355,0.5,0.0,-1.1387089490890503,-1.1959422826766968,0.0,0.0,0.0,0,-27
1680023527.36014819,217373016,0.0,0.0,0.3812499940395355,0.5,0.0,-1.171336054801941,-1.0999780893325806,0.0,0.0,0.0,0,-27
1680023527.46010804,217472976,0.0,0.0,0.3812499940395355,0.5,0.0,-1.2079198360443115,-1.1400434970855713,0.0,0.0,0.0,0,-28
1680023527.56006813,217572936,0.0,0.0,0.3812499940395355,0.5,0.0,-1.242608904838562,-1.0245965719223022,0.0,0.0,0.0,0,-28
1680023527.66002798,217672896,0.0,0.0,0.3812499940395355,0.5,0.0,-1.271883249282837,-1.1504061222076416,0.0,0.0,0.0,0,-28
1680023527.75998807,217772856,0.0,0.0,0.3812499940395355,0.5,0.0,-1.2943977117538452,-1.14482581615448,0.0,0.0,0.0,0,-28
1680023527.85994816,217872816,0.0,0.0,0.3812499940395355,0.5,0.0,-1.3094853162765503,-1.2231999635696411,0.0,0.0,0.0,0,-27
1680023527.95990801,217972776,0.0,0.0,0.3812499940395355,0.5,0.0,-1.3221620321273804,-1.2071967124938965,0.0,0.0,0.0,0,-25
1680023528.05986810,218072736,0.0,0.0,0.3812499940395355,0.5,0.0,-1.333492636680603,-1.5637515783309937,0.0,0.0,0.0,0,-24
1680023528.15982819,218172696,0.0,0.0,0.3812499940395355,0.5,0.0,-1.3452119827270508,-1.533131718635559,0.0,0.0,0.0,0,-24
1680023528.25978804,218272656,0.0,0.0,0.3812499940395355,0.5,0.0,-1.3636685609817505,-1.4983865022659302,0.0,0.0,0.0,0,-23
1680023528.36058116,218373449,0.0,0.0,0.3812499940395355,0.5,0.0,-1.3970978260040283,-1.3186993598937988,0.0,0.0,0.0,0,-24
1680023528.46054101,218473409,0.0,0.0,0.3812499940395355,0.5,0.0,-1.4378901720046997,-1.5636643171310425,0.0,0.0,0.0,0,-26
1680023528.56050110,218573369,0.0,0.0,0.3812499940395355,0.5,0.0,-1.4771636724472046,-1.302234172821045,0.0,0.0,0.0,0,-27
1680023528.66046119,218673329,0.0,0.0,0.3812499940395355,0.5,0.0,-1.512939453125,-1.5514154434204102,0.0,0.0,0.0,0,-27
1680023528.76042104,218773289,0.0,0.0,0.3812499940395355,0.5,0.0,-1.54671049118042,-1.4941537380218506,0.0,0.0,0.0,0,-27
1680023528.86038113,218873249,0.0,0.0,0.3812499940395355,0.5,0.0,-1.574352741241455,-1.6554710865020752,0.0,0.0,0.0,0,-27
1680023528.96034098,218973209,0.0,0.0,0.3812499940395355,0.5,0.0,-1.6020591259002686,-1.7664114236831665,0.0,0.0,0.0,0,-27
1680023529.06030107,219073169,0.0,0.0,0.3812499940395355,0.5,0.0,-1.6313799619674683,-1.6437878608703613,0.0,0.0,0.0,0,-27
1680023529.16026115,219173129,0.0,0.0,0.3812499940395355,0.5,0.0,-1.6677926778793335,-1.573451042175293,0.0,0.0,0.0,0,-28
1680023529.26022100,219273089,0.0,0.0,0.3812499940395355,0.5,0.0,-1.706912636756897,-1.5124701261520386,0.0,0.0,0.0,0,-29
1680023529.36018109,219373049,0.0,0.0,0.3812499940395355,0.5,0.0,-1.7409584522247314,-1.7814078330993652,0.0,0.0,0.0,0,-29
1680023529.46014118,219473009,0.0,0.0,0.3812499940395355,0.5,0.0,-1.766075849533081,-1.7872627973556519,0.0,0.0,0.0,0,-28
1680023529.56010103,219572969,0.0,0.0,0.3812499940395355,0.5,0.0,-1.7893928289413452,-1.8704488277435303,0.0,0.0,0.0,0,-28
1680023529.66006112,219672929,0.0,0.0,0.3812499940395355,0.5,0.0,-1.8170357942581177,-1.695499062538147,0.0,0.0,0.0,0,-28
1680023529.76002097,219772889,0.0,0.0,0.3812499940395355,0.5,0.0,-1.8487815856933594,-1.6414289474487305,0.0,0.0,0.0,0,-28
1680023529.85998106,219872849,0.0,0.0,0.3812499940395355,0.5,0.0,-1.8790807723999023,-1.7703137397766113,0.0,0.0,0.0,0,-28
1680023529.95994115,219972809,0.0,0.0,0.3812499940395355,0.5,0.0,-1.900662899017334,-1.7666916847229004,0.0,0.0,0.0,0,-28
1680023530.05990100,220072769,0.0,0.0,0.3812499940395355,0.5,0.0,-1.9169671535491943,-2.0775578022003174,0.0,0.0,0.0,0,-27
1680023530.15986109,220172729,0.0,0.0,0.3812499940395355,0.5,0.0,-1.9313931465148926,-2.0344924926757812,0.0,0.0,0.0,0,-26
1680023530.25982118,220272689,0.0,0.0,0.3812499940395355,0.5,0.0,-1.9521942138671875,-1.9390182495117188,0.0,0.0,0.0,0,-26
1680023530.35978103,220372649,0.0,0.0,0.3812499940395355,0.5,0.0,-1.9832109212875366,-2.1892216205596924,0.0,0.0,0.0,0,-26
1680023530.46057415,220473442,0.0,0.0,0.3812499940395355,0.5,0.0,-2.0161900520324707,-1.9226486682891846,0.0,0.0,0.0,0,-27
1680023530.56053400,220573402,0.0,0.0,0.3812499940395355,0.5,0.0,-2.0538816452026367,-1.910040259361267,0.0,0.0,0.0,0,-28
1680023530.66049409,220673362,0.0,0.0,0.3812499940395355,0.5,0.0,-2.0919017791748047,-2.2859084606170654,0.0,0.0,0.0,0,-28
1680023530.76045418,220773322,0.0,0.0,0.3812499940395355,0.5,0.0,-2.120922565460205,-2.268692970275879,0.0,0.0,0.0,0,-28
1680023530.86041403,220873282,0.0,0.0,0.3812499940395355,0.5,0.0,-2.152743101119995,-1.966877818107605,0.0,0.0,0.0,0,-28
1680023530.96037412,220973242,0.0,0.0,0.3812499940395355,0.5,0.0,-2.1935627460479736,-2.056516647338867,0.0,0.0,0.0,0,-29
1680023531.06033397,221073202,0.0,0.0,0.3812499940395355,0.5,0.0,-2.229834794998169,-2.3774492740631104,0.0,0.0,0.0,0,-29
1680023531.16029406,221173162,0.0,0.0,0.3812499940395355,0.5,0.0,-2.2559382915496826,-2.2560088634490967,0.0,0.0,0.0,0,-29
1680023531.26025414,221273122,0.0,0.0,0.3812499940395355,0.5,0.0,-2.284867525100708,-2.4285573959350586,0.0,0.0,0.0,0,-29
1680023531.36021399,221373082,0.0,0.0,0.3812499940395355,0.5,0.0,-2.3188135623931885,-2.165142297744751,0.0,0.0,0.0,0,-29
1680023531.46017408,221473042,0.0,0.0,0.3812499940395355,0.5,0.0,-2.356515407562256,-2.4007809162139893,0.0,0.0,0.0,0,-30
1680023531.56013417,221573002,0.0,0.0,0.3812499940395355,0.5,0.0,-2.392014741897583,-2.341562032699585,0.0,0.0,0.0,0,-30
1680023531.66009402,221672962,0.0,0.0,0.3812499940395355,0.5,0.0,-2.4241554737091064,-2.4271559715270996,0.0,0.0,0.0,0,-30
1680023531.76005411,221772922,0.0,0.0,0.3812499940395355,0.5,0.0,-2.4565441608428955,-2.4178311824798584,0.0,0.0,0.0,0,-30
1680023531.86001396,221872882,0.0,0.0,0.3812499940395355,0.5,0.0,-2.4882147312164307,-2.3467414379119873,0.0,0.0,0.0,0,-30
1680023531.95997405,221972842,0.0,0.0,0.3812499940395355,0.5,0.0,-2.519629955291748,-2.5573227405548096,0.0,0.0,0.0,0,-30
1680023532.05993414,222072802,0.0,0.0,0.3812499940395355,0.5,0.0,-2.54687237739563,-2.6581549644470215,0.0,0.0,0.0,0,-30
1680023532.15989399,222172762,0.0,0.0,0.3812499940395355,0.5,0.0,-2.5738024711608887,-2.6731085777282715,0.0,0.0,0.0,0,-30
1680023532.25985408,222272722,0.0,0.0,0.3812499940395355,0.5,0.0,-2.6073246002197266,-2.516261577606201,0.0,0.0,0.0,0,-30
1680023532.35981417,222372682,0.0,0.0,0.3812499940395355,0.5,0.0,-2.646059036254883,-2.6406500339508057,0.0,0.0,0.0,0,-31
1680023532.45977402,222472642,0.0,0.0,0.3812499940395355,0.5,0.0,-2.6845405101776123,-2.450835943222046,0.0,0.0,0.0,0,-31
1680023532.56056714,222573435,0.0,0.0,0.3812499940395355,0.5,0.0,-2.7184412479400635,-2.57796049118042,0.0,0.0,0.0,0,-31
1680023532.66052699,222673395,0.0,0.0,0.3812499940395355,0.5,0.0,-2.7472031116485596,-2.7058184146881104,0.0,0.0,0.0,0,-31
1680023532.76048708,222773355,0.0,0.0,0.3812499940395355,0.5,0.0,-2.7669878005981445,-2.5914855003356934,0.0,0.0,0.0,0,-30
1680023532.86044717,222873315,0.0,0.0,0.3812499940395355,0.5,0.0,-2.786027431488037,-2.811998128890991,0.0,0.0,0.0,0,-29
1680023532.96040702,222973275,0.0,0.0,0.3812499940395355,0.5,0.0,-2.8050246238708496,-2.6542813777923584,0.0,0.0,0.0,0,-29
1680023533.06036711,223073235,0.0,0.0,0.3812499940395355,0.5,0.0,-2.8233954906463623,-2.694216012954712,0.0,0.0,0.0,0,-28
1680023533.16032696,223173195,0.0,0.0,0.3812499940395355,0.5,0.0,-2.8441388607025146,-2.6619088649749756,0.0,0.0,0.0,0,-28
1680023533.26028705,223273155,0.0,0.0,0.3812499940395355,0.5,0.0,-2.8609368801116943,-2.801116466522217,0.0,0.0,0.0,0,-27
1680023533.36024714,223373115,0.0,0.0,0.3812499940395355,0.5,0.0,-2.8744375705718994,-2.810093641281128,0.0,0.0,0.0,0,-26
1680023533.46020699,223473075,0.0,0.0,0.3812499940395355,0.5,0.0,-2.886389970779419,-2.9398441314697266,0.0,0.0,0.0,0,-25
1680023533.56016707,223573035,0.0,0.0,0.3812499940395355,0.5,0.0,-2.9009809494018555,-2.7239370346069336,0.0,0.0,0.0,0,-25
1680023533.66012716,223672995,0.0,0.0,0.3812499940395355,0.5,0.0,-2.91947865486145,-3.1309075355529785,0.0,0.0,0.0,0,-24
1680023533.76008701,223772955,0.0,0.0,0.3812499940395355,0.5,0.0,-2.9392101764678955,-2.94291090965271,0.0,0.0,0.0,0,-24
1680023533.86004710,223872915,0.0,0.0,0.3812499940395355,0.5,0.0,-2.960463047027588,-3.037501096725464,0.0,0.0,0.0,0,-24
1680023533.96000719,223972875,0.0,0.0,0.3812499940395355,0.5,0.0,-2.9908947944641113,-2.9632506370544434,0.0,0.0,0.0,0,-24
1680023534.05996704,224072835,0.0,0.0,0.3799999952316284,0.5,0.0,-3.022122859954834,-3.108264207839966,0.0,0.0,0.0,0,-25
1680023534.15992713,224172795,0.0,0.0,0.3799999952316284,0.5,0.0,-3.054076910018921,-2.8703575134277344,0.0,0.0,0.0,0,-26
1680023534.25988698,224272755,0.0,0.0,0.3799999952316284,0.5,0.0,-3.0865700244903564,-2.9092965126037598,0.0,0.0,0.0,0,-26
1680023534.35984707,224372715,0.0,0.0,0.3799999952316284,0.5,0.0,-3.114218235015869,-3.019848108291626,0.0,0.0,0.0,0,-26
1680023534.45980716,224472675,0.0,0.0,0.3799999952316284,0.5,0.0,-3.1322202682495117,-3.0265047550201416,0.0,0.0,0.0,0,-25
1680023534.55976701,224572635,0.0,0.0,0.3799999952316284,0.5,0.0,-3.14630126953125,-3.0266218185424805,0.0,0.0,0.0,0,-24
1680023534.66056013,224673428,0.0,0.0,0.3799999952316284,0.5,0.0,-3.1593446731567383,-3.0363945960998535,0.0,0.0,0.0,0,-23
1680023534.76051998,224773388,0.0,0.0,0.3799999952316284,0.5,0.0,-3.1708595752716064,-3.2437329292297363,0.0,0.0,0.0,0,-23
1680023534.86048007,224873348,0.0,0.0,0.3799999952316284,0.5,0.0,-3.1806459426879883,-3.2245969772338867,0.0,0.0,0.0,0,-22
1680023534.96044016,224973308,0.0,0.0,0.3799999952316284,0.5,0.0,-3.1946282386779785,-3.328120708465576,0.0,0.0,0.0,0,-21
1680023535.06040001,225073268,0.0,0.0,0.3799999952316284,0.5,0.0,-3.215578556060791,-3.258599042892456,0.0,0.0,0.0,0,-21
1680023535.16036010,225173228,0.0,0.0,0.3799999952316284,0.5,0.0,-3.2426276206970215,-3.433821439743042,0.0,0.0,0.0,0,-22
1680023535.26032019,225273188,0.0,0.0,0.3799999952316284,0.5,0.0,-3.2735719680786133,-3.41499400138855,0.0,0.0,0.0,0,-23
1680023535.36028004,225373148,0.0,0.0,0.3799999952316284,0.5,0.0,-3.3091132640838623,-3.2252004146575928,0.0,0.0,0.0,0,-23
1680023535.46024013,225473108,0.0,0.0,0.3799999952316284,0.5,0.0,-3.350250482559204,-3.5731916427612305,0.0,0.0,0.0,0,-25
1680023535.56019998,225573068,0.0,0.0,0.3799999952316284,0.5,0.0,-3.387561559677124,-3.4308278560638428,0.0,0.0,0.0,0,-25
1680023535.66016006,225673028,0.0,0.0,0.3799999952316284,0.5,0.0,-3.4255318641662598,-3.5118818283081055,0.0,0.0,0.0,0,-26
1680023535.76012015,225772988,0.0,0.0,0.3799999952316284,0.5,0.0,-3.466959238052368,-3.6997087001800537,0.0,0.0,0.0,0,-27
1680023535.86008000,225872948,0.0,0.0,0.3799999952316284,0.5,0.0,-3.507528781890869,-3.3699142932891846,0.0,0.0,0.0,0,-28
1680023535.96004009,225972908,0.0,0.0,0.3799999952316284,0.5,0.0,-3.5531625747680664,-3.7748425006866455,0.0,0.0,0.0,0,-29
1680023536.06000018,226072868,0.0,0.0,0.3799999952316284,0.5,0.0,-3.5957083702087402,-3.635605573654175,0.0,0.0,0.0,0,-29
1680023536.15996003,226172828,0.0,0.0,0.3799999952316284,0.5,0.0,-3.637209892272949,-3.82588529586792,0.0,0.0,0.0,0,-30
1680023536.25992012,226272788,0.0,0.0,0.3799999952316284,0.5,0.0,-3.6824655532836914,-3.7822022438049316,0.0,0.0,0.0,0,-31
1680023536.35987997,226372748,0.0,0.0,0.3799999952316284,0.5,0.0,-3.730020046234131,-3.5018444061279297,0.0,0.0,0.0,0,-32
1680023536.45984006,226472708,0.0,0.0,0.3799999952316284,0.5,0.0,-3.780895948410034,-3.561270236968994,0.0,0.0,0.0,0,-33
1680023536.55980015,226572668,0.0,0.0,0.3799999952316284,0.5,0.0,-3.8226075172424316,-3.657816171646118,0.0,0.0,0.0,0,-33
1680023536.65976000,226672628,0.0,0.0,0.3799999952316284,0.5,0.0,-3.8503479957580566,-3.809877634048462,0.0,0.0,0.0,0,-33
1680023536.76055312,226773421,0.0,0.0,0.3799999952316284,0.5,0.0,-3.870577335357666,-3.807871103286743,0.0,0.0,0.0,0,-32
1680023536.86051297,226873381,0.0,0.0,0.3799999952316284,0.5,0.0,-3.890653371810913,-4.002474784851074,0.0,0.0,0.0,0,-31
1680023536.96047306,226973341,0.0,0.0,0.3799999952316284,0.5,0.0,-3.9130163192749023,-3.865422010421753,0.0,0.0,0.0,0,-30
1680023537.06043315,227073301,0.0,0.0,0.3799999952316284,0.5,0.0,-3.940072536468506,-4.008634090423584,0.0,0.0,0.0,0,-30
1680023537.16039300,227173261,0.0,0.0,0.3799999952316284,0.5,0.0,-3.9727084636688232,-4.0979228019714355,0.0,0.0,0.0,0,-30
1680023537.26035309,227273221,0.0,0.0,0.3799999952316284,0.5,0.0,-4.0058817863464355,-4.131353855133057,0.0,0.0,0.0,0,-31
1680023537.36031318,227373181,0.0,0.0,0.3799999952316284,0.5,0.0,-4.044623851776123,-4.0520477294921875,0.0,0.0,0.0,0,-31
1680023537.46027303,227473141,0.0,0.0,0.3799999952316284,0.5,0.0,-4.089057922363281,-4.189754962921143,0.0,0.0,0.0,0,-32
1680023537.56023312,227573101,0.0,0.0,0.3799999952316284,0.5,0.0,-4.134788990020752,-3.8937439918518066,0.0,0.0,0.0,0,-33
1680023537.66019297,227673061,0.0,0.0,0.3799999952316284,0.5,0.0,-4.179762840270996,-3.996495246887207,0.0,0.0,0.0,0,-34
1680023537.76015306,227773021,0.0,0.0,0.3799999952316284,0.5,0.0,-4.219979286193848,-4.290498733520508,0.0,0.0,0.0,0,-34
1680023537.86011314,227872981,0.0,0.0,0.3799999952316284,0.5,0.0,-4.247227668762207,-4.1892852783203125,0.0,0.0,0.0,0,-34
1680023537.96007299,227972941,0.0,0.0,0.3799999952316284,0.5,0.0,-4.2732744216918945,-4.063800811767578,0.0,0.0,0.0,0,-33
1680023538.06003308,228072901,0.0,0.0,0.3799999952316284,0.5,0.0,-4.304104328155518,-4.106212139129639,0.0,0.0,0.0,0,-33
1680023538.15999317,228172861,0.0,0.0,0.3799999952316284,0.5,0.0,-4.330541610717773,-4.191468238830566,0.0,0.0,0.0,0,-32
1680023538.25995302,228272821,0.0,0.0,0.3799999952316284,0.5,0.0,-4.349289417266846,-4.283458709716797,0.0,0.0,0.0,0,-31
1680023538.35991311,228372781,0.0,0.0,0.3799999952316284,0.5,0.0,-4.364428997039795,-4.228893280029297,0.0,0.0,0.0,0,-30
1680023538.45987296,228472741,0.0,0.0,0.3799999952316284,0.5,0.0,-4.380466461181641,-4.383336544036865,0.0,0.0,0.0,0,-29
1680023538.55983305,228572701,0.0,0.0,0.3799999952316284,0.5,0.0,-4.39769983291626,-4.141429901123047,0.0,0.0,0.0,0,-29
1680023538.65979314,228672661,0.0,0.0,0.3799999952316284,0.5,0.0,-4.416237831115723,-4.4318060874938965,0.0,0.0,0.0,0,-28
1680023538.76058602,228773454,0.0,0.0,0.3799999952316284,0.5,0.0,-4.434280872344971,-4.446323871612549,0.0,0.0,0.0,0,-28
1680023538.86054611,228873414,0.0,0.0,0.3799999952316284,0.5,0.0,-4.449140548706055,-4.530541896820068,0.0,0.0,0.0,0,-27
1680023538.96050596,228973374,0.0,0.0,0.3799999952316284,0.5,0.0,-4.470454216003418,-4.349851131439209,0.0,0.0,0.0,0,-27
1680023539.06046605,229073334,0.0,0.0,0.3799999952316284,0.5,0.0,-4.497250556945801,-4.35569953918457,0.0,0.0,0.0,0,-27
1680023539.16042614,229173294,0.0,0.0,0.3799999952316284,0.5,0.0,-4.52541446685791,-4.533998489379883,0.0,0.0,0.0,0,-27
1680023539.26038599,229273254,0.0,0.0,0.3799999952316284,0.5,0.0,-4.547510623931885,-4.726626873016357,0.0,0.0,0.0,0,-27
1680023539.36034608,229373214,0.0,0.0,0.3799999952316284,0.5,0.0,-4.567648887634277,-4.570006847381592,0.0,0.0,0.0,0,-26
1680023539.46030617,229473174,0.0,0.0,0.3799999952316284,0.5,0.0,-4.595170021057129,-4.5931572914123535,0.0,0.0,0.0,0,-26
1680023539.56026602,229573134,0.0,0.0,0.3799999952316284,0.5,0.0,-4.629289627075195,-4.7959699630737305,0.0,0.0,0.0,0,-27
1680023539.66022611,229673094,0.0,0.0,0.3799999952316284,0.5,0.0,-4.661909103393555,-4.622818470001221,0.0,0.0,0.0,0,-27
1680023539.76018596,229773054,0.0,0.0,0.3799999952316284,0.5,0.0,-4.697123050689697,-4.722861289978027,0.0,0.0,0.0,0,-28
1680023539.86014605,229873014,0.0,0.0,0.3799999952316284,0.5,0.0,-4.735229969024658,-4.6316938400268555,0.0,0.0,0.0,0,-28
1680023539.96010613,229972974,0.0,0.0,0.3799999952316284,0.5,0.0,-4.770001411437988,-4.776332378387451,0.0,0.0,0.0,0,-29
1680023540.06006598,230072934,0.0,0.0,0.3799999952316284,0.5,0.0,-4.801992893218994,-4.94193696975708,0.0,0.0,0.0,0,-29
1680023540.16002607,230172894,0.0,0.0,0.3799999952316284,0.5,0.0,-4.830378532409668,-4.679905414581299,0.0,0.0,0.0,0,-29
1680023540.25998616,230272854,0.0,0.0,0.3799999952316284,0.5,0.0,-4.862972736358643,-4.650575160980225,0.0,0.0,0.0,0,-29
1680023540.35994601,230372814,0.0,0.0,0.3799999952316284,0.5,0.0,-4.8964972496032715,-4.9339823722839355,0.0,0.0,0.0,0,-29
1680023540.45990610,230472774,0.0,0.0,0.3799999952316284,0.5,0.0,-4.918347358703613,-5.071178436279297,0.0,0.0,0.0,0,-28
1680023540.55986619,230572734,0.0,0.0,0.3799999952316284,0.5,0.0,-4.939239501953125,-5.044146537780762,0.0,0.0,0.0,0,-28
1680023540.65982604,230672694,0.0,0.0,0.3799999952316284,0.5,0.0,-4.96891975402832,-4.782020568847656,0.0,0.0,0.0,0,-28
1680023540.75978613,230772654,0.0,0.0,0.3799999952316284,0.5,0.0,-5.006040573120117,-5.140568733215332,0.0,0.0,0.0,0,-29
1680023540.86057901,230873447,0.0,0.0,0.3799999952316284,0.5,0.0,-5.038782596588135,-4.966952800750732,0.0,0.0,0.0,0,-29
1680023540.96053910,230973407,0.0,0.0,0.3799999952316284,0.5,0.0,-5.070344924926758,-5.189283847808838,0.0,0.0,0.0,0,-29
1680023541.06049919,231073367,0.0,0.0,0.3799999952316284,0.5,0.0,-5.103538990020752,-5.053882122039795,0.0,0.0,0.0,0,-29
1680023541.16045904,231173327,0.0,0.0,0.3799999952316284,0.5,0.0,-5.1379547119140625,-4.997838497161865,0.0,0.0,0.0,0,-30
1680023541.26041913,231273287,0.0,0.0,0.3799999952316284,0.5,0.0,-5.173701763153076,-5.074471950531006,0.0,0.0,0.0,0,-30
1680023541.36037898,231373247,0.0,0.0,0.3799999952316284,0.5,0.0,-5.203089714050293,-5.1076788902282715,0.0,0.0,0.0,0,-30
1680023541.46033907,231473207,0.0,0.0,0.3799999952316284,0.5,0.0,-5.227313041687012,-5.054834365844727,0.0,0.0,0.0,0,-29
1680023541.56029916,231573167,0.0,0.0,0.3799999952316284,0.5,0.0,-5.249448299407959,-5.175124645233154,0.0,0.0,0.0,0,-29
1680023541.66025901,231673127,0.0,0.0,0.3799999952316284,0.5,0.0,-5.268026828765869,-5.207956314086914,0.0,0.0,0.0,0,-28
1680023541.76021910,231773087,0.0,0.0,0.3799999952316284,0.5,0.0,-5.283724784851074,-5.3968305587768555,0.0,0.0,0.0,0,-27
1680023541.86017919,231873047,0.0,0.0,0.3799999952316284,0.5,0.0,-5.3008832931518555,-5.240676403045654,0.0,0.0,0.0,0,-26
1680023541.96013904,231973007,0.0,0.0,0.3799999952316284,0.5,0.0,-5.32309103012085,-5.4906086921691895,0.0,0.0,0.0,0,-26
1680023542.06009912,232072967,0.0,0.0,0.3799999952316284,0.5,0.0,-5.350419521331787,-5.427249431610107,0.0,0.0,0.0,0,-26
1680023542.16005898,232172927,0.0,0.0,0.3799999952316284,0.5,0.0,-5.380334377288818,-5.268339157104492,0.0,0.0,0.0,0,-27
1680023542.26001906,232272887,0.0,0.0,0.3799999952316284,0.5,0.0,-5.417428970336914,-5.215511322021484,0.0,0.0,0.0,0,-28
1680023542.35997915,232372847,0.0,0.0,0.3799999952316284,0.5,0.0,-5.452259063720703,-5.487491607666016,0.0,0.0,0.0,0,-28
1680023542.45993900,232472807,0.0,0.0,0.3799999952316284,0.5,0.0,-5.477483749389648,-5.571826934814453,0.0,0.0,0.0,0,-28
1680023542.55989909,232572767,0.0,0.0,0.3799999952316284,0.5,0.0,-5.498522758483887,-5.35051155090332,0.0,0.0,0.0,0,-27
1680023542.65985918,232672727,0.0,0.0,0.3799999952316284,0.5,0.0,-5.525749683380127,-5.348945140838623,0.0,0.0,0.0,0,-27
1680023542.75981903,232772687,0.0,0.0,0.3799999952316284,0.5,0.0,-5.553781509399414,-5.683350086212158,0.0,0.0,0.0,0,-27
1680023542.85977912,232872647,0.0,0.0,0.3787499964237213,0.5,0.0,-5.573853969573975,-5.711068630218506,0.0,0.0,0.0,0,-27
1680023542.96057200,232973440,0.0,0.0,0.3787499964237213,0.5,0.0,-5.5943284034729,-5.56483793258667,0.0,0.0,0.0,0,-26
1680023543.06053209,233073400,0.0,0.0,0.3787499964237213,0.5,0.0,-5.62515115737915,-5.4288482666015625,0.0,0.0,0.0,0,-27
1680023543.16049218,233173360,0.0,0.0,0.3787499964237213,0.5,0.0,-5.659501552581787,-5.722314834594727,0.0,0.0,0.0,0,-27
1680023543.26045203,233273320,0.0,0.0,0.3787499964237213,0.5,0.0,-5.6871724128723145,-5.646337985992432,0.0,0.0,0.0,0,-27
1680023543.36041212,233373280,0.0,0.0,0.3787499964237213,0.5,0.0,-5.7107954025268555,-5.7041544914245605,0.0,0.0,0.0,0,-27
1680023543.46037197,233473240,0.0,0.0,0.3787499964237213,0.5,0.0,-5.737517833709717,-5.640827655792236,0.0,0.0,0.0,0,-27
1680023543.56033206,233573200,0.0,0.0,0.3787499964237213,0.5,0.0,-5.763793468475342,-5.844646453857422,0.0,0.0,0.0,0,-27
1680023543.66029215,233673160,0.0,0.0,0.3787499964237213,0.5,0.0,-5.788907051086426,-5.63681697845459,0.0,0.0,0.0,0,-27
1680023543.76025200,233773120,0.0,0.0,0.3787499964237213,0.5,0.0,-5.814153671264648,-5.825100898742676,0.0,0.0,0.0,0,-27
1680023543.86021209,233873080,0.0,0.0,0.3787499964237213,0.5,0.0,-5.840194225311279,-5.882808208465576,0.0,0.0,0.0,0,-26
1680023543.96017218,233973040,0.0,0.0,0.3787499964237213,0.5,0.0,-5.862657070159912,-5.996677875518799,0.0,0.0,0.0,0,-26
1680023544.06013203,234073000,0.0,0.0,0.3787499964237213,0.5,0.0,-5.8886895179748535,-6.017297267913818,0.0,0.0,0.0,0,-26
1680023544.16009212,234172960,0.0,0.0,0.3787499964237213,0.5,0.0,-5.920108795166016,-5.925125598907471,0.0,0.0,0.0,0,-27
1680023544.26005197,234272920,0.0,0.0,0.3787499964237213,0.5,0.0,-5.958008289337158,-5.814132213592529,0.0,0.0,0.0,0,-27
1680023544.36001205,234372880,0.0,0.0,0.3787499964237213,0.5,0.0,-5.997464179992676,-5.863354206085205,0.0,0.0,0.0,0,-28
1680023544.45997214,234472840,0.0,0.0,0.3787499964237213,0.5,0.0,-6.030827045440674,-6.141940593719482,0.0,0.0,0.0,0,-28
1680023544.55993199,234572800,0.0,0.0,0.3787499964237213,0.5,0.0,-6.055577278137207,-6.105467319488525,0.0,0.0,0.0,0,-28
1680023544.65989208,234672760,0.0,0.0,0.3787499964237213,0.5,0.0,-6.080260753631592,-6.090002059936523,0.0,0.0,0.0,0,-28
1680023544.75985217,234772720,0.0,0.0,0.3787499964237213,0.5,0.0,-6.111599922180176,-6.166703224182129,0.0,0.0,0.0,0,-28
1680023544.85981202,234872680,0.0,0.0,0.3787499964237213,0.5,0.0,-6.14456844329834,-5.935555934906006,0.0,0.0,0.0,0,-28
1680023544.95977211,234972640,0.0,0.0,0.3787499964237213,0.5,0.0,-6.178382396697998,-6.306089401245117,0.0,0.0,0.0,0,-28
1680023545.06056499,235073433,0.0,0.0,0.3787499964237213,0.5,0.0,-6.207826614379883,-5.982048988342285,0.0,0.0,0.0,0,-28
1680023545.16052508,235173393,0.0,0.0,0.3787499964237213,0.5,0.0,-6.235644340515137,-6.115102291107178,0.0,0.0,0.0,0,-28
1680023545.26048517,235273353,0.0,0.0,0.3787499964237213,0.5,0.0,-6.261542797088623,-6.31754732131958,0.0,0.0,0.0,0,-28
1680023545.36044502,235373313,0.0,0.0,0.3787499964237213,0.5,0.0,-6.280087471008301,-6.2463555335998535,0.0,0.0,0.0,0,-27
1680023545.46040511,235473273,0.0,0.0,0.3787499964237213,0.5,0.0,-6.301531791687012,-6.233885288238525,0.0,0.0,0.0,0,-27
1680023545.56036496,235573233,0.0,0.0,0.3774999976158142,0.5,0.0,-6.326374530792236,-6.322497367858887,0.0,0.0,0.0,0,-27
1680023545.66032505,235673193,0.0,0.0,0.36250001192092896,0.5,0.0,-6.350619316101074,-6.285281658172607,0.0,0.0,0.0,0,-27
1680023545.76028514,235773153,0.0,0.0,0.35874998569488525,0.5,0.0,-6.376469612121582,-6.327328205108643,0.0,0.0,0.0,0,-29
1680023545.86024499,235873113,0.0,0.0,0.35749998688697815,0.5,0.0,-6.403602123260498,-6.486878395080566,0.0,0.0,0.0,0,-30
1680023545.96020508,235973073,0.0,0.0,0.35749998688697815,0.5,0.0,-6.430514335632324,-6.343603134155273,0.0,0.0,0.0,0,-30
1680023546.06016517,236073033,0.0,0.0,0.35874998569488525,0.5,0.0,-6.461401462554932,-6.378929615020752,0.0,0.0,0.0,0,-31
1680023546.16012502,236172993,0.0,0.0,0.36000001430511475,0.5,0.0,-6.4933695793151855,-6.540720462799072,0.0,0.0,0.0,0,-31
1680023546.26008511,236272953,0.0,0.0,0.36000001430511475,0.5,0.0,-6.521710395812988,-6.590570449829102,0.0,0.0,0.0,0,-31
1680023546.36004496,236372913,0.0,0.0,0.36000001430511475,0.5,0.0,-6.551410675048828,-6.730404853820801,0.0,0.0,0.0,0,-31
1680023546.46000504,236472873,0.0,0.0,0.36000001430511475,0.5,0.0,-6.585885047912598,-6.576389789581299,0.0,0.0,0.0,0,-31
1680023546.55996513,236572833,0.0,0.0,0.36000001430511475,0.5,0.0,-6.627246856689453,-6.52824592590332,0.0,0.0,0.0,0,-32
1680023546.65992498,236672793,0.0,0.0,0.36000001430511475,0.5,0.0,-6.670814037322998,-6.773526668548584,0.0,0.0,0.0,0,-32
1680023546.75988507,236772753,0.0,0.0,0.36000001430511475,0.5,0.0,-6.7086358070373535,-6.7139892578125,0.0,0.0,0.0,0,-33
1680023546.85984516,236872713,0.0,0.0,0.36000001430511475,0.5,0.0,-6.7462077140808105,-6.92158317565918,0.0,0.0,0.0,0,-33
1680023546.95980501,236972673,0.0,0.0,0.36000001430511475,0.5,0.0,-6.785956382751465,-6.712635517120361,0.0,0.0,0.0,0,-33
1680023547.05976510,237072633,0.0,0.0,0.36000001430511475,0.5,0.0,-6.828413009643555,-6.917593955993652,0.0,0.0,0.0,0,-34
1680023547.16055799,237173426,0.0,0.0,0.36000001430511475,0.5,0.0,-6.872998237609863,-6.805747985839844,0.0,0.0,0.0,0,-34
1680023547.26051807,237273386,0.0,0.0,0.36000001430511475,0.5,0.0,-6.91456413269043,-6.776643753051758,0.0,0.0,0.0,0,-35
1680023547.36047816,237373346,0.0,0.0,0.36000001430511475,0.5,0.0,-6.956190586090088,-6.9146318435668945,0.0,0.0,0.0,0,-35
1680023547.46043801,237473306,0.0,0.0,0.36000001430511475,0.5,0.0,-6.9913811683654785,-6.75251579284668,0.0,0.0,0.0,0,-35
1680023547.56039810,237573266,0.0,0.0,0.36000001430511475,0.5,0.0,-7.022416591644287,-7.049561500549316,0.0,0.0,0.0,0,-35
1680023547.66035819,237673226,0.0,0.0,0.36000001430511475,0.5,0.0,-7.04910135269165,-6.862541675567627,0.0,0.0,0.0,0,-34
1680023547.76031804,237773186,0.0,0.0,0.36000001430511475,0.5,0.0,-7.072364330291748,-7.16807222366333,0.0,0.0,0.0,0,-33
1680023547.86027813,237873146,0.0,0.0,0.36000001430511475,0.5,0.0,-7.097292900085449,-7.114811897277832,0.0,0.0,0.0,0,-33
1680023547.96023798,237973106,0.0,0.0,0.36000001430511475,0.5,0.0,-7.122358322143555,-7.148630619049072,0.0,0.0,0.0,0,-32
1680023548.06019807,238073066,0.0,0.0,0.36000001430511475,0.5,0.0,-7.1548871994018555,-6.975559711456299,0.0,0.0,0.0,0,-32
1680023548.16015816,238173026,0.0,0.0,0.36000001430511475,0.5,0.0,-7.189952850341797,-7.224521636962891,0.0,0.0,0.0,0,-33
1680023548.26011801,238272986,0.0,0.0,0.36000001430511475,0.5,0.0,-7.222479820251465,-7.417791843414307,0.0,0.0,0.0,0,-33
1680023548.36007810,238372946,0.0,0.0,0.36000001430511475,0.5,0.0,-7.251196384429932,-7.337119102478027,0.0,0.0,0.0,0,-32
1680023548.46003819,238472906,0.0,0.0,0.36000001430511475,0.5,0.0,-7.28774881362915,-7.297185897827148,0.0,0.0,0.0,0,-33
1680023548.55999804,238572866,0.0,0.0,0.36000001430511475,0.5,0.0,-7.332388401031494,-7.452692985534668,0.0,0.0,0.0,0,-33
1680023548.65995812,238672826,0.0,0.0,0.36000001430511475,0.5,0.0,-7.377295970916748,-7.308120250701904,0.0,0.0,0.0,0,-34
1680023548.75991797,238772786,0.0,0.0,0.36000001430511475,0.5,0.0,-7.422411918640137,-7.516430377960205,0.0,0.0,0.0,0,-35
1680023548.85987806,238872746,0.0,0.0,0.36000001430511475,0.5,0.0,-7.4673662185668945,-7.250556468963623,0.0,0.0,0.0,0,-35
1680023548.95983815,238972706,0.0,0.0,0.36000001430511475,0.5,0.0,-7.509726047515869,-7.476648807525635,0.0,0.0,0.0,0,-36
1680023549.05979800,239072666,0.0,0.0,0.36000001430511475,0.5,0.0,-7.549142360687256,-7.394240856170654,0.0,0.0,0.0,0,-36
1680023549.15975809,239172626,0.0,0.0,0.36000001430511475,0.5,0.0,-7.580606460571289,-7.593464374542236,0.0,0.0,0.0,0,-35
1680023549.26055098,239273419,0.0,0.0,0.36000001430511475,0.5,0.0,-7.610154628753662,-7.4641900062561035,0.0,0.0,0.0,0,-35
1680023549.36051106,239373379,0.0,0.0,0.36000001430511475,0.5,0.0,-7.638071060180664,-7.752724647521973,0.0,0.0,0.0,0,-34
1680023549.46047115,239473339,0.0,0.0,0.36000001430511475,0.5,0.0,-7.666898727416992,-7.583489894866943,0.0,0.0,0.0,0,-34
1680023549.56043100,239573299,0.0,0.0,0.36000001430511475,0.5,0.0,-7.69675350189209,-7.843421459197998,0.0,0.0,0.0,0,-34
1680023549.66039109,239673259,0.0,0.0,0.36000001430511475,0.5,0.0,-7.731457710266113,-7.810770034790039,0.0,0.0,0.0,0,-34
1680023549.76035118,239773219,0.0,0.0,0.36000001430511475,0.5,0.0,-7.769018173217773,-7.640305995941162,0.0,0.0,0.0,0,-34
1680023549.86031103,239873179,0.0,0.0,0.36000001430511475,0.5,0.0,-7.812839984893799,-7.903005599975586,0.0,0.0,0.0,0,-35
1680023549.96027112,239973139,0.0,0.0,0.36000001430511475,0.5,0.0,-7.853349685668945,-7.870907306671143,0.0,0.0,0.0,0,-35
1680023550.06023097,240073099,0.0,0.0,0.36000001430511475,0.5,0.0,-7.892658710479736,-7.6613569259643555,0.0,0.0,0.0,0,-35
1680023550.16019106,240173059,0.0,0.0,0.36000001430511475,0.5,0.0,-7.934711456298828,-7.981863975524902,0.0,0.0,0.0,0,-36
1680023550.26015115,240273019,0.0,0.0,0.36000001430511475,0.5,0.0,-7.969809532165527,-7.956347465515137,0.0,0.0,0.0,0,-36
1680023550.36011100,240372979,0.0,0.0,0.36000001430511475,0.5,0.0,-8.001819610595703,-7.97214937210083,0.0,0.0,0.0,0,-35
1680023550.46007109,240472939,0.0,0.0,0.36000001430511475,0.5,0.0,-8.037151336669922,-8.072847366333008,0.0,0.0,0.0,0,-35
1680023550.56003118,240572899,0.0,0.0,0.36000001430511475,0.5,0.0,-8.07264518737793,-7.873968601226807,0.0,0.0,0.0,0,-35
1680023550.65999103,240672859,0.0,0.0,0.36000001430511475,0.5,0.0,-8.109755516052246,-8.126112937927246,0.0,0.0,0.0,0,-35
1680023550.75995111,240772819,0.0,0.0,0.36000001430511475,0.5,0.0,-8.142995834350586,-8.177382469177246,0.0,0.0,0.0,0,-35
1680023550.85991096,240872779,0.0,0.0,0.36000001430511475,0.5,0.0,-8.173761367797852,-7.959979057312012,0.0,0.0,0.0,0,-35
1680023550.95987105,240972739,0.0,0.0,0.36000001430511475,0.5,0.0,-8.208794593811035,-8.039019584655762,0.0,0.0,0.0,0,-35
1680023551.05983114,241072699,0.0,0.0,0.36000001430511475,0.5,0.0,-8.240074157714844,-8.029244422912598,0.0,0.0,0.0,0,-35
1680023551.15979099,241172659,0.0,0.0,0.36000001430511475,0.5,0.0,-8.263731956481934,-8.132034301757812,0.0,0.0,0.0,0,-34
1680023551.26058412,241273452,0.0,0.0,0.36000001430511475,0.5,0.0,-8.282119750976562,-8.321245193481445,0.0,0.0,0.0,0,-33
1680023551.36054397,241373412,0.0,0.0,0.36000001430511475,0.5,0.0,-8.297904968261719,-8.436479568481445,0.0,0.0,0.0,0,-32
1680023551.46050406,241473372,0.0,0.0,0.36000001430511475,0.5,0.0,-8.318490982055664,-8.253212928771973,0.0,0.0,0.0,0,-31
1680023551.56046414,241573332,0.0,0.0,0.36000001430511475,0.5,0.0,-8.349234580993652,-8.368870735168457,0.0,0.0,0.0,0,-31
1680023551.66042399,241673292,0.0,0.0,0.36000001430511475,0.5,0.0,-8.383408546447754,-8.357390403747559,0.0,0.0,0.0,0,-31
1680023551.76038408,241773252,0.0,0.0,0.36000001430511475,0.5,0.0,-8.417316436767578,-8.385000228881836,0.0,0.0,0.0,0,-32
1680023551.86034417,241873212,0.0,0.0,0.36000001430511475,0.5,0.0,-8.451448440551758,-8.227487564086914,0.0,0.0,0.0,0,-32
1680023551.96030402,241973172,0.0,0.0,0.36000001430511475,0.5,0.0,-8.484496116638184,-8.277920722961426,0.0,0.0,0.0,0,-32
1680023552.06026411,242073132,0.0,0.0,0.36000001430511475,0.5,0.0,-8.51116943359375,-8.438648223876953,0.0,0.0,0.0,0,-31
1680023552.16022396,242173092,0.0,0.0,0.36000001430511475,0.5,0.0,-8.529098510742188,-8.600275993347168,0.0,0.0,0.0,0,-30
1680023552.26018405,242273052,0.0,0.0,0.36000001430511475,0.5,0.0,-8.5452241897583,-8.59280776977539,0.0,0.0,0.0,0,-29
1680023552.36014414,242373012,0.0,0.0,0.36000001430511475,0.5,0.0,-8.567438125610352,-8.402297973632812,0.0,0.0,0.0,0,-29
1680023552.46010399,242472972,0.0,0.0,0.36000001430511475,0.5,0.0,-8.596508026123047,-8.703360557556152,0.0,0.0,0.0,0,-29
1680023552.56006408,242572932,0.0,0.0,0.36000001430511475,0.5,0.0,-8.623469352722168,-8.666485786437988,0.0,0.0,0.0,0,-29
1680023552.66002417,242672892,0.0,0.0,0.36000001430511475,0.5,0.0,-8.65122127532959,-8.626265525817871,0.0,0.0,0.0,0,-29
1680023552.75998402,242772852,0.0,0.0,0.36000001430511475,0.5,0.0,-8.684588432312012,-8.787965774536133,0.0,0.0,0.0,0,-29
1680023552.85994411,242872812,0.0,0.0,0.36000001430511475,0.5,0.0,-8.718064308166504,-8.70101261138916,0.0,0.0,0.0,0,-30
1680023552.95990396,242972772,0.0,0.0,0.36000001430511475,0.5,0.0,-8.753572463989258,-8.665275573730469,0.0,0.0,0.0,0,-30
1680023553.05986404,243072732,0.0,0.0,0.36000001430511475,0.5,0.0,-8.790352821350098,-9.024483680725098,0.0,0.0,0.0,0,-30
1680023553.15982413,243172692,0.0,0.0,0.36000001430511475,0.5,0.0,-8.822959899902344,-8.76008415222168,0.0,0.0,0.0,0,-30
1680023553.25978398,243272652,0.0,0.0,0.36000001430511475,0.5,0.0,-8.858450889587402,-8.798324584960938,0.0,0.0,0.0,0,-31
1680023553.36057711,243373445,0.0,0.0,0.35874998569488525,0.5,0.0,-8.899466514587402,-9.128801345825195,0.0,0.0,0.0,0,-31
1680023553.46053696,243473405,0.0,0.0,0.35874998569488525,0.5,0.0,-8.934635162353516,-9.1478910446167,0.0,0.0,0.0,0,-32
1680023553.56049705,243573365,0.0,0.0,0.35874998569488525,0.5,0.0,-8.972404479980469,-8.947834968566895,0.0,0.0,0.0,0,-32
1680023553.66045713,243673325,0.0,0.0,0.35874998569488525,0.5,0.0,-9.021162986755371,-9.092079162597656,0.0,0.0,0.0,0,-33
1680023553.76041698,243773285,0.0,0.0,0.35874998569488525,0.5,0.0,-9.072060585021973,-8.899847030639648,0.0,0.0,0.0,0,-34
1680023553.86037707,243873245,0.0,0.0,0.35874998569488525,0.5,0.0,-9.11850357055664,-9.273012161254883,0.0,0.0,0.0,0,-35
1680023553.96033716,243973205,0.0,0.0,0.35874998569488525,0.5,0.0,-9.160282135009766,-9.106895446777344,0.0,0.0,0.0,0,-35
1680023554.06029701,244073165,0.0,0.0,0.35874998569488525,0.5,0.0,-9.198335647583008,-9.064353942871094,0.0,0.0,0.0,0,-35
1680023554.16025710,244173125,0.0,0.0,0.35874998569488525,0.5,0.0,-9.240198135375977,-9.218199729919434,0.0,0.0,0.0,0,-35
1680023554.26021719,244273085,0.0,0.0,0.35874998569488525,0.5,0.0,-9.276311874389648,-9.093714714050293,0.0,0.0,0.0,0,-35
1680023554.36017704,244373045,0.0,0.0,0.35874998569488525,0.5,0.0,-9.30846881866455,-9.24156379699707,0.0,0.0,0.0,0,-35
1680023554.46013713,244473005,0.0,0.0,0.35874998569488525,0.5,0.0,-9.338232040405273,-9.351302146911621,0.0,0.0,0.0,0,-35
1680023554.56009698,244572965,0.0,0.0,0.35874998569488525,0.5,0.0,-9.363654136657715,-9.187345504760742,0.0,0.0,0.0,0,-34
1680023554.66005707,244672925,0.0,0.0,0.35874998569488525,0.5,0.0,-9.391586303710938,-9.54635238647461,0.0,0.0,0.0,0,-33
1680023554.76001716,244772885,0.0,0.0,0.35874998569488525,0.5,0.0,-9.41961669921875,-9.261087417602539,0.0,0.0,0.0,0,-33
1680023554.85997701,244872845,0.0,0.0,0.35874998569488525,0.5,0.0,-9.448599815368652,-9.37508773803711,0.0,0.0,0.0,0,-33
1680023554.95993710,244972805,0.0,0.0,0.35874998569488525,0.5,0.0,-9.482111930847168,-9.41734504699707,0.0,0.0,0.0,0,-33
1680023555.05989718,245072765,0.0,0.0,0.35874998569488525,0.5,0.0,-9.50950813293457,-9.337392807006836,0.0,0.0,0.0,0,-33
1680023555.15985703,245172725,0.0,0.0,0.35874998569488525,0.5,0.0,-9.53687572479248,-9.468790054321289,0.0,0.0,0.0,0,-32
1680023555.25981712,245272685,0.0,0.0,0.35874998569488525,0.5,0.0,-9.560882568359375,-9.41109561920166,0.0,0.0,0.0,0,-32
1680023555.35977697,245372645,0.0,0.0,0.35874998569488525,0.5,0.0,-9.582691192626953,-9.639860153198242,0.0,0.0,0.0,0,-31
1680023555.46057010,245473438,0.0,0.0,0.35874998569488525,0.5,0.0,-9.6031494140625,-9.774864196777344,0.0,0.0,0.0,0,-30
1680023555.56053019,245573398,0.0,0.0,0.35874998569488525,0.5,0.0,-9.626276969909668,-9.794763565063477,0.0,0.0,0.0,0,-30
1680023555.66049004,245673358,0.0,0.0,0.35874998569488525,0.5,0.0,-9.65949821472168,-9.877620697021484,0.0,0.0,0.0,0,-30
1680023555.76045012,245773318,0.0,0.0,0.35874998569488525,0.5,0.0,-9.702237129211426,-9.865435600280762,0.0,0.0,0.0,0,-31
1680023555.86040998,245873278,0.0,0.0,0.35874998569488525,0.5,0.0,-9.753059387207031,-9.598999977111816,0.0,0.0,0.0,0,-33
1680023555.96037006,245973238,0.0,0.0,0.35874998569488525,0.5,0.0,-9.808760643005371,-9.76014518737793,0.0,0.0,0.0,0,-34
1680023556.06033015,246073198,0.0,0.0,0.35749998688697815,0.5,0.0,-9.857909202575684,-9.943129539489746,0.0,0.0,0.0,0,-35
1680023556.16029000,246173158,0.0,0.0,0.35749998688697815,0.5,0.0,-9.897880554199219,-10.076385498046875,0.0,0.0,0.0,0,-35
1680023556.26025009,246273118,0.0,0.0,0.35749998688697815,0.5,0.0,-9.938375473022461,-9.9098482131958,0.0,0.0,0.0,0,-35
1680023556.36021018,246373078,0.0,0.0,0.35749998688697815,0.5,0.0,-9.985353469848633,-10.093979835510254,0.0,0.0,0.0,0,-36
1680023556.46017003,246473038,0.0,0.0,0.35749998688697815,0.5,0.0,-10.033452033996582,-10.18000602722168,0.0,0.0,0.0,0,-37
1680023556.56013012,246572998,0.0,0.0,0.35749998688697815,0.5,0.0,-10.081153869628906,-10.133445739746094,0.0,0.0,0.0,0,-37
1680023556.66008997,246672958,0.0,0.0,0.35749998688697815,0.5,0.0,-10.1334867477417,-10.087509155273438,0.0,0.0,0.0,0,-38
1680023556.76005006,246772918,0.0,0.0,0.35749998688697815,0.5,0.0,-10.18740463256836,-10.212387084960938,0.0,0.0,0.0,0,-39
1680023556.86001015,246872878,0.0,0.0,0.35749998688697815,0.5,0.0,-10.237581253051758,-10.052884101867676,0.0,0.0,0.0,0,-40
1680023556.95997000,246972838,0.0,0.0,0.35749998688697815,0.5,0.0,-10.284981727600098,-9.978254318237305,0.0,0.0,0.0,0,-40
1680023557.05993009,247072798,0.0,0.0,0.35749998688697815,0.5,0.0,-10.326674461364746,-10.099014282226562,0.0,0.0,0.0,0,-40
1680023557.15989017,247172758,0.0,0.0,0.35749998688697815,0.5,0.0,-10.355818748474121,-10.427387237548828,0.0,0.0,0.0,0,-39
1680023557.25985003,247272718,0.0,0.0,0.35749998688697815,0.5,0.0,-10.375709533691406,-10.111556053161621,0.0,0.0,0.0,0,-38
1680023557.35981011,247372678,0.0,0.0,0.35749998688697815,0.5,0.0,-10.399691581726074,-10.478121757507324,0.0,0.0,0.0,0,-37
1680023557.45976996,247472638,0.0,0.0,0.35749998688697815,0.5,0.0,-10.424338340759277,-10.454242706298828,0.0,0.0,0.0,0,-36
1680023557.56056309,247573431,0.0,0.0,0.35374999046325684,0.5,0.0,-10.450438499450684,-10.357316970825195,0.0,0.0,0.0,0,-36
1680023557.66052318,247673391,0.0,0.0,0.34375,0.5,0.0,-10.485045433044434,-10.394851684570312,0.0,0.0,0.0,0,-37
1680023557.76048303,247773351,0.0,0.0,0.33125001192092896,0.5,0.0,-10.521719932556152,-10.526968955993652,0.0,0.0,0.0,0,-38
1680023557.86044312,247873311,0.0,0.0,0.3149999976158142,0.5,0.0,-10.557701110839844,-10.41506576538086,0.0,0.0,0.0,0,-41
1680023557.96040297,247973271,0.0,0.0,0.3725000023841858,0.5,0.0,-10.596343994140625,-10.645162582397461,0.0,0.0,0.0,0,-41
1680023558.06036305,248073231,0.0,0.0,0.5,0.5,0.0,-10.629383087158203,-10.410208702087402,0.0,0.0,0.0,0,-32
1680023558.16032314,248173191,0.0,0.0,0.5,0.5,0.0,-10.654605865478516,-10.644333839416504,0.0,0.0,0.0,0,-27
1680023558.26028299,248273151,0.0,0.0,0.5,0.5,0.0,-10.674796104431152,-10.673752784729004,0.0,0.0,0.0,0,-22
1680023558.36024308,248373111,0.0,0.0,0.5,0.5,0.0,-10.686837196350098,-10.569671630859375,0.0,0.0,0.0,0,-18
1680023558.46020317,248473071,0.0,0.0,0.5,0.5,0.0,-10.699703216552734,-10.831551551818848,0.0,0.0,0.0,0,-16
1680023558.56016302,248573031,0.0,0.0,0.5,0.5,0.0,-10.710323333740234,-10.693029403686523,0.0,0.0,0.0,0,-14
1680023558.66012311,248672991,0.0,0.0,0.5,0.5,0.0,-10.72046184539795,-10.582716941833496,0.0,0.0,0.0,0,-12
1680023558.76008296,248772951,0.0,0.0,0.5,0.5,0.0,-10.734667778015137,-10.629043579101562,0.0,0.0,0.0,0,-11
1680023558.86004305,248872911,0.0,0.0,0.5,0.5,0.0,-10.743741035461426,-10.726404190063477,0.0,0.0,0.0,0,-9
1680023558.96000314,248972871,0.0,0.0,0.5,0.5,0.0,-10.745782852172852,-10.872745513916016,0.0,0.0,0.0,0,-8
1680023559.05996299,249072831,0.0,0.0,0.5,0.5,0.0,-10.745672225952148,-10.755755424499512,0.0,0.0,0.0,0,-6
1680023559.15992308,249172791,0.0,0.0,0.5,0.5,0.0,-10.749707221984863,-10.616119384765625,0.0,0.0,0.0,0,-5
1680023559.25988317,249272751,0.0,0.0,0.5,0.5,0.0,-10.758313179016113,-10.734752655029297,0.0,0.0,0.0,0,-5
1680023559.35984302,249372711,0.0,0.0,0.5,0.5,0.0,-10.762811660766602,-10.732817649841309,0.0,0.0,0.0,0,-4
1680023559.45980310,249472671,0.0,0.0,0.5,0.5,0.0,-10.76199722290039,-10.85768985748291,0.0,0.0,0.0,0,-3
1680023559.55976295,249572631,0.0,0.0,0.5,0.5,0.0,-10.760786056518555,-10.733491897583008,0.0,0.0,0.0,0,-2
1680023559.66055608,249673424,0.0,0.0,0.5,0.5,0.0,-10.76148796081543,-10.612386703491211,0.0,0.0,0.0,0,-1
1680023559.76051617,249773384,0.0,0.0,0.5,0.5,0.0,-10.764622688293457,-10.574097633361816,0.0,0.0,0.0,0,-1
1680023559.86047602,249873344,0.0,0.0,0.5,0.5,0.0,-10.762528419494629,-10.821954727172852,0.0,0.0,0.0,0,0
1680023559.96043611,249973304,0.0,0.0,0.5,0.5,0.0,-10.751842498779297,-10.647841453552246,0.0,0.0,0.0,0,1
1680023560.06039596,250073264,0.0,0.0,0.5,0.5,0.0,-10.739083290100098,-10.583877563476562,0.0,0.0,0.0,0,2
1680023560.16035604,250173224,0.0,0.0,0.5,0.5,0.0,-10.729206085205078,-10.79552173614502,0.0,0.0,0.0,0,3
1680023560.26031613,250273184,0.0,0.0,0.5,0.5,0.0,-10.7144193649292,-10.748614311218262,0.0,0.0,0.0,0,4
1680023560.36027598,250373144,0.0,0.0,0.5,0.5,0.0,-10.699109077453613,-10.777263641357422,0.0,0.0,0.0,0,5
1680023560.46023607,250473104,0.0,0.0,0.5,0.5,0.0,-10.689547538757324,-10.574736595153809,0.0,0.0,0.0,0,6
1680023560.56019616,250573064,0.0,0.0,0.5,0.5,0.0,-10.683399200439453,-10.778861999511719,0.0,0.0,0.0,0,6
1680023560.66015601,250673024,0.0,0.0,0.5,0.5,0.0,-10.676457405090332,-10.840550422668457,0.0,0.0,0.0,0,7
1680023560.76011610,250772984,0.0,0.0,0.5,0.5,0.0,-10.667034149169922,-10.665379524230957,0.0,0.0,0.0,0,8
1680023560.86007619,250872944,0.0,0.0,0.5,0.5,0.0,-10.664010047912598,-10.634068489074707,0.0,0.0,0.0,0,8
1680023560.96003604,250972904,0.0,0.0,0.5,0.5,0.0,-10.66377067565918,-10.514582633972168,0.0,0.0,0.0,0,8
1680023561.05999613,251072864,0.0,0.0,0.5,0.5,0.0,-10.659255027770996,-10.74564266204834,0.0,0.0,0.0,0,8
1680023561.15995598,251172824,0.0,0.0,0.5,0.5,0.0,-10.648334503173828,-10.676163673400879,0.0,0.0,0.0,0,9
1680023561.25991607,251272784,0.0,0.0,0.5,0.5,0.0,-10.634160041809082,-10.657238960266113,0.0,0.0,0.0,0,9
1680023561.35987616,251372744,0.0,0.0,0.5,0.5,0.0,-10.624358177185059,-10.821599006652832,0.0,0.0,0.0,0,10
1680023561.45983601,251472704,0.0,0.0,0.5,0.5,0.0,-10.61506462097168,-10.679839134216309,0.0,0.0,0.0,0,10
1680023561.55979609,251572664,0.0,0.0,0.5,0.5,0.0,-10.610845565795898,-10.696259498596191,0.0,0.0,0.0,0,10
1680023561.66058898,251673457,0.0,0.0,0.5,0.5,0.0,-10.610684394836426,-10.774723052978516,0.0,0.0,0.0,0,9
1680023561.76054907,251773417,0.0,0.0,0.5,0.5,0.0,-10.610513687133789,-10.48081111907959,0.0,0.0,0.0,0,9
1680023561.86050916,251873377,0.0,0.0,0.5,0.5,0.0,-10.613198280334473,-10.755513191223145,0.0,0.0,0.0,0,8
1680023561.96046901,251973337,0.0,0.0,0.5,0.5,0.0,-10.61161994934082,-10.837573051452637,0.0,0.0,0.0,0,8
1680023562.06042910,252073297,0.0,0.0,0.5,0.5,0.0,-10.607501029968262,-10.754962921142578,0.0,0.0,0.0,0,8
1680023562.16038918,252173257,0.0,0.0,0.5,0.5,0.0,-10.610939025878906,-10.655835151672363,0.0,0.0,0.0,0,8
1680023562.26034904,252273217,0.0,0.0,0.5,0.5,0.0,-10.619641304016113,-10.529105186462402,0.0,0.0,0.0,0,7
1680023562.36030912,252373177,0.0,0.0,0.5,0.5,0.0,-10.627287864685059,-10.681599617004395,0.0,0.0,0.0,0,6
1680023562.46026897,252473137,0.0,0.0,0.5,0.5,0.0,-10.628826141357422,-10.524880409240723,0.0,0.0,0.0,0,6
1680023562.56022906,252573097,0.0,0.0,0.5,0.5,0.0,-10.625197410583496,-10.470389366149902,0.0,0.0,0.0,0,6
1680023562.66018915,252673057,0.0,0.0,0.5,0.5,0.0,-10.61958122253418,-10.605670928955078,0.0,0.0,0.0,0,6
1680023562.76014900,252773017,0.0,0.0,0.5,0.5,0.0,-10.606467247009277,-10.492465019226074,0.0,0.0,0.0,0,7
1680023562.86010909,252872977,0.0,0.0,0.5,0.5,0.0,-10.589757919311523,-10.487224578857422,0.0,0.0,0.0,0,7
1680023562.96006918,252972937,0.0,0.0,0.5,0.5,0.0,-10.573033332824707,-10.551447868347168,0.0,0.0,0.0,0,8
1680023563.06002903,253072897,0.0,0.0,0.5,0.5,0.0,-10.553184509277344,-10.75272274017334,0.0,0.0,0.0,0,9
1680023563.15998912,253172857,0.0,0.0,0.5,0.5,0.0,-10.533225059509277,-10.651116371154785,0.0,0.0,0.0,0,10
1680023563.25994897,253272817,0.0,0.0,0.5,0.5,0.0,-10.520400047302246,-10.563684463500977,0.0,0.0,0.0,0,10
1680023563.35990906,253372777,0.0,0.0,0.5,0.5,0.0,-10.517602920532227,-10.48713493347168,0.0,0.0,0.0,0,9
1680023563.45986915,253472737,0.0,0.0,0.5,0.5,0.0,-10.517212867736816,-10.58382797241211,0.0,0.0,0.0,0,8
1680023563.55982900,253572697,0.0,0.0,0.5,0.5,0.0,-10.514455795288086,-10.328950881958008,0.0,0.0,0.0,0,8
1680023563.65978909,253672657,0.0,0.0,0.5,0.5,0.0,-10.509860038757324,-10.342105865478516,0.0,0.0,0.0,0,8
1680023563.76058197,253773450,0.0,0.0,0.5,0.5,0.0,-10.501791000366211,-10.405086517333984,0.0,0.0,0.0,0,8
1680023563.86054206,253873410,0.0,0.0,0.5,0.5,0.0,-10.483652114868164,-10.580580711364746,0.0,0.0,0.0,0,9
1680023563.96050215,253973370,0.0,0.0,0.5,0.5,0.0,-10.460824966430664,-10.462160110473633,0.0,0.0,0.0,0,10
1680023564.06046200,254073330,0.0,0.0,0.5,0.5,0.0,-10.441186904907227,-10.306168556213379,0.0,0.0,0.0,0,10
1680023564.16042209,254173290,0.0,0.0,0.5,0.5,0.0,-10.427672386169434,-10.448732376098633,0.0,0.0,0.0,0,10
1680023564.26038218,254273250,0.0,0.0,0.5,0.5,0.0,-10.412245750427246,-10.299724578857422,0.0,0.0,0.0,0,11
1680023564.36034203,254373210,0.0,0.0,0.5,0.5,0.0,-10.394330978393555,-10.503045082092285,0.0,0.0,0.0,0,11
1680023564.46030211,254473170,0.0,0.0,0.5,0.5,0.0,-10.376773834228516,-10.518539428710938,0.0,0.0,0.0,0,11
1680023564.56026196,254573130,0.0,0.0,0.5,0.5,0.0,-10.359763145446777,-10.258954048156738,0.0,0.0,0.0,0,12
1680023564.66022205,254673090,0.0,0.0,0.5,0.5,0.0,-10.350851058959961,-10.295218467712402,0.0,0.0,0.0,0,11
1680023564.76018214,254773050,0.0,0.0,0.5,0.5,0.0,-10.34314250946045,-10.560463905334473,0.0,0.0,0.0,0,11
1680023564.86014199,254873010,0.0,0.0,0.5,0.5,0.0,-10.329309463500977,-10.487768173217773,0.0,0.0,0.0,0,11
1680023564.96010208,254972970,0.0,0.0,0.5,0.5,0.0,-10.318720817565918,-10.183612823486328,0.0,0.0,0.0,0,11
1680023565.06006217,255072930,0.0,0.0,0.5,0.5,0.0,-10.317865371704102,-10.449925422668457,0.0,0.0,0.0,0,10
1680023565.16002202,255172890,0.0,0.0,0.5,0.5,0.0,-10.315335273742676,-10.328773498535156,0.0,0.0,0.0,0,10
1680023565.25998211,255272850,0.0,0.0,0.5,0.5,0.0,-10.308027267456055,-10.496975898742676,0.0,0.0,0.0,0,10
1680023565.35994196,255372810,0.0,0.0,0.5,0.5,0.0,-10.303740501403809,-10.3660888671875,0.0,0.0,0.0,0,9
1680023565.45990205,255472770,0.0,0.0,0.5,0.5,0.0,-10.301506042480469,-10.171160697937012,0.0,0.0,0.0,0,9
1680023565.55986214,255572730,0.0,0.0,0.5,0.5,0.0,-10.303718566894531,-10.43760871887207,0.0,0.0,0.0,0,8
1680023565.65982199,255672690,0.0,0.0,0.5,0.5,0.0,-10.300853729248047,-10.252617835998535,0.0,0.0,0.0,0,8
1680023565.75978208,255772650,0.0,0.0,0.5,0.5,0.0,-10.294168472290039,-10.458172798156738,0.0,0.0,0.0,0,8
1680023565.86057496,255873443,0.0,0.0,0.5,0.5,0.0,-10.289789199829102,-10.34455680847168,0.0,0.0,0.0,0,8
1680023565.96053505,255973403,0.0,0.0,0.5,0.5,0.0,-10.286548614501953,-10.123284339904785,0.0,0.0,0.0,0,7
1680023566.06049514,256073363,0.0,0.0,0.5,0.5,0.0,-10.287032127380371,-10.420336723327637,0.0,9.6,0.0,0,7
1680023566.16045499,256173323,0.0,0.0,0.5,0.5,0.0,-10.281264305114746,-10.07622241973877,0.0,9.6,0.0,0,7
1680023566.26041508,256273283,0.0,0.0,0.5,0.5,0.0,-10.274199485778809,-10.071248054504395,0.0,9.61,0.0,0,7
1680023566.36037517,256373243,0.0,0.0,0.5,0.5,0.0,-10.264388084411621,-10.332335472106934,0.0,9.61,0.0,0,7
1680023566.46033502,256473203,0.0,0.0,0.5,0.5,0.0,-10.244158744812012,-10.406814575195312,0.0,9.63,0.0,0,8
1680023566.56029510,256573163,0.0,0.0,0.5,0.5,0.0,-10.224550247192383,-10.047921180725098,0.0,9.63,0.0,0,9
1680023566.66025496,256673123,0.0,0.0,0.5,0.5,0.0,-10.2146577835083,-10.332024574279785,0.0,9.63,0.0,0,9
1680023566.76021504,256773083,0.0,0.0,0.5,0.5,0.0,-10.20406436920166,-10.0427885055542,0.0,9.67,0.0,0,9
1680023566.86017513,256873043,0.0,0.0,0.5,0.5,0.0,-10.19268798828125,-10.052973747253418,0.0,9.67,0.0,0,9
1680023566.96013498,256973003,0.0,0.0,0.5,0.5,0.0,-10.180360794067383,-10.3280611038208,0.0,9.700000000000001,0.0,0,9
1680023567.06009507,257072963,0.0,0.0,0.5,0.5,0.0,-10.16080093383789,-10.149877548217773,0.0,9.700000000000001,0.0,0,10
1680023567.16005516,257172923,0.0,0.0,0.5,0.5,0.0,-10.144933700561523,-10.289722442626953,0.0,9.700000000000001,0.0,0,10
1680023567.26001501,257272883,0.0,0.0,0.5,0.5,0.0,-10.134185791015625,-9.967280387878418,0.0,9.74,0.0,0,10
1680023567.35997510,257372843,0.0,0.0,0.5,0.5,0.0,-10.127158164978027,-10.18310546875,0.0,9.74,0.0,0,10
1680023567.45993519,257472803,0.0,0.0,0.5,0.5,0.0,-10.117816925048828,-10.1466646194458,0.0,9.76,0.0,0,9
1680023567.55989504,257572763,0.0,0.0,0.5,0.5,0.0,-10.10528564453125,-9.987256050109863,0.0,9.76,0.0,0,10
1680023567.65985513,257672723,0.0,0.0,0.5,0.5,0.0,-10.095475196838379,-10.17813491821289,0.0,9.790000000000001,0.0,0,10
1680023567.75981498,257772683,0.0,0.0,0.5,0.5,0.0,-10.083442687988281,-10.070455551147461,0.0,9.790000000000001,0.0,0,10
1680023567.85977507,257872643,0.0,0.0,0.5,0.5,0.0,-10.069633483886719,-10.278300285339355,0.0,9.790000000000001,0.0,0,10
1680023567.96056819,257973436,0.0,0.0,0.5,0.5,0.0,-10.059102058410645,-10.054661750793457,0.0,9.790000000000001,0.0,0,10
1680023568.06052804,258073396,0.0,0.0,0.5,0.5,0.0,-10.052401542663574,-9.917130470275879,0.0,9.82,0.0,0,10
1680023568.16048813,258173356,0.0,0.0,0.5,0.5,0.0,-10.050872802734375,-10.255050659179688,0.0,9.82,0.0,0,9
1680023568.26044798,258273316,0.0,0.0,0.5,0.5,0.0,-10.043118476867676,-10.162869453430176,0.0,9.84,0.0,0,9
1680023568.36040807,258373276,0.0,0.0,0.5,0.5,0.0,-10.034244537353516,-10.005232810974121,0.0,9.84,0.0,0,9
1680023568.46036816,258473236,0.0,0.0,0.5,0.5,0.0,-10.034017562866211,-10.197981834411621,0.0,9.84,0.0,0,8
1680023568.56032801,258573196,0.0,0.0,0.5,0.5,0.0,-10.033634185791016,-9.825886726379395,0.0,9.86,0.0,0,8
1680023568.66028810,258673156,0.0,0.0,0.5,0.5,0.0,-10.032622337341309,-9.95283317565918,0.0,9.86,0.0,0,7
1680023568.76024818,258773116,0.0,0.0,0.5,0.5,0.0,-10.029579162597656,-9.816686630249023,0.0,9.86,0.0,0,7
1680023568.86020803,258873076,0.0,0.0,0.5,0.5,0.0,-10.016012191772461,-9.834121704101562,0.0,9.86,0.0,0,8
1680023568.96016812,258973036,0.0,0.0,0.5,0.5,0.0,-9.996715545654297,-9.951912879943848,0.0,9.86,0.0,0,9
1680023569.06012797,259072996,0.0,0.0,0.5,0.5,0.0,-9.969893455505371,-9.88523006439209,0.0,9.88,0.0,0,10
1680023569.16008806,259172956,0.0,0.0,0.5,0.5,0.0,-9.941847801208496,-9.97018814086914,0.0,9.88,0.0,0,11
1680023569.26004815,259272916,0.0,0.0,0.5,0.5,0.0,-9.916325569152832,-10.14901351928711,0.0,9.94,0.0,0,12
1680023569.36000800,259372876,0.0,0.0,0.5,0.5,0.0,-9.893399238586426,-10.095475196838379,0.0,9.94,0.0,0,12
1680023569.45996809,259472836,0.0,0.0,0.5,0.5,0.0,-9.880003929138184,-9.989521980285645,0.0,10.0,0.0,0,12
1680023569.55992818,259572796,0.0,0.0,0.5,0.5,0.0,-9.878788948059082,-9.899275779724121,0.0,10.0,0.0,0,11
1680023569.65988803,259672756,0.0,0.0,0.5,0.5,0.0,-9.882680892944336,-10.008294105529785,0.0,10.0,0.0,0,10
1680023569.75984812,259772716,0.0,0.0,0.5,0.5,0.0,-9.885169982910156,-9.986913681030273,0.0,10.01,0.0,0,9
1680023569.85980797,259872676,0.0,0.0,0.5,0.5,0.0,-9.886224746704102,-10.039569854736328,0.0,10.01,0.0,0,9
1680023569.95976806,259972636,0.0,0.0,0.5,0.5,0.0,-9.889345169067383,-9.717839241027832,0.0,10.0,0.0,0,8
1680023570.06056118,260073429,0.0,0.0,0.5,0.5,0.0,-9.894391059875488,-10.015748977661133,0.0,10.0,0.0,0,7
1680023570.16052103,260173389,0.0,0.0,0.5,0.5,0.0,-9.89565658569336,-10.009571075439453,0.0,10.0,0.0,0,7
1680023570.26048112,260273349,0.0,0.0,0.5,0.5,0.0,-9.890427589416504,-9.673718452453613,0.0,9.99,0.0,0,7
1680023570.36044097,260373309,0.0,0.0,0.5,0.5,0.0,-9.89029598236084,-9.894023895263672,0.0,9.99,0.0,0,6
