,TimeUS,timestamp,ThI,ABst,ThO,ThH,DAlt,Alt,BAlt,DSAlt,SAlt,TAlt,DCRt,CRt,terrain_z,sub_z,rf
0,209372884,1680023519.360016,0.0,0.0,0.5,0.5,0.0,-0.2818830609321594,-0.2851395010948181,0.0,0.0,0.0,0,-3,,,
1,209472844,1680023519.459976,0.0,0.0,0.5,0.5,0.0,-0.2668391466140747,-0.0578340254724025,0.0,0.0,0.0,0,-2,,,
2,209572804,1680023519.559936,0.0,0.0,0.5,0.5,0.0,-0.2542094886302948,-0.2577012777328491,0.0,0.0,0.0,0,-1,,,
3,209672764,1680023519.659896,0.0,0.0,0.5,0.5,0.0,-0.240302175283432,-0.2982182800769806,0.0,0.0,0.0,0,0,,,
4,209772724,1680023519.759856,0.0,0.0,0.5,0.5,0.0,-0.2271659970283508,-0.3609064221382141,0.0,0.0,0.0,0,0,,,
5,209872684,1680023519.859816,0.0,0.0,0.5,0.5,0.0,-0.2209479361772537,-0.2213907092809677,0.0,0.0,0.0,0,0,,,
6,209972644,1680023519.959776,0.0,0.0,0.5,0.5,0.0,-0.2228899002075195,-0.236216515302658,0.0,0.0,0.0,0,0,,,
7,210073437,1680023520.060569,0.0,0.0,0.5,0.5,0.0,-0.2281901985406875,-0.164553165435791,0.0,0.0,0.0,0,0,,,
8,210173397,1680023520.1605291,0.0,0.0,0.5,0.5,0.0,-0.232360377907753,-0.1929727345705032,0.0,0.0,0.0,0,0,,,
9,210273357,1680023520.2604887,0.0,0.0,0.5,0.5,0.0,-0.233733057975769,-0.2094459533691406,0.0,0.0,0.0,0,0,,,
10,210373317,1680023520.360449,0.0,0.0,0.5,0.5,0.0,-0.231723353266716,-0.3309949040412903,0.0,0.0,0.0,0,0,,,
11,210473277,1680023520.4604092,0.0,0.0,0.5,0.5,0.0,-0.2285005003213882,-0.0360124371945858,0.0,0.0,0.0,0,0,,,
12,210573237,1680023520.560369,0.0,0.0,0.5,0.5,0.0,-0.228612333536148,-0.4012089371681213,0.0,0.0,0.0,0,0,,,
13,210673197,1680023520.660329,0.0,0.0,0.5,0.5,0.0,-0.2253478467464447,-0.1414166092872619,0.0,0.0,0.0,0,0,,,
14,210773157,1680023520.7602887,0.0,0.0,0.5,0.5,0.0,-0.2215019613504409,-0.0237611606717109,0.0,0.0,0.0,0,0,,,
15,210873117,1680023520.860249,0.0,0.0,0.5,0.5,0.0,-0.2229403257369995,-0.1161611154675483,0.0,0.0,0.0,0,0,,,
16,210973077,1680023520.9602091,0.0,0.0,0.5,0.5,0.0,-0.2158222198486328,-0.093207910656929,0.0,0.0,0.0,0,1,,,
17,211073037,1680023521.0601687,0.0,0.0,0.5,0.5,0.0,-0.2009137272834777,-0.1485933512449264,0.0,0.0,0.0,0,2,,,
18,211172997,1680023521.160129,0.0,0.0,0.5,0.5,0.0,-0.1835677921772003,-0.1282732784748077,0.0,0.0,0.0,0,3,,,
19,211272957,1680023521.2600892,0.0,0.0,0.5,0.5,0.0,-0.1653419435024261,-0.3138093948364258,0.0,0.0,0.0,0,4,,,
20,211372917,1680023521.360049,0.0,0.0,0.5,0.5,0.0,-0.1487248837947845,-0.1272460967302322,0.0,0.0,0.0,0,5,,,
21,211472877,1680023521.460009,0.0,0.0,0.5,0.5,0.0,-0.1375298053026199,-0.1776510626077652,0.0,0.0,0.0,0,6,,,
22,211572837,1680023521.5599692,0.0,0.0,0.5,0.5,0.0,-0.133036196231842,-0.4090118706226349,0.0,0.0,0.0,0,5,,,
23,211672797,1680023521.659929,0.0,0.0,0.5,0.5,0.0,-0.1281691938638687,-0.1611507534980774,0.0,0.0,0.0,0,5,,,
24,211772757,1680023521.7598891,0.0,0.0,0.5,0.5,0.0,-0.1306934058666229,-0.3640325963497162,0.0,0.0,0.0,0,5,,,
25,211872717,1680023521.8598487,0.0,0.0,0.5,0.5,0.0,-0.140801265835762,-0.1804902702569961,0.0,0.0,0.0,0,4,,,
26,211972677,1680023521.959809,0.0,0.0,0.5,0.5,0.0,-0.1520707160234451,-0.1445495784282684,0.0,0.0,0.0,0,2,,,
27,212072637,1680023522.0597692,0.0,0.0,0.5,0.5,0.0,-0.1668917089700698,-0.0825051814317703,0.0,0.0,0.0,0,1,,,
28,212173430,1680023522.160562,0.0,0.0,0.5,0.5,0.0,-0.1763901114463806,-0.2537555694580078,0.0,0.0,0.0,0,1,,,
29,212273390,1680023522.260522,0.0,0.0,0.5,0.5,0.0,-0.1790817081928253,-0.0754185244441032,0.0,0.0,0.0,0,1,,,
30,212373350,1680023522.360482,0.0,0.0,0.5,0.5,0.0,-0.1784693747758865,-0.4291211068630218,0.0,0.0,0.0,0,1,,,
31,212473310,1680023522.460442,0.0,0.0,0.5,0.5,0.0,-0.1772506833076477,-0.0955261513590812,0.0,0.0,0.0,0,1,,,
32,212573270,1680023522.560402,0.0,0.0,0.5,0.5,0.0,-0.1775783002376556,-0.0615409761667251,0.0,0.0,0.0,0,1,,,
33,212673230,1680023522.660362,0.0,0.0,0.5,0.5,0.0,-0.1838274449110031,-0.379298061132431,0.0,0.0,0.0,0,1,,,
34,212773190,1680023522.760322,0.0,0.0,0.5,0.5,0.0,-0.1816335618495941,-0.17050701379776,0.0,0.0,0.0,0,1,,,
35,212873150,1680023522.860282,0.0,0.0,0.5,0.5,0.0,-0.1798823773860931,-0.1353906244039535,0.0,0.0,0.0,0,1,,,
36,212973110,1680023522.960242,0.0,0.0,0.5,0.5,0.0,-0.1846436113119125,-0.2927550971508026,0.0,0.0,0.0,0,1,,,
37,213073070,1680023523.060202,0.0,0.0,0.5,0.5,0.0,-0.1857446730136871,-0.4120356440544128,0.0,0.0,0.0,0,1,,,
38,213173030,1680023523.160162,0.0,0.0,0.5,0.5,0.0,-0.1868341565132141,-0.0367617979645729,0.0,0.0,0.0,0,1,,,
39,213272990,1680023523.260122,0.0,0.0,0.5,0.5,0.0,-0.1960742324590683,-0.0933872759342193,0.0,0.0,0.0,0,0,,,
40,213372950,1680023523.360082,0.0,0.0,0.488750010728836,0.5,0.0,-0.2062896341085434,-0.3727678656578064,0.0,0.0,0.0,0,0,,,
41,213472910,1680023523.460042,0.0,0.0,0.4749999940395355,0.5,0.0,-0.2052468508481979,-0.1782186776399612,0.0,0.0,0.0,0,0,,,
42,213572870,1680023523.560002,0.0,0.0,0.4275000095367431,0.5,0.0,-0.2051012963056564,-0.1948074847459793,0.0,0.0,0.0,0,-1,,,
43,213672830,1680023523.659962,0.0,0.0,0.4174999892711639,0.5,0.0,-0.2120301276445388,-0.0292434636503458,0.0,0.0,0.0,0,-3,,,
44,213772790,1680023523.759922,0.0,0.0,0.4025000035762787,0.5,0.0,-0.218765988945961,-0.0525502227246761,0.0,0.0,0.0,0,-6,,,
45,213872750,1680023523.859882,0.0,0.0,0.3812499940395355,0.5,0.0,-0.2242429554462433,-0.1698377728462219,0.0,0.0,0.0,0,-11,,,
46,213972710,1680023523.959842,0.0,0.0,0.3812499940395355,0.5,0.0,-0.2253976613283157,-0.4455835521221161,0.0,0.0,0.0,0,-14,,,
47,214072670,1680023524.059802,0.0,0.0,0.3812499940395355,0.5,0.0,-0.2277225703001022,-0.4482131004333496,0.0,0.0,0.0,0,-16,,,
48,214172630,1680023524.159762,0.0,0.0,0.3812499940395355,0.5,0.0,-0.2414393573999405,-0.4018957316875458,0.0,0.0,0.0,0,-19,,,
49,214273423,1680023524.260555,0.0,0.0,0.3812499940395355,0.5,0.0,-0.2746488153934479,-0.4532394111156463,0.0,0.0,0.0,0,-22,,,
50,214373383,1680023524.360515,0.0,0.0,0.3812499940395355,0.5,0.0,-0.316697359085083,-0.5282952189445496,0.0,0.0,0.0,0,-25,,,
51,214473343,1680023524.4604747,0.0,0.0,0.3812499940395355,0.5,0.0,-0.3644298613071441,-0.337585300207138,0.0,0.0,0.0,0,-28,,,
52,214573303,1680023524.560435,0.0,0.0,0.3812499940395355,0.5,0.0,-0.4177257418632507,-0.4652630686759949,0.0,0.0,0.0,0,-30,,,
53,214673263,1680023524.6603951,0.0,0.0,0.3812499940395355,0.5,0.0,-0.4693375825881958,-0.3068849742412567,0.0,0.0,0.0,0,-32,,,
54,214773223,1680023524.760355,0.0,0.0,0.3812499940395355,0.5,0.0,-0.5155962705612183,-0.4396261274814605,0.0,0.0,0.0,0,-33,,,
55,214873183,1680023524.860315,0.0,0.0,0.3812499940395355,0.5,0.0,-0.5547224879264832,-0.4045180976390838,0.0,0.0,0.0,0,-33,,,
56,214973143,1680023524.9602752,0.0,0.0,0.3812499940395355,0.5,0.0,-0.5862095355987549,-0.4833203256130218,0.0,0.0,0.0,0,-33,,,
57,215073103,1680023525.060235,0.0,0.0,0.3812499940395355,0.5,0.0,-0.6129108667373657,-0.4006429314613342,0.0,0.0,0.0,0,-32,,,
58,215173063,1680023525.160195,0.0,0.0,0.3812499940395355,0.5,0.0,-0.6358174085617065,-0.4309554398059845,0.0,0.0,0.0,0,-32,,,
59,215273023,1680023525.2601547,0.0,0.0,0.3812499940395355,0.5,0.0,-0.6542116403579712,-0.4126546680927276,0.0,0.0,0.0,0,-31,,,
60,215372983,1680023525.360115,0.0,0.0,0.3812499940395355,0.5,0.0,-0.6667256355285645,-0.6091170907020569,0.0,0.0,0.0,0,-29,,,
61,215472943,1680023525.4600751,0.0,0.0,0.3812499940395355,0.5,0.0,-0.6741761565208435,-0.686008870601654,0.0,0.0,0.0,0,-28,,,
62,215572903,1680023525.5600348,0.0,0.0,0.3812499940395355,0.5,0.0,-0.682345449924469,-0.7776088118553162,0.0,0.0,0.0,0,-27,,,
63,215672863,1680023525.659995,0.0,0.0,0.3812499940395355,0.5,0.0,-0.6975669860839844,-0.8123417496681213,0.0,0.0,0.0,0,-26,,,
64,215772823,1680023525.7599552,0.0,0.0,0.3812499940395355,0.5,0.0,-0.7215244770050049,-0.6170759201049805,0.0,0.0,0.0,0,-26,,,
65,215872783,1680023525.859915,0.0,0.0,0.3812499940395355,0.5,0.0,-0.753960371017456,-0.9370300769805908,0.0,0.0,0.0,0,-27,,,
66,215972743,1680023525.959875,0.0,0.0,0.3812499940395355,0.5,0.0,-0.786044716835022,-0.9172213673591614,0.0,0.0,0.0,0,-27,,,
67,216072703,1680023526.0598347,0.0,0.0,0.3812499940395355,0.5,0.0,-0.8205385804176331,-0.6709331274032593,0.0,0.0,0.0,0,-28,,,
68,216172663,1680023526.159795,0.0,0.0,0.3812499940395355,0.5,0.0,-0.8619369268417358,-0.6410132050514221,0.0,0.0,0.0,0,-29,,,
69,216273456,1680023526.260588,0.0,0.0,0.3812499940395355,0.5,0.0,-0.9010405540466307,-0.8311994075775146,0.0,0.0,0.0,0,-30,,,
70,216373416,1680023526.360548,0.0,0.0,0.3812499940395355,0.5,0.0,-0.9274765849113464,-0.7970675230026245,0.0,0.0,0.0,0,-29,,,
71,216473376,1680023526.460508,0.0,0.0,0.3812499940395355,0.5,0.0,-0.9465160369873048,-0.9134179949760436,0.0,0.0,0.0,0,-28,,,
72,216573336,1680023526.560468,0.0,0.0,0.3812499940395355,0.5,0.0,-0.9643792510032654,-0.9533286690711976,0.0,0.0,0.0,0,-27,,,
73,216673296,1680023526.660428,0.0,0.0,0.3812499940395355,0.5,0.0,-0.981463611125946,-0.9112591743469238,0.0,0.0,0.0,0,-27,,,
74,216773256,1680023526.760388,0.0,0.0,0.3812499940395355,0.5,0.0,-1.001940369606018,-0.8871883153915405,0.0,0.0,0.0,0,-26,,,
75,216873216,1680023526.860348,0.0,0.0,0.3812499940395355,0.5,0.0,-1.0236012935638428,-1.2236443758010864,0.0,0.0,0.0,0,-26,,,
76,216973176,1680023526.960308,0.0,0.0,0.3812499940395355,0.5,0.0,-1.0430614948272705,-1.2066031694412231,0.0,0.0,0.0,0,-26,,,
77,217073136,1680023527.060268,0.0,0.0,0.3812499940395355,0.5,0.0,-1.0664523839950562,-0.9506126642227172,0.0,0.0,0.0,0,-25,,,
78,217173096,1680023527.160228,0.0,0.0,0.3812499940395355,0.5,0.0,-1.1022086143493652,-1.2110323905944824,0.0,0.0,0.0,0,-26,,,
79,217273056,1680023527.260188,0.0,0.0,0.3812499940395355,0.5,0.0,-1.1387089490890503,-1.1959422826766968,0.0,0.0,0.0,0,-27,,,
80,217373016,1680023527.360148,0.0,0.0,0.3812499940395355,0.5,0.0,-1.171336054801941,-1.0999780893325806,0.0,0.0,0.0,0,-27,,,
81,217472976,1680023527.460108,0.0,0.0,0.3812499940395355,0.5,0.0,-1.2079198360443115,-1.1400434970855713,0.0,0.0,0.0,0,-28,,,
82,217572936,1680023527.560068,0.0,0.0,0.3812499940395355,0.5,0.0,-1.242608904838562,-1.0245965719223022,0.0,0.0,0.0,0,-28,,,
83,217672896,1680023527.660028,0.0,0.0,0.3812499940395355,0.5,0.0,-1.271883249282837,-1.1504061222076416,0.0,0.0,0.0,0,-28,,,
84,217772856,1680023527.759988,0.0,0.0,0.3812499940395355,0.5,0.0,-1.2943977117538452,-1.14482581615448,0.0,0.0,0.0,0,-28,,,
85,217872816,1680023527.859948,0.0,0.0,0.3812499940395355,0.5,0.0,-1.3094853162765503,-1.2231999635696411,0.0,0.0,0.0,0,-27,,,
86,217972776,1680023527.959908,0.0,0.0,0.3812499940395355,0.5,0.0,-1.3221620321273804,-1.2071967124938965,0.0,0.0,0.0,0,-25,,,
87,218072736,1680023528.059868,0.0,0.0,0.3812499940395355,0.5,0.0,-1.333492636680603,-1.5637515783309937,0.0,0.0,0.0,0,-24,,,
88,218172696,1680023528.159828,0.0,0.0,0.3812499940395355,0.5,0.0,-1.3452119827270508,-1.533131718635559,0.0,0.0,0.0,0,-24,,,
89,218272656,1680023528.259788,0.0,0.0,0.3812499940395355,0.5,0.0,-1.3636685609817505,-1.4983865022659302,0.0,0.0,0.0,0,-23,,,
90,218373449,1680023528.3605812,0.0,0.0,0.3812499940395355,0.5,0.0,-1.3970978260040283,-1.3186993598937988,0.0,0.0,0.0,0,-24,,,
91,218473409,1680023528.460541,0.0,0.0,0.3812499940395355,0.5,0.0,-1.4378901720046997,-1.5636643171310425,0.0,0.0,0.0,0,-26,,,
92,218573369,1680023528.560501,0.0,0.0,0.3812499940395355,0.5,0.0,-1.4771636724472046,-1.302234172821045,0.0,0.0,0.0,0,-27,,,
93,218673329,1680023528.6604612,0.0,0.0,0.3812499940395355,0.5,0.0,-1.512939453125,-1.5514154434204102,0.0,0.0,0.0,0,-27,,,
94,218773289,1680023528.760421,0.0,0.0,0.3812499940395355,0.5,0.0,-1.54671049118042,-1.4941537380218506,0.0,0.0,0.0,0,-27,,,
95,218873249,1680023528.8603811,0.0,0.0,0.3812499940395355,0.5,0.0,-1.574352741241455,-1.6554710865020752,0.0,0.0,0.0,0,-27,,,
96,218973209,1680023528.9603407,0.0,0.0,0.3812499940395355,0.5,0.0,-1.6020591259002686,-1.7664114236831665,0.0,0.0,0.0,0,-27,,,
97,219073169,1680023529.060301,0.0,0.0,0.3812499940395355,0.5,0.0,-1.6313799619674685,-1.643787860870361,0.0,0.0,0.0,0,-27,,,
98,219173129,1680023529.1602612,0.0,0.0,0.3812499940395355,0.5,0.0,-1.6677926778793335,-1.573451042175293,0.0,0.0,0.0,0,-28,,,
99,219273089,1680023529.260221,0.0,0.0,0.3812499940395355,0.5,0.0,-1.706912636756897,-1.5124701261520386,0.0,0.0,0.0,0,-29,,,
100,219373049,1680023529.360181,0.0,0.0,0.3812499940395355,0.5,0.0,-1.7409584522247314,-1.7814078330993652,0.0,0.0,0.0,0,-29,,,
101,219473009,1680023529.4601412,0.0,0.0,0.3812499940395355,0.5,0.0,-1.766075849533081,-1.787262797355652,0.0,0.0,0.0,0,-28,,,
102,219572969,1680023529.560101,0.0,0.0,0.3812499940395355,0.5,0.0,-1.7893928289413452,-1.8704488277435305,0.0,0.0,0.0,0,-28,,,
103,219672929,1680023529.6600611,0.0,0.0,0.3812499940395355,0.5,0.0,-1.8170357942581177,-1.695499062538147,0.0,0.0,0.0,0,-28,,,
104,219772889,1680023529.7600207,0.0,0.0,0.3812499940395355,0.5,0.0,-1.8487815856933596,-1.6414289474487305,0.0,0.0,0.0,0,-28,,,
105,219872849,1680023529.859981,0.0,0.0,0.3812499940395355,0.5,0.0,-1.8790807723999023,-1.770313739776611,0.0,0.0,0.0,0,-28,,,
106,219972809,1680023529.9599411,0.0,0.0,0.3812499940395355,0.5,0.0,-1.900662899017334,-1.7666916847229004,0.0,0.0,0.0,0,-28,,,
107,220072769,1680023530.059901,0.0,0.0,0.3812499940395355,0.5,0.0,-1.9169671535491943,-2.0775578022003174,0.0,0.0,0.0,0,-27,,,
108,220172729,1680023530.159861,0.0,0.0,0.3812499940395355,0.5,0.0,-1.9313931465148928,-2.034492492675781,0.0,0.0,0.0,0,-26,,,
109,220272689,1680023530.2598212,0.0,0.0,0.3812499940395355,0.5,0.0,-1.9521942138671875,-1.9390182495117188,0.0,0.0,0.0,0,-26,,,
110,220372649,1680023530.359781,0.0,0.0,0.3812499940395355,0.5,0.0,-1.9832109212875368,-2.1892216205596924,0.0,0.0,0.0,0,-26,,,
111,220473442,1680023530.460574,0.0,0.0,0.3812499940395355,0.5,0.0,-2.0161900520324707,-1.9226486682891848,0.0,0.0,0.0,0,-27,,,
112,220573402,1680023530.560534,0.0,0.0,0.3812499940395355,0.5,0.0,-2.0538816452026367,-1.910040259361267,0.0,0.0,0.0,0,-28,,,
113,220673362,1680023530.660494,0.0,0.0,0.3812499940395355,0.5,0.0,-2.0919017791748047,-2.285908460617065,0.0,0.0,0.0,0,-28,,,
114,220773322,1680023530.760454,0.0,0.0,0.3812499940395355,0.5,0.0,-2.120922565460205,-2.268692970275879,0.0,0.0,0.0,0,-28,,,
115,220873282,1680023530.860414,0.0,0.0,0.3812499940395355,0.5,0.0,-2.152743101119995,-1.966877818107605,0.0,0.0,0.0,0,-28,,,
116,220973242,1680023530.960374,0.0,0.0,0.3812499940395355,0.5,0.0,-2.1935627460479736,-2.056516647338867,0.0,0.0,0.0,0,-29,,,
117,221073202,1680023531.060334,0.0,0.0,0.3812499940395355,0.5,0.0,-2.229834794998169,-2.3774492740631104,0.0,0.0,0.0,0,-29,,,
118,221173162,1680023531.160294,0.0,0.0,0.3812499940395355,0.5,0.0,-2.2559382915496826,-2.2560088634490967,0.0,0.0,0.0,0,-29,,,
119,221273122,1680023531.260254,0.0,0.0,0.3812499940395355,0.5,0.0,-2.284867525100708,-2.4285573959350586,0.0,0.0,0.0,0,-29,,,
120,221373082,1680023531.360214,0.0,0.0,0.3812499940395355,0.5,0.0,-2.3188135623931885,-2.165142297744751,0.0,0.0,0.0,0,-29,,,
121,221473042,1680023531.460174,0.0,0.0,0.3812499940395355,0.5,0.0,-2.356515407562256,-2.4007809162139893,0.0,0.0,0.0,0,-30,,,
122,221573002,1680023531.560134,0.0,0.0,0.3812499940395355,0.5,0.0,-2.392014741897583,-2.341562032699585,0.0,0.0,0.0,0,-30,,,
123,221672962,1680023531.660094,0.0,0.0,0.3812499940395355,0.5,0.0,-2.4241554737091064,-2.4271559715271,0.0,0.0,0.0,0,-30,,,
124,221772922,1680023531.760054,0.0,0.0,0.3812499940395355,0.5,0.0,-2.4565441608428955,-2.4178311824798584,0.0,0.0,0.0,0,-30,,,
125,221872882,1680023531.860014,0.0,0.0,0.3812499940395355,0.5,0.0,-2.4882147312164307,-2.3467414379119877,0.0,0.0,0.0,0,-30,,,
126,221972842,1680023531.959974,0.0,0.0,0.3812499940395355,0.5,0.0,-2.519629955291748,-2.5573227405548096,0.0,0.0,0.0,0,-30,,,
127,222072802,1680023532.059934,0.0,0.0,0.3812499940395355,0.5,0.0,-2.54687237739563,-2.658154964447021,0.0,0.0,0.0,0,-30,,,
128,222172762,1680023532.159894,0.0,0.0,0.3812499940395355,0.5,0.0,-2.5738024711608887,-2.6731085777282715,0.0,0.0,0.0,0,-30,,,
129,222272722,1680023532.259854,0.0,0.0,0.3812499940395355,0.5,0.0,-2.6073246002197266,-2.516261577606201,0.0,0.0,0.0,0,-30,,,
130,222372682,1680023532.359814,0.0,0.0,0.3812499940395355,0.5,0.0,-2.646059036254883,-2.6406500339508057,0.0,0.0,0.0,0,-31,,,
131,222472642,1680023532.459774,0.0,0.0,0.3812499940395355,0.5,0.0,-2.6845405101776123,-2.450835943222046,0.0,0.0,0.0,0,-31,,,
132,222573435,1680023532.5605671,0.0,0.0,0.3812499940395355,0.5,0.0,-2.7184412479400635,-2.57796049118042,0.0,0.0,0.0,0,-31,,,
133,222673395,1680023532.6605268,0.0,0.0,0.3812499940395355,0.5,0.0,-2.74720311164856,-2.7058184146881104,0.0,0.0,0.0,0,-31,,,
134,222773355,1680023532.760487,0.0,0.0,0.3812499940395355,0.5,0.0,-2.7669878005981445,-2.5914855003356934,0.0,0.0,0.0,0,-30,,,
135,222873315,1680023532.8604472,0.0,0.0,0.3812499940395355,0.5,0.0,-2.786027431488037,-2.811998128890991,0.0,0.0,0.0,0,-29,,,
136,222973275,1680023532.960407,0.0,0.0,0.3812499940395355,0.5,0.0,-2.8050246238708496,-2.6542813777923584,0.0,0.0,0.0,0,-29,,,
137,223073235,1680023533.060367,0.0,0.0,0.3812499940395355,0.5,0.0,-2.8233954906463623,-2.694216012954712,0.0,0.0,0.0,0,-28,,,
138,223173195,1680023533.1603267,0.0,0.0,0.3812499940395355,0.5,0.0,-2.844138860702514,-2.661908864974976,0.0,0.0,0.0,0,-28,,,
139,223273155,1680023533.260287,0.0,0.0,0.3812499940395355,0.5,0.0,-2.8609368801116943,-2.801116466522217,0.0,0.0,0.0,0,-27,,,
140,223373115,1680023533.3602471,0.0,0.0,0.3812499940395355,0.5,0.0,-2.8744375705718994,-2.810093641281128,0.0,0.0,0.0,0,-26,,,
141,223473075,1680023533.4602067,0.0,0.0,0.3812499940395355,0.5,0.0,-2.886389970779419,-2.9398441314697266,0.0,0.0,0.0,0,-25,,,
142,223573035,1680023533.560167,0.0,0.0,0.3812499940395355,0.5,0.0,-2.9009809494018555,-2.7239370346069336,0.0,0.0,0.0,0,-25,,,
143,223672995,1680023533.6601272,0.0,0.0,0.3812499940395355,0.5,0.0,-2.91947865486145,-3.1309075355529785,0.0,0.0,0.0,0,-24,,,
144,223772955,1680023533.760087,0.0,0.0,0.3812499940395355,0.5,0.0,-2.9392101764678955,-2.94291090965271,0.0,0.0,0.0,0,-24,,,
145,223872915,1680023533.860047,0.0,0.0,0.3812499940395355,0.5,0.0,-2.960463047027588,-3.037501096725464,0.0,0.0,0.0,0,-24,,,
146,223972875,1680023533.9600072,0.0,0.0,0.3812499940395355,0.5,0.0,-2.9908947944641118,-2.963250637054444,0.0,0.0,0.0,0,-24,,,
147,224072835,1680023534.059967,0.0,0.0,0.3799999952316284,0.5,0.0,-3.022122859954834,-3.108264207839966,0.0,0.0,0.0,0,-25,,,
148,224172795,1680023534.1599271,0.0,0.0,0.3799999952316284,0.5,0.0,-3.054076910018921,-2.8703575134277344,0.0,0.0,0.0,0,-26,,,
149,224272755,1680023534.2598867,0.0,0.0,0.3799999952316284,0.5,0.0,-3.0865700244903564,-2.90929651260376,0.0,0.0,0.0,0,-26,,,
150,224372715,1680023534.359847,0.0,0.0,0.3799999952316284,0.5,0.0,-3.114218235015869,-3.019848108291626,0.0,0.0,0.0,0,-26,,,
151,224472675,1680023534.4598072,0.0,0.0,0.3799999952316284,0.5,0.0,-3.132220268249512,-3.0265047550201416,0.0,0.0,0.0,0,-25,,,
152,224572635,1680023534.559767,0.0,0.0,0.3799999952316284,0.5,0.0,-3.14630126953125,-3.0266218185424805,0.0,0.0,0.0,0,-24,,,
153,224673428,1680023534.66056,0.0,0.0,0.3799999952316284,0.5,0.0,-3.1593446731567383,-3.036394596099853,0.0,0.0,0.0,0,-23,,,
154,224773388,1680023534.76052,0.0,0.0,0.3799999952316284,0.5,0.0,-3.1708595752716064,-3.2437329292297363,0.0,0.0,0.0,0,-23,,,
155,224873348,1680023534.86048,0.0,0.0,0.3799999952316284,0.5,0.0,-3.1806459426879883,-3.2245969772338867,0.0,0.0,0.0,0,-22,,,
156,224973308,1680023534.96044,0.0,0.0,0.3799999952316284,0.5,0.0,-3.1946282386779785,-3.328120708465576,0.0,0.0,0.0,0,-21,,,
157,225073268,1680023535.0604,0.0,0.0,0.3799999952316284,0.5,0.0,-3.215578556060791,-3.258599042892456,0.0,0.0,0.0,0,-21,,,
158,225173228,1680023535.16036,0.0,0.0,0.3799999952316284,0.5,0.0,-3.242627620697021,-3.433821439743042,0.0,0.0,0.0,0,-22,,,
159,225273188,1680023535.26032,0.0,0.0,0.3799999952316284,0.5,0.0,-3.2735719680786133,-3.41499400138855,0.0,0.0,0.0,0,-23,,,
160,225373148,1680023535.36028,0.0,0.0,0.3799999952316284,0.5,0.0,-3.3091132640838623,-3.2252004146575928,0.0,0.0,0.0,0,-23,,,
161,225473108,1680023535.46024,0.0,0.0,0.3799999952316284,0.5,0.0,-3.350250482559204,-3.5731916427612305,0.0,0.0,0.0,0,-25,,,
162,225573068,1680023535.5602,0.0,0.0,0.3799999952316284,0.5,0.0,-3.387561559677124,-3.4308278560638428,0.0,0.0,0.0,0,-25,,,
163,225673028,1680023535.66016,0.0,0.0,0.3799999952316284,0.5,0.0,-3.42553186416626,-3.511881828308105,0.0,0.0,0.0,0,-26,,,
164,225772988,1680023535.76012,0.0,0.0,0.3799999952316284,0.5,0.0,-3.466959238052368,-3.6997087001800537,0.0,0.0,0.0,0,-27,,,
165,225872948,1680023535.86008,0.0,0.0,0.3799999952316284,0.5,0.0,-3.507528781890869,-3.369914293289185,0.0,0.0,0.0,0,-28,,,
166,225972908,1680023535.96004,0.0,0.0,0.3799999952316284,0.5,0.0,-3.5531625747680664,-3.7748425006866455,0.0,0.0,0.0,0,-29,,,
167,226072868,1680023536.06,0.0,0.0,0.3799999952316284,0.5,0.0,-3.59570837020874,-3.635605573654175,0.0,0.0,0.0,0,-29,,,
168,226172828,1680023536.15996,0.0,0.0,0.3799999952316284,0.5,0.0,-3.637209892272949,-3.82588529586792,0.0,0.0,0.0,0,-30,,,
169,226272788,1680023536.25992,0.0,0.0,0.3799999952316284,0.5,0.0,-3.6824655532836914,-3.782202243804932,0.0,0.0,0.0,0,-31,,,
170,226372748,1680023536.35988,0.0,0.0,0.3799999952316284,0.5,0.0,-3.730020046234131,-3.5018444061279297,0.0,0.0,0.0,0,-32,,,
171,226472708,1680023536.45984,0.0,0.0,0.3799999952316284,0.5,0.0,-3.780895948410034,-3.561270236968994,0.0,0.0,0.0,0,-33,,,
172,226572668,1680023536.5598,0.0,0.0,0.3799999952316284,0.5,0.0,-3.822607517242432,-3.657816171646118,0.0,0.0,0.0,0,-33,,,
173,226672628,1680023536.65976,0.0,0.0,0.3799999952316284,0.5,0.0,-3.8503479957580566,-3.809877634048462,0.0,0.0,0.0,0,-33,,,
174,226773421,1680023536.7605531,0.0,0.0,0.3799999952316284,0.5,0.0,-3.870577335357666,-3.807871103286743,0.0,0.0,0.0,0,-32,,,
175,226873381,1680023536.8605127,0.0,0.0,0.3799999952316284,0.5,0.0,-3.890653371810913,-4.002474784851074,0.0,0.0,0.0,0,-31,,,
176,226973341,1680023536.960473,0.0,0.0,0.3799999952316284,0.5,0.0,-3.9130163192749023,-3.865422010421753,0.0,0.0,0.0,0,-30,,,
177,227073301,1680023537.0604331,0.0,0.0,0.3799999952316284,0.5,0.0,-3.940072536468506,-4.008634090423584,0.0,0.0,0.0,0,-30,,,
178,227173261,1680023537.160393,0.0,0.0,0.3799999952316284,0.5,0.0,-3.9727084636688232,-4.097922801971436,0.0,0.0,0.0,0,-30,,,
179,227273221,1680023537.260353,0.0,0.0,0.3799999952316284,0.5,0.0,-4.005881786346436,-4.131353855133057,0.0,0.0,0.0,0,-31,,,
180,227373181,1680023537.3603132,0.0,0.0,0.3799999952316284,0.5,0.0,-4.044623851776123,-4.052047729492188,0.0,0.0,0.0,0,-31,,,
181,227473141,1680023537.460273,0.0,0.0,0.3799999952316284,0.5,0.0,-4.089057922363281,-4.189754962921143,0.0,0.0,0.0,0,-32,,,
182,227573101,1680023537.560233,0.0,0.0,0.3799999952316284,0.5,0.0,-4.134788990020752,-3.893743991851807,0.0,0.0,0.0,0,-33,,,
183,227673061,1680023537.6601927,0.0,0.0,0.3799999952316284,0.5,0.0,-4.179762840270996,-3.996495246887207,0.0,0.0,0.0,0,-34,,,
184,227773021,1680023537.760153,0.0,0.0,0.3799999952316284,0.5,0.0,-4.219979286193848,-4.290498733520508,0.0,0.0,0.0,0,-34,,,
185,227872981,1680023537.8601131,0.0,0.0,0.3799999952316284,0.5,0.0,-4.247227668762207,-4.1892852783203125,0.0,0.0,0.0,0,-34,,,
186,227972941,1680023537.9600728,0.0,0.0,0.3799999952316284,0.5,0.0,-4.273274421691895,-4.063800811767578,0.0,0.0,0.0,0,-33,,,
187,228072901,1680023538.060033,0.0,0.0,0.3799999952316284,0.5,0.0,-4.304104328155518,-4.106212139129639,0.0,0.0,0.0,0,-33,,,
188,228172861,1680023538.1599932,0.0,0.0,0.3799999952316284,0.5,0.0,-4.330541610717773,-4.191468238830566,0.0,0.0,0.0,0,-32,,,
189,228272821,1680023538.259953,0.0,0.0,0.3799999952316284,0.5,0.0,-4.349289417266846,-4.283458709716797,0.0,0.0,0.0,0,-31,,,
190,228372781,1680023538.359913,0.0,0.0,0.3799999952316284,0.5,0.0,-4.364428997039795,-4.228893280029297,0.0,0.0,0.0,0,-30,,,
191,228472741,1680023538.4598727,0.0,0.0,0.3799999952316284,0.5,0.0,-4.380466461181641,-4.383336544036865,0.0,0.0,0.0,0,-29,,,
192,228572701,1680023538.559833,0.0,0.0,0.3799999952316284,0.5,0.0,-4.39769983291626,-4.141429901123047,0.0,0.0,0.0,0,-29,,,
193,228672661,1680023538.6597931,0.0,0.0,0.3799999952316284,0.5,0.0,-4.416237831115723,-4.4318060874938965,0.0,0.0,0.0,0,-28,,,
194,228773454,1680023538.760586,0.0,0.0,0.3799999952316284,0.5,0.0,-4.434280872344971,-4.446323871612549,0.0,0.0,0.0,0,-28,,,
195,228873414,1680023538.860546,0.0,0.0,0.3799999952316284,0.5,0.0,-4.449140548706055,-4.530541896820068,0.0,0.0,0.0,0,-27,,,
196,228973374,1680023538.960506,0.0,0.0,0.3799999952316284,0.5,0.0,-4.470454216003418,-4.349851131439209,0.0,0.0,0.0,0,-27,,,
197,229073334,1680023539.060466,0.0,0.0,0.3799999952316284,0.5,0.0,-4.497250556945801,-4.35569953918457,0.0,0.0,0.0,0,-27,,,
198,229173294,1680023539.160426,0.0,0.0,0.3799999952316284,0.5,0.0,-4.52541446685791,-4.533998489379883,0.0,0.0,0.0,0,-27,,,
199,229273254,1680023539.260386,0.0,0.0,0.3799999952316284,0.5,0.0,-4.547510623931885,-4.726626873016357,0.0,0.0,0.0,0,-27,,,
200,229373214,1680023539.360346,0.0,0.0,0.3799999952316284,0.5,0.0,-4.567648887634277,-4.570006847381592,0.0,0.0,0.0,0,-26,,,
201,229473174,1680023539.460306,0.0,0.0,0.3799999952316284,0.5,0.0,-4.595170021057129,-4.5931572914123535,0.0,0.0,0.0,0,-26,,,
202,229573134,1680023539.560266,0.0,0.0,0.3799999952316284,0.5,0.0,-4.629289627075195,-4.7959699630737305,0.0,0.0,0.0,0,-27,,,
203,229673094,1680023539.660226,0.0,0.0,0.3799999952316284,0.5,0.0,-4.661909103393555,-4.622818470001221,0.0,0.0,0.0,0,-27,,,
204,229773054,1680023539.760186,0.0,0.0,0.3799999952316284,0.5,0.0,-4.697123050689697,-4.722861289978027,0.0,0.0,0.0,0,-28,,,
205,229873014,1680023539.860146,0.0,0.0,0.3799999952316284,0.5,0.0,-4.735229969024658,-4.631693840026856,0.0,0.0,0.0,0,-28,,,
206,229972974,1680023539.960106,0.0,0.0,0.3799999952316284,0.5,0.0,-4.770001411437988,-4.776332378387451,0.0,0.0,0.0,0,-29,,,
207,230072934,1680023540.060066,0.0,0.0,0.3799999952316284,0.5,0.0,-4.801992893218994,-4.94193696975708,0.0,0.0,0.0,0,-29,,,
208,230172894,1680023540.160026,0.0,0.0,0.3799999952316284,0.5,0.0,-4.830378532409668,-4.679905414581299,0.0,0.0,0.0,0,-29,,,
209,230272854,1680023540.259986,0.0,0.0,0.3799999952316284,0.5,0.0,-4.862972736358643,-4.650575160980225,0.0,0.0,0.0,0,-29,,,
210,230372814,1680023540.359946,0.0,0.0,0.3799999952316284,0.5,0.0,-4.896497249603272,-4.933982372283936,0.0,0.0,0.0,0,-29,,,
211,230472774,1680023540.459906,0.0,0.0,0.3799999952316284,0.5,0.0,-4.918347358703613,-5.071178436279297,0.0,0.0,0.0,0,-28,,,
212,230572734,1680023540.559866,0.0,0.0,0.3799999952316284,0.5,0.0,-4.939239501953125,-5.044146537780762,0.0,0.0,0.0,0,-28,,,
213,230672694,1680023540.659826,0.0,0.0,0.3799999952316284,0.5,0.0,-4.96891975402832,-4.782020568847656,0.0,0.0,0.0,0,-28,,,
214,230772654,1680023540.759786,0.0,0.0,0.3799999952316284,0.5,0.0,-5.006040573120117,-5.140568733215332,0.0,0.0,0.0,0,-29,,,
215,230873447,1680023540.860579,0.0,0.0,0.3799999952316284,0.5,0.0,-5.038782596588135,-4.966952800750732,0.0,0.0,0.0,0,-29,,,
216,230973407,1680023540.960539,0.0,0.0,0.3799999952316284,0.5,0.0,-5.070344924926758,-5.189283847808838,0.0,0.0,0.0,0,-29,,,
217,231073367,1680023541.0604992,0.0,0.0,0.3799999952316284,0.5,0.0,-5.103538990020752,-5.053882122039795,0.0,0.0,0.0,0,-29,,,
218,231173327,1680023541.160459,0.0,0.0,0.3799999952316284,0.5,0.0,-5.137954711914063,-4.997838497161865,0.0,0.0,0.0,0,-30,,,
219,231273287,1680023541.2604191,0.0,0.0,0.3799999952316284,0.5,0.0,-5.173701763153076,-5.074471950531006,0.0,0.0,0.0,0,-30,,,
220,231373247,1680023541.3603787,0.0,0.0,0.3799999952316284,0.5,0.0,-5.203089714050293,-5.107678890228272,0.0,0.0,0.0,0,-30,,,
221,231473207,1680023541.460339,0.0,0.0,0.3799999952316284,0.5,0.0,-5.227313041687012,-5.054834365844727,0.0,0.0,0.0,0,-29,,,
222,231573167,1680023541.5602992,0.0,0.0,0.3799999952316284,0.5,0.0,-5.249448299407959,-5.175124645233154,0.0,0.0,0.0,0,-29,,,
223,231673127,1680023541.660259,0.0,0.0,0.3799999952316284,0.5,0.0,-5.268026828765869,-5.207956314086914,0.0,0.0,0.0,0,-28,,,
224,231773087,1680023541.760219,0.0,0.0,0.3799999952316284,0.5,0.0,-5.283724784851074,-5.396830558776856,0.0,0.0,0.0,0,-27,,,
225,231873047,1680023541.8601792,0.0,0.0,0.3799999952316284,0.5,0.0,-5.300883293151856,-5.240676403045654,0.0,0.0,0.0,0,-26,,,
226,231973007,1680023541.960139,0.0,0.0,0.3799999952316284,0.5,0.0,-5.32309103012085,-5.4906086921691895,0.0,0.0,0.0,0,-26,,,
227,232072967,1680023542.0600991,0.0,0.0,0.3799999952316284,0.5,0.0,-5.350419521331787,-5.427249431610107,0.0,0.0,0.0,0,-26,,,
228,232172927,1680023542.1600587,0.0,0.0,0.3799999952316284,0.5,0.0,-5.380334377288818,-5.268339157104492,0.0,0.0,0.0,0,-27,,,
229,232272887,1680023542.260019,0.0,0.0,0.3799999952316284,0.5,0.0,-5.417428970336914,-5.215511322021484,0.0,0.0,0.0,0,-28,,,
230,232372847,1680023542.3599792,0.0,0.0,0.3799999952316284,0.5,0.0,-5.452259063720703,-5.487491607666016,0.0,0.0,0.0,0,-28,,,
231,232472807,1680023542.459939,0.0,0.0,0.3799999952316284,0.5,0.0,-5.477483749389648,-5.571826934814453,0.0,0.0,0.0,0,-28,,,
232,232572767,1680023542.559899,0.0,0.0,0.3799999952316284,0.5,0.0,-5.498522758483887,-5.35051155090332,0.0,0.0,0.0,0,-27,,,
233,232672727,1680023542.6598592,0.0,0.0,0.3799999952316284,0.5,0.0,-5.525749683380127,-5.348945140838623,0.0,0.0,0.0,0,-27,,,
234,232772687,1680023542.759819,0.0,0.0,0.3799999952316284,0.5,0.0,-5.553781509399414,-5.683350086212158,0.0,0.0,0.0,0,-27,,,
235,232872647,1680023542.8597791,0.0,0.0,0.3787499964237213,0.5,0.0,-5.573853969573975,-5.711068630218506,0.0,0.0,0.0,0,-27,,,
236,232973440,1680023542.960572,0.0,0.0,0.3787499964237213,0.5,0.0,-5.5943284034729,-5.56483793258667,0.0,0.0,0.0,0,-26,,,
237,233073400,1680023543.060532,0.0,0.0,0.3787499964237213,0.5,0.0,-5.62515115737915,-5.4288482666015625,0.0,0.0,0.0,0,-27,,,
238,233173360,1680023543.160492,0.0,0.0,0.3787499964237213,0.5,0.0,-5.659501552581787,-5.722314834594727,0.0,0.0,0.0,0,-27,,,
239,233273320,1680023543.260452,0.0,0.0,0.3787499964237213,0.5,0.0,-5.6871724128723145,-5.646337985992432,0.0,0.0,0.0,0,-27,,,
240,233373280,1680023543.360412,0.0,0.0,0.3787499964237213,0.5,0.0,-5.710795402526856,-5.7041544914245605,0.0,0.0,0.0,0,-27,,,
241,233473240,1680023543.460372,0.0,0.0,0.3787499964237213,0.5,0.0,-5.737517833709717,-5.640827655792236,0.0,0.0,0.0,0,-27,,,
242,233573200,1680023543.560332,0.0,0.0,0.3787499964237213,0.5,0.0,-5.763793468475342,-5.844646453857422,0.0,0.0,0.0,0,-27,,,
243,233673160,1680023543.660292,0.0,0.0,0.3787499964237213,0.5,0.0,-5.788907051086426,-5.63681697845459,0.0,0.0,0.0,0,-27,,,
244,233773120,1680023543.760252,0.0,0.0,0.3787499964237213,0.5,0.0,-5.814153671264648,-5.825100898742676,0.0,0.0,0.0,0,-27,,,
245,233873080,1680023543.860212,0.0,0.0,0.3787499964237213,0.5,0.0,-5.840194225311279,-5.882808208465576,0.0,0.0,0.0,0,-26,,,
246,233973040,1680023543.960172,0.0,0.0,0.3787499964237213,0.5,0.0,-5.862657070159912,-5.996677875518799,0.0,0.0,0.0,0,-26,,,
247,234073000,1680023544.060132,0.0,0.0,0.3787499964237213,0.5,0.0,-5.8886895179748535,-6.017297267913818,0.0,0.0,0.0,0,-26,,,
248,234172960,1680023544.160092,0.0,0.0,0.3787499964237213,0.5,0.0,-5.920108795166016,-5.925125598907471,0.0,0.0,0.0,0,-27,,,
249,234272920,1680023544.260052,0.0,0.0,0.3787499964237213,0.5,0.0,-5.958008289337158,-5.814132213592529,0.0,0.0,0.0,0,-27,,,
250,234372880,1680023544.360012,0.0,0.0,0.3787499964237213,0.5,0.0,-5.997464179992676,-5.863354206085205,0.0,0.0,0.0,0,-28,,,
251,234472840,1680023544.459972,0.0,0.0,0.3787499964237213,0.5,0.0,-6.030827045440674,-6.141940593719482,0.0,0.0,0.0,0,-28,,,
252,234572800,1680023544.559932,0.0,0.0,0.3787499964237213,0.5,0.0,-6.055577278137207,-6.105467319488525,0.0,0.0,0.0,0,-28,,,
253,234672760,1680023544.659892,0.0,0.0,0.3787499964237213,0.5,0.0,-6.080260753631592,-6.090002059936523,0.0,0.0,0.0,0,-28,,,
254,234772720,1680023544.759852,0.0,0.0,0.3787499964237213,0.5,0.0,-6.111599922180176,-6.166703224182129,0.0,0.0,0.0,0,-28,,,
255,234872680,1680023544.859812,0.0,0.0,0.3787499964237213,0.5,0.0,-6.14456844329834,-5.935555934906006,0.0,0.0,0.0,0,-28,,,
256,234972640,1680023544.959772,0.0,0.0,0.3787499964237213,0.5,0.0,-6.178382396697998,-6.306089401245117,0.0,0.0,0.0,0,-28,,,
257,235073433,1680023545.0605648,0.0,0.0,0.3787499964237213,0.5,0.0,-6.207826614379883,-5.982048988342285,0.0,0.0,0.0,0,-28,,,
258,235173393,1680023545.160525,0.0,0.0,0.3787499964237213,0.5,0.0,-6.235644340515137,-6.115102291107178,0.0,0.0,0.0,0,-28,,,
259,235273353,1680023545.2604852,0.0,0.0,0.3787499964237213,0.5,0.0,-6.261542797088623,-6.31754732131958,0.0,0.0,0.0,0,-28,,,
260,235373313,1680023545.360445,0.0,0.0,0.3787499964237213,0.5,0.0,-6.280087471008301,-6.2463555335998535,0.0,0.0,0.0,0,-27,,,
261,235473273,1680023545.460405,0.0,0.0,0.3787499964237213,0.5,0.0,-6.301531791687012,-6.233885288238525,0.0,0.0,0.0,0,-27,,,
262,235573233,1680023545.5603647,0.0,0.0,0.3774999976158142,0.5,0.0,-6.326374530792236,-6.322497367858887,0.0,0.0,0.0,0,-27,,,
263,235673193,1680023545.660325,0.0,0.0,0.3625000119209289,0.5,0.0,-6.350619316101074,-6.285281658172607,0.0,0.0,0.0,0,-27,,,
264,235773153,1680023545.7602851,0.0,0.0,0.3587499856948852,0.5,0.0,-6.376469612121582,-6.327328205108643,0.0,0.0,0.0,0,-29,,,
265,235873113,1680023545.8602448,0.0,0.0,0.3574999868869781,0.5,0.0,-6.403602123260498,-6.486878395080566,0.0,0.0,0.0,0,-30,,,
266,235973073,1680023545.960205,0.0,0.0,0.3574999868869781,0.5,0.0,-6.430514335632324,-6.343603134155273,0.0,0.0,0.0,0,-30,,,
267,236073033,1680023546.0601652,0.0,0.0,0.3587499856948852,0.5,0.0,-6.461401462554932,-6.378929615020752,0.0,0.0,0.0,0,-31,,,
268,236172993,1680023546.160125,0.0,0.0,0.3600000143051147,0.5,0.0,-6.4933695793151855,-6.540720462799072,0.0,0.0,0.0,0,-31,,,
269,236272953,1680023546.260085,0.0,0.0,0.3600000143051147,0.5,0.0,-6.521710395812988,-6.590570449829102,0.0,0.0,0.0,0,-31,,,
270,236372913,1680023546.3600447,0.0,0.0,0.3600000143051147,0.5,0.0,-6.551410675048828,-6.730404853820801,0.0,0.0,0.0,0,-31,,,
271,236472873,1680023546.460005,0.0,0.0,0.3600000143051147,0.5,0.0,-6.585885047912598,-6.576389789581299,0.0,0.0,0.0,0,-31,,,
272,236572833,1680023546.5599651,0.0,0.0,0.3600000143051147,0.5,0.0,-6.627246856689453,-6.52824592590332,0.0,0.0,0.0,0,-32,,,
273,236672793,1680023546.6599247,0.0,0.0,0.3600000143051147,0.5,0.0,-6.670814037322998,-6.773526668548584,0.0,0.0,0.0,0,-32,,,
274,236772753,1680023546.759885,0.0,0.0,0.3600000143051147,0.5,0.0,-6.7086358070373535,-6.7139892578125,0.0,0.0,0.0,0,-33,,,
275,236872713,1680023546.8598452,0.0,0.0,0.3600000143051147,0.5,0.0,-6.7462077140808105,-6.92158317565918,0.0,0.0,0.0,0,-33,,,
276,236972673,1680023546.959805,0.0,0.0,0.3600000143051147,0.5,0.0,-6.785956382751465,-6.712635517120361,0.0,0.0,0.0,0,-33,,,
277,237072633,1680023547.059765,0.0,0.0,0.3600000143051147,0.5,0.0,-6.828413009643555,-6.917593955993652,0.0,0.0,0.0,0,-34,,,
278,237173426,1680023547.160558,0.0,0.0,0.3600000143051147,0.5,0.0,-6.872998237609863,-6.805747985839844,0.0,0.0,0.0,0,-34,,,
279,237273386,1680023547.260518,0.0,0.0,0.3600000143051147,0.5,0.0,-6.91456413269043,-6.776643753051758,0.0,0.0,0.0,0,-35,,,
280,237373346,1680023547.360478,0.0,0.0,0.3600000143051147,0.5,0.0,-6.956190586090088,-6.914631843566895,0.0,0.0,0.0,0,-35,,,
281,237473306,1680023547.460438,0.0,0.0,0.3600000143051147,0.5,0.0,-6.991381168365479,-6.75251579284668,0.0,0.0,0.0,0,-35,,,
282,237573266,1680023547.560398,0.0,0.0,0.3600000143051147,0.5,0.0,-7.022416591644287,-7.049561500549316,0.0,0.0,0.0,0,-35,,,
283,237673226,1680023547.660358,0.0,0.0,0.3600000143051147,0.5,0.0,-7.04910135269165,-6.862541675567627,0.0,0.0,0.0,0,-34,,,
284,237773186,1680023547.760318,0.0,0.0,0.3600000143051147,0.5,0.0,-7.072364330291748,-7.16807222366333,0.0,0.0,0.0,0,-33,,,
285,237873146,1680023547.860278,0.0,0.0,0.3600000143051147,0.5,0.0,-7.097292900085449,-7.114811897277832,0.0,0.0,0.0,0,-33,,,
286,237973106,1680023547.960238,0.0,0.0,0.3600000143051147,0.5,0.0,-7.122358322143555,-7.148630619049072,0.0,0.0,0.0,0,-32,,,
287,238073066,1680023548.060198,0.0,0.0,0.3600000143051147,0.5,0.0,-7.154887199401856,-6.975559711456299,0.0,0.0,0.0,0,-32,,,
288,238173026,1680023548.160158,0.0,0.0,0.3600000143051147,0.5,0.0,-7.189952850341797,-7.224521636962891,0.0,0.0,0.0,0,-33,,,
289,238272986,1680023548.260118,0.0,0.0,0.3600000143051147,0.5,0.0,-7.222479820251465,-7.417791843414307,0.0,0.0,0.0,0,-33,,,
290,238372946,1680023548.360078,0.0,0.0,0.3600000143051147,0.5,0.0,-7.251196384429932,-7.337119102478027,0.0,0.0,0.0,0,-32,,,
291,238472906,1680023548.460038,0.0,0.0,0.3600000143051147,0.5,0.0,-7.28774881362915,-7.297185897827148,0.0,0.0,0.0,0,-33,,,
292,238572866,1680023548.559998,0.0,0.0,0.3600000143051147,0.5,0.0,-7.332388401031494,-7.452692985534668,0.0,0.0,0.0,0,-33,,,
293,238672826,1680023548.659958,0.0,0.0,0.3600000143051147,0.5,0.0,-7.377295970916748,-7.308120250701904,0.0,0.0,0.0,0,-34,,,
294,238772786,1680023548.759918,0.0,0.0,0.3600000143051147,0.5,0.0,-7.422411918640137,-7.516430377960205,0.0,0.0,0.0,0,-35,,,
295,238872746,1680023548.859878,0.0,0.0,0.3600000143051147,0.5,0.0,-7.4673662185668945,-7.250556468963623,0.0,0.0,0.0,0,-35,,,
296,238972706,1680023548.959838,0.0,0.0,0.3600000143051147,0.5,0.0,-7.509726047515869,-7.476648807525635,0.0,0.0,0.0,0,-36,,,
297,239072666,1680023549.059798,0.0,0.0,0.3600000143051147,0.5,0.0,-7.549142360687256,-7.394240856170654,0.0,0.0,0.0,0,-36,,,
298,239172626,1680023549.159758,0.0,0.0,0.3600000143051147,0.5,0.0,-7.580606460571289,-7.593464374542236,0.0,0.0,0.0,0,-35,,,
299,239273419,1680023549.2605507,0.0,0.0,0.3600000143051147,0.5,0.0,-7.610154628753662,-7.464190006256103,0.0,0.0,0.0,0,-35,,,
300,239373379,1680023549.360511,0.0,0.0,0.3600000143051147,0.5,0.0,-7.638071060180664,-7.752724647521973,0.0,0.0,0.0,0,-34,,,
301,239473339,1680023549.4604712,0.0,0.0,0.3600000143051147,0.5,0.0,-7.666898727416992,-7.583489894866943,0.0,0.0,0.0,0,-34,,,
302,239573299,1680023549.560431,0.0,0.0,0.3600000143051147,0.5,0.0,-7.69675350189209,-7.843421459197998,0.0,0.0,0.0,0,-34,,,
303,239673259,1680023549.660391,0.0,0.0,0.3600000143051147,0.5,0.0,-7.731457710266113,-7.810770034790039,0.0,0.0,0.0,0,-34,,,
304,239773219,1680023549.7603512,0.0,0.0,0.3600000143051147,0.5,0.0,-7.769018173217773,-7.640305995941162,0.0,0.0,0.0,0,-34,,,
305,239873179,1680023549.860311,0.0,0.0,0.3600000143051147,0.5,0.0,-7.812839984893799,-7.903005599975586,0.0,0.0,0.0,0,-35,,,
306,239973139,1680023549.9602711,0.0,0.0,0.3600000143051147,0.5,0.0,-7.853349685668945,-7.870907306671143,0.0,0.0,0.0,0,-35,,,
307,240073099,1680023550.0602307,0.0,0.0,0.3600000143051147,0.5,0.0,-7.892658710479736,-7.6613569259643555,0.0,0.0,0.0,0,-35,,,
308,240173059,1680023550.160191,0.0,0.0,0.3600000143051147,0.5,0.0,-7.934711456298828,-7.981863975524902,0.0,0.0,0.0,0,-36,,,
309,240273019,1680023550.2601511,0.0,0.0,0.3600000143051147,0.5,0.0,-7.969809532165527,-7.956347465515137,0.0,0.0,0.0,0,-36,,,
310,240372979,1680023550.360111,0.0,0.0,0.3600000143051147,0.5,0.0,-8.001819610595703,-7.97214937210083,0.0,0.0,0.0,0,-35,,,
311,240472939,1680023550.460071,0.0,0.0,0.3600000143051147,0.5,0.0,-8.037151336669922,-8.072847366333008,0.0,0.0,0.0,0,-35,,,
312,240572899,1680023550.5600312,0.0,0.0,0.3600000143051147,0.5,0.0,-8.07264518737793,-7.873968601226807,0.0,0.0,0.0,0,-35,,,
313,240672859,1680023550.659991,0.0,0.0,0.3600000143051147,0.5,0.0,-8.109755516052246,-8.126112937927246,0.0,0.0,0.0,0,-35,,,
314,240772819,1680023550.759951,0.0,0.0,0.3600000143051147,0.5,0.0,-8.142995834350586,-8.177382469177246,0.0,0.0,0.0,0,-35,,,
315,240872779,1680023550.8599107,0.0,0.0,0.3600000143051147,0.5,0.0,-8.173761367797852,-7.959979057312012,0.0,0.0,0.0,0,-35,,,
316,240972739,1680023550.959871,0.0,0.0,0.3600000143051147,0.5,0.0,-8.208794593811035,-8.039019584655762,0.0,0.0,0.0,0,-35,,,
317,241072699,1680023551.0598311,0.0,0.0,0.3600000143051147,0.5,0.0,-8.240074157714844,-8.029244422912598,0.0,0.0,0.0,0,-35,,,
318,241172659,1680023551.1597908,0.0,0.0,0.3600000143051147,0.5,0.0,-8.263731956481934,-8.132034301757812,0.0,0.0,0.0,0,-34,,,
319,241273452,1680023551.260584,0.0,0.0,0.3600000143051147,0.5,0.0,-8.282119750976562,-8.321245193481445,0.0,0.0,0.0,0,-33,,,
320,241373412,1680023551.360544,0.0,0.0,0.3600000143051147,0.5,0.0,-8.297904968261719,-8.436479568481445,0.0,0.0,0.0,0,-32,,,
321,241473372,1680023551.460504,0.0,0.0,0.3600000143051147,0.5,0.0,-8.318490982055664,-8.253212928771973,0.0,0.0,0.0,0,-31,,,
322,241573332,1680023551.560464,0.0,0.0,0.3600000143051147,0.5,0.0,-8.349234580993652,-8.368870735168457,0.0,0.0,0.0,0,-31,,,
323,241673292,1680023551.660424,0.0,0.0,0.3600000143051147,0.5,0.0,-8.383408546447754,-8.357390403747559,0.0,0.0,0.0,0,-31,,,
324,241773252,1680023551.760384,0.0,0.0,0.3600000143051147,0.5,0.0,-8.417316436767578,-8.385000228881836,0.0,0.0,0.0,0,-32,,,
325,241873212,1680023551.860344,0.0,0.0,0.3600000143051147,0.5,0.0,-8.451448440551758,-8.227487564086914,0.0,0.0,0.0,0,-32,,,
326,241973172,1680023551.960304,0.0,0.0,0.3600000143051147,0.5,0.0,-8.484496116638184,-8.277920722961426,0.0,0.0,0.0,0,-32,,,
327,242073132,1680023552.060264,0.0,0.0,0.3600000143051147,0.5,0.0,-8.51116943359375,-8.438648223876953,0.0,0.0,0.0,0,-31,,,
328,242173092,1680023552.160224,0.0,0.0,0.3600000143051147,0.5,0.0,-8.529098510742188,-8.600275993347168,0.0,0.0,0.0,0,-30,,,
329,242273052,1680023552.260184,0.0,0.0,0.3600000143051147,0.5,0.0,-8.5452241897583,-8.59280776977539,0.0,0.0,0.0,0,-29,,,
330,242373012,1680023552.360144,0.0,0.0,0.3600000143051147,0.5,0.0,-8.567438125610352,-8.402297973632812,0.0,0.0,0.0,0,-29,,,
331,242472972,1680023552.460104,0.0,0.0,0.3600000143051147,0.5,0.0,-8.596508026123047,-8.703360557556152,0.0,0.0,0.0,0,-29,,,
332,242572932,1680023552.560064,0.0,0.0,0.3600000143051147,0.5,0.0,-8.623469352722168,-8.666485786437988,0.0,0.0,0.0,0,-29,,,
333,242672892,1680023552.660024,0.0,0.0,0.3600000143051147,0.5,0.0,-8.65122127532959,-8.626265525817871,0.0,0.0,0.0,0,-29,,,
334,242772852,1680023552.759984,0.0,0.0,0.3600000143051147,0.5,0.0,-8.684588432312012,-8.787965774536133,0.0,0.0,0.0,0,-29,,,
335,242872812,1680023552.859944,0.0,0.0,0.3600000143051147,0.5,0.0,-8.718064308166504,-8.70101261138916,0.0,0.0,0.0,0,-30,,,
336,242972772,1680023552.959904,0.0,0.0,0.3600000143051147,0.5,0.0,-8.753572463989258,-8.665275573730469,0.0,0.0,0.0,0,-30,,,
337,243072732,1680023553.059864,0.0,0.0,0.3600000143051147,0.5,0.0,-8.790352821350098,-9.024483680725098,0.0,0.0,0.0,0,-30,,,
338,243172692,1680023553.159824,0.0,0.0,0.3600000143051147,0.5,0.0,-8.822959899902344,-8.76008415222168,0.0,0.0,0.0,0,-30,,,
339,243272652,1680023553.259784,0.0,0.0,0.3600000143051147,0.5,0.0,-8.858450889587402,-8.798324584960938,0.0,0.0,0.0,0,-31,,,
340,243373445,1680023553.360577,0.0,0.0,0.3587499856948852,0.5,0.0,-8.899466514587402,-9.128801345825195,0.0,0.0,0.0,0,-31,,,
341,243473405,1680023553.4605367,0.0,0.0,0.3587499856948852,0.5,0.0,-8.934635162353516,-9.1478910446167,0.0,0.0,0.0,0,-32,,,
342,243573365,1680023553.560497,0.0,0.0,0.3587499856948852,0.5,0.0,-8.972404479980469,-8.947834968566895,0.0,0.0,0.0,0,-32,,,
343,243673325,1680023553.6604571,0.0,0.0,0.3587499856948852,0.5,0.0,-9.021162986755373,-9.092079162597656,0.0,0.0,0.0,0,-33,,,
344,243773285,1680023553.7604167,0.0,0.0,0.3587499856948852,0.5,0.0,-9.072060585021973,-8.899847030639648,0.0,0.0,0.0,0,-34,,,
345,243873245,1680023553.860377,0.0,0.0,0.3587499856948852,0.5,0.0,-9.11850357055664,-9.273012161254885,0.0,0.0,0.0,0,-35,,,
346,243973205,1680023553.9603372,0.0,0.0,0.3587499856948852,0.5,0.0,-9.160282135009766,-9.106895446777344,0.0,0.0,0.0,0,-35,,,
347,244073165,1680023554.060297,0.0,0.0,0.3587499856948852,0.5,0.0,-9.198335647583008,-9.064353942871094,0.0,0.0,0.0,0,-35,,,
348,244173125,1680023554.160257,0.0,0.0,0.3587499856948852,0.5,0.0,-9.240198135375977,-9.218199729919434,0.0,0.0,0.0,0,-35,,,
349,244273085,1680023554.2602172,0.0,0.0,0.3587499856948852,0.5,0.0,-9.276311874389648,-9.093714714050291,0.0,0.0,0.0,0,-35,,,
350,244373045,1680023554.360177,0.0,0.0,0.3587499856948852,0.5,0.0,-9.30846881866455,-9.24156379699707,0.0,0.0,0.0,0,-35,,,
351,244473005,1680023554.4601371,0.0,0.0,0.3587499856948852,0.5,0.0,-9.338232040405272,-9.35130214691162,0.0,0.0,0.0,0,-35,,,
352,244572965,1680023554.5600967,0.0,0.0,0.3587499856948852,0.5,0.0,-9.363654136657717,-9.187345504760742,0.0,0.0,0.0,0,-34,,,
353,244672925,1680023554.660057,0.0,0.0,0.3587499856948852,0.5,0.0,-9.391586303710938,-9.54635238647461,0.0,0.0,0.0,0,-33,,,
354,244772885,1680023554.7600172,0.0,0.0,0.3587499856948852,0.5,0.0,-9.41961669921875,-9.26108741760254,0.0,0.0,0.0,0,-33,,,
355,244872845,1680023554.859977,0.0,0.0,0.3587499856948852,0.5,0.0,-9.448599815368652,-9.37508773803711,0.0,0.0,0.0,0,-33,,,
356,244972805,1680023554.959937,0.0,0.0,0.3587499856948852,0.5,0.0,-9.482111930847168,-9.41734504699707,0.0,0.0,0.0,0,-33,,,
357,245072765,1680023555.0598972,0.0,0.0,0.3587499856948852,0.5,0.0,-9.50950813293457,-9.337392807006836,0.0,0.0,0.0,0,-33,,,
358,245172725,1680023555.159857,0.0,0.0,0.3587499856948852,0.5,0.0,-9.53687572479248,-9.468790054321287,0.0,0.0,0.0,0,-32,,,
359,245272685,1680023555.2598171,0.0,0.0,0.3587499856948852,0.5,0.0,-9.560882568359377,-9.41109561920166,0.0,0.0,0.0,0,-32,,,
360,245372645,1680023555.3597767,0.0,0.0,0.3587499856948852,0.5,0.0,-9.582691192626951,-9.639860153198242,0.0,0.0,0.0,0,-31,,,
361,245473438,1680023555.46057,0.0,0.0,0.3587499856948852,0.5,0.0,-9.6031494140625,-9.774864196777344,0.0,0.0,0.0,0,-30,,,
362,245573398,1680023555.56053,0.0,0.0,0.3587499856948852,0.5,0.0,-9.626276969909668,-9.794763565063477,0.0,0.0,0.0,0,-30,,,
363,245673358,1680023555.66049,0.0,0.0,0.3587499856948852,0.5,0.0,-9.65949821472168,-9.877620697021484,0.0,0.0,0.0,0,-30,,,
364,245773318,1680023555.76045,0.0,0.0,0.3587499856948852,0.5,0.0,-9.702237129211426,-9.865435600280762,0.0,0.0,0.0,0,-31,,,
365,245873278,1680023555.86041,0.0,0.0,0.3587499856948852,0.5,0.0,-9.753059387207031,-9.598999977111816,0.0,0.0,0.0,0,-33,,,
366,245973238,1680023555.96037,0.0,0.0,0.3587499856948852,0.5,0.0,-9.808760643005373,-9.76014518737793,0.0,0.0,0.0,0,-34,,,
367,246073198,1680023556.06033,0.0,0.0,0.3574999868869781,0.5,0.0,-9.857909202575684,-9.943129539489746,0.0,0.0,0.0,0,-35,,,
368,246173158,1680023556.16029,0.0,0.0,0.3574999868869781,0.5,0.0,-9.89788055419922,-10.076385498046877,0.0,0.0,0.0,0,-35,,,
369,246273118,1680023556.26025,0.0,0.0,0.3574999868869781,0.5,0.0,-9.93837547302246,-9.9098482131958,0.0,0.0,0.0,0,-35,,,
370,246373078,1680023556.36021,0.0,0.0,0.3574999868869781,0.5,0.0,-9.985353469848633,-10.093979835510254,0.0,0.0,0.0,0,-36,,,
371,246473038,1680023556.46017,0.0,0.0,0.3574999868869781,0.5,0.0,-10.033452033996582,-10.18000602722168,0.0,0.0,0.0,0,-37,,,
372,246572998,1680023556.56013,0.0,0.0,0.3574999868869781,0.5,0.0,-10.081153869628906,-10.133445739746094,0.0,0.0,0.0,0,-37,,,
373,246672958,1680023556.66009,0.0,0.0,0.3574999868869781,0.5,0.0,-10.1334867477417,-10.087509155273438,0.0,0.0,0.0,0,-38,,,
374,246772918,1680023556.76005,0.0,0.0,0.3574999868869781,0.5,0.0,-10.18740463256836,-10.212387084960938,0.0,0.0,0.0,0,-39,,,
375,246872878,1680023556.86001,0.0,0.0,0.3574999868869781,0.5,0.0,-10.237581253051758,-10.052884101867676,0.0,0.0,0.0,0,-40,,,
376,246972838,1680023556.95997,0.0,0.0,0.3574999868869781,0.5,0.0,-10.284981727600098,-9.978254318237305,0.0,0.0,0.0,0,-40,,,
377,247072798,1680023557.05993,0.0,0.0,0.3574999868869781,0.5,0.0,-10.326674461364746,-10.099014282226562,0.0,0.0,0.0,0,-40,,,
378,247172758,1680023557.15989,0.0,0.0,0.3574999868869781,0.5,0.0,-10.35581874847412,-10.427387237548828,0.0,0.0,0.0,0,-39,,,
379,247272718,1680023557.25985,0.0,0.0,0.3574999868869781,0.5,0.0,-10.375709533691406,-10.11155605316162,0.0,0.0,0.0,0,-38,,,
380,247372678,1680023557.35981,0.0,0.0,0.3574999868869781,0.5,0.0,-10.399691581726074,-10.478121757507324,0.0,0.0,0.0,0,-37,,,
381,247472638,1680023557.45977,0.0,0.0,0.3574999868869781,0.5,0.0,-10.424338340759276,-10.454242706298828,0.0,0.0,0.0,0,-36,,,
382,247573431,1680023557.560563,0.0,0.0,0.3537499904632568,0.5,0.0,-10.450438499450684,-10.357316970825195,0.0,0.0,0.0,0,-36,,,
383,247673391,1680023557.6605232,0.0,0.0,0.34375,0.5,0.0,-10.485045433044434,-10.394851684570312,0.0,0.0,0.0,0,-37,,,
384,247773351,1680023557.760483,0.0,0.0,0.3312500119209289,0.5,0.0,-10.521719932556152,-10.526968955993652,0.0,0.0,0.0,0,-38,,,
385,247873311,1680023557.860443,0.0,0.0,0.3149999976158142,0.5,0.0,-10.557701110839844,-10.41506576538086,0.0,0.0,0.0,0,-41,,,
386,247973271,1680023557.9604027,0.0,0.0,0.3725000023841858,0.5,0.0,-10.596343994140623,-10.64516258239746,0.0,0.0,0.0,0,-41,,,
387,248073231,1680023558.060363,0.0,0.0,0.5,0.5,0.0,-10.629383087158203,-10.410208702087402,0.0,0.0,0.0,0,-32,,,
388,248173191,1680023558.1603231,0.0,0.0,0.5,0.5,0.0,-10.654605865478516,-10.644333839416504,0.0,0.0,0.0,0,-27,,,
389,248273151,1680023558.2602828,0.0,0.0,0.5,0.5,0.0,-10.674796104431152,-10.673752784729004,0.0,0.0,0.0,0,-22,,,
390,248373111,1680023558.360243,0.0,0.0,0.5,0.5,0.0,-10.686837196350098,-10.569671630859377,0.0,0.0,0.0,0,-18,,,
391,248473071,1680023558.4602032,0.0,0.0,0.5,0.5,0.0,-10.699703216552734,-10.831551551818848,0.0,0.0,0.0,0,-16,,,
392,248573031,1680023558.560163,0.0,0.0,0.5,0.5,0.0,-10.710323333740234,-10.693029403686523,0.0,0.0,0.0,0,-14,,,
393,248672991,1680023558.660123,0.0,0.0,0.5,0.5,0.0,-10.72046184539795,-10.582716941833496,0.0,0.0,0.0,0,-12,,,
394,248772951,1680023558.7600827,0.0,0.0,0.5,0.5,0.0,-10.734667778015137,-10.629043579101562,0.0,0.0,0.0,0,-11,,,
395,248872911,1680023558.860043,0.0,0.0,0.5,0.5,0.0,-10.743741035461426,-10.726404190063477,0.0,0.0,0.0,0,-9,,,
396,248972871,1680023558.9600031,0.0,0.0,0.5,0.5,0.0,-10.745782852172852,-10.872745513916016,0.0,0.0,0.0,0,-8,,,
397,249072831,1680023559.0599627,0.0,0.0,0.5,0.5,0.0,-10.745672225952148,-10.755755424499512,0.0,0.0,0.0,0,-6,,,
398,249172791,1680023559.159923,0.0,0.0,0.5,0.5,0.0,-10.749707221984863,-10.616119384765623,0.0,0.0,0.0,0,-5,,,
399,249272751,1680023559.2598832,0.0,0.0,0.5,0.5,0.0,-10.758313179016112,-10.734752655029297,0.0,0.0,0.0,0,-5,,,
400,249372711,1680023559.359843,0.0,0.0,0.5,0.5,0.0,-10.762811660766602,-10.732817649841309,0.0,0.0,0.0,0,-4,,,
401,249472671,1680023559.459803,0.0,0.0,0.5,0.5,0.0,-10.76199722290039,-10.85768985748291,0.0,0.0,0.0,0,-3,,,
402,249572631,1680023559.5597627,0.0,0.0,0.5,0.5,0.0,-10.760786056518556,-10.733491897583008,0.0,0.0,0.0,0,-2,,,
403,249673424,1680023559.660556,0.0,0.0,0.5,0.5,0.0,-10.76148796081543,-10.612386703491213,0.0,0.0,0.0,0,-1,,,
404,249773384,1680023559.760516,0.0,0.0,0.5,0.5,0.0,-10.764622688293455,-10.574097633361816,0.0,0.0,0.0,0,-1,,,
405,249873344,1680023559.860476,0.0,0.0,0.5,0.5,0.0,-10.762528419494627,-10.821954727172852,0.0,0.0,0.0,0,0,,,
406,249973304,1680023559.960436,0.0,0.0,0.5,0.5,0.0,-10.751842498779297,-10.647841453552246,0.0,0.0,0.0,0,1,,,
407,250073264,1680023560.060396,0.0,0.0,0.5,0.5,0.0,-10.739083290100098,-10.583877563476562,0.0,0.0,0.0,0,2,,,
408,250173224,1680023560.160356,0.0,0.0,0.5,0.5,0.0,-10.729206085205078,-10.79552173614502,0.0,0.0,0.0,0,3,,,
409,250273184,1680023560.260316,0.0,0.0,0.5,0.5,0.0,-10.7144193649292,-10.748614311218262,0.0,0.0,0.0,0,4,,,
410,250373144,1680023560.360276,0.0,0.0,0.5,0.5,0.0,-10.699109077453612,-10.777263641357422,0.0,0.0,0.0,0,5,,,
411,250473104,1680023560.460236,0.0,0.0,0.5,0.5,0.0,-10.689547538757324,-10.574736595153809,0.0,0.0,0.0,0,6,,,
412,250573064,1680023560.560196,0.0,0.0,0.5,0.5,0.0,-10.683399200439451,-10.77886199951172,0.0,0.0,0.0,0,6,,,
413,250673024,1680023560.660156,0.0,0.0,0.5,0.5,0.0,-10.676457405090332,-10.840550422668455,0.0,0.0,0.0,0,7,,,
414,250772984,1680023560.760116,0.0,0.0,0.5,0.5,0.0,-10.667034149169922,-10.665379524230955,0.0,0.0,0.0,0,8,,,
415,250872944,1680023560.860076,0.0,0.0,0.5,0.5,0.0,-10.664010047912598,-10.634068489074709,0.0,0.0,0.0,0,8,,,
416,250972904,1680023560.960036,0.0,0.0,0.5,0.5,0.0,-10.66377067565918,-10.514582633972168,0.0,0.0,0.0,0,8,,,
417,251072864,1680023561.059996,0.0,0.0,0.5,0.5,0.0,-10.659255027770996,-10.74564266204834,0.0,0.0,0.0,0,8,,,
418,251172824,1680023561.159956,0.0,0.0,0.5,0.5,0.0,-10.648334503173828,-10.67616367340088,0.0,0.0,0.0,0,9,,,
419,251272784,1680023561.259916,0.0,0.0,0.5,0.5,0.0,-10.634160041809082,-10.657238960266112,0.0,0.0,0.0,0,9,,,
420,251372744,1680023561.359876,0.0,0.0,0.5,0.5,0.0,-10.62435817718506,-10.821599006652832,0.0,0.0,0.0,0,10,,,
421,251472704,1680023561.459836,0.0,0.0,0.5,0.5,0.0,-10.61506462097168,-10.679839134216309,0.0,0.0,0.0,0,10,,,
422,251572664,1680023561.559796,0.0,0.0,0.5,0.5,0.0,-10.610845565795898,-10.696259498596191,0.0,0.0,0.0,0,10,,,
423,251673457,1680023561.6605887,0.0,0.0,0.5,0.5,0.0,-10.610684394836426,-10.774723052978516,0.0,0.0,0.0,0,9,,,
424,251773417,1680023561.760549,0.0,0.0,0.5,0.5,0.0,-10.610513687133787,-10.48081111907959,0.0,0.0,0.0,0,9,,,
425,251873377,1680023561.8605092,0.0,0.0,0.5,0.5,0.0,-10.613198280334473,-10.755513191223145,0.0,0.0,0.0,0,8,,,
426,251973337,1680023561.960469,0.0,0.0,0.5,0.5,0.0,-10.61161994934082,-10.837573051452637,0.0,0.0,0.0,0,8,,,
427,252073297,1680023562.060429,0.0,0.0,0.5,0.5,0.0,-10.607501029968262,-10.754962921142578,0.0,0.0,0.0,0,8,,,
428,252173257,1680023562.1603892,0.0,0.0,0.5,0.5,0.0,-10.610939025878906,-10.655835151672363,0.0,0.0,0.0,0,8,,,
429,252273217,1680023562.260349,0.0,0.0,0.5,0.5,0.0,-10.619641304016112,-10.529105186462402,0.0,0.0,0.0,0,7,,,
430,252373177,1680023562.3603091,0.0,0.0,0.5,0.5,0.0,-10.62728786468506,-10.681599617004396,0.0,0.0,0.0,0,6,,,
431,252473137,1680023562.4602687,0.0,0.0,0.5,0.5,0.0,-10.628826141357422,-10.524880409240724,0.0,0.0,0.0,0,6,,,
432,252573097,1680023562.560229,0.0,0.0,0.5,0.5,0.0,-10.625197410583496,-10.470389366149902,0.0,0.0,0.0,0,6,,,
433,252673057,1680023562.6601892,0.0,0.0,0.5,0.5,0.0,-10.61958122253418,-10.605670928955078,0.0,0.0,0.0,0,6,,,
434,252773017,1680023562.760149,0.0,0.0,0.5,0.5,0.0,-10.606467247009276,-10.492465019226074,0.0,0.0,0.0,0,7,,,
435,252872977,1680023562.860109,0.0,0.0,0.5,0.5,0.0,-10.589757919311523,-10.487224578857422,0.0,0.0,0.0,0,7,,,
436,252972937,1680023562.9600692,0.0,0.0,0.5,0.5,0.0,-10.573033332824709,-10.551447868347168,0.0,0.0,0.0,0,8,,,
437,253072897,1680023563.060029,0.0,0.0,0.5,0.5,0.0,-10.553184509277344,-10.75272274017334,0.0,0.0,0.0,0,9,,,
438,253172857,1680023563.159989,0.0,0.0,0.5,0.5,0.0,-10.533225059509276,-10.651116371154783,0.0,0.0,0.0,0,10,,,
439,253272817,1680023563.2599487,0.0,0.0,0.5,0.5,0.0,-10.520400047302246,-10.563684463500977,0.0,0.0,0.0,0,10,,,
440,253372777,1680023563.359909,0.0,0.0,0.5,0.5,0.0,-10.517602920532228,-10.48713493347168,0.0,0.0,0.0,0,9,,,
441,253472737,1680023563.4598691,0.0,0.0,0.5,0.5,0.0,-10.517212867736816,-10.58382797241211,0.0,0.0,0.0,0,8,,,
442,253572697,1680023563.559829,0.0,0.0,0.5,0.5,0.0,-10.514455795288086,-10.328950881958008,0.0,0.0,0.0,0,8,,,
443,253672657,1680023563.659789,0.0,0.0,0.5,0.5,0.0,-10.509860038757324,-10.342105865478516,0.0,0.0,0.0,0,8,,,
444,253773450,1680023563.760582,0.0,0.0,0.5,0.5,0.0,-10.501791000366213,-10.405086517333984,0.0,0.0,0.0,0,8,,,
445,253873410,1680023563.860542,0.0,0.0,0.5,0.5,0.0,-10.483652114868164,-10.580580711364746,0.0,0.0,0.0,0,9,,,
446,253973370,1680023563.960502,0.0,0.0,0.5,0.5,0.0,-10.460824966430664,-10.462160110473633,0.0,0.0,0.0,0,10,,,
447,254073330,1680023564.060462,0.0,0.0,0.5,0.5,0.0,-10.441186904907228,-10.30616855621338,0.0,0.0,0.0,0,10,,,
448,254173290,1680023564.160422,0.0,0.0,0.5,0.5,0.0,-10.427672386169434,-10.448732376098633,0.0,0.0,0.0,0,10,,,
449,254273250,1680023564.260382,0.0,0.0,0.5,0.5,0.0,-10.412245750427246,-10.299724578857422,0.0,0.0,0.0,0,11,,,
450,254373210,1680023564.360342,0.0,0.0,0.5,0.5,0.0,-10.394330978393556,-10.503045082092283,0.0,0.0,0.0,0,11,,,
451,254473170,1680023564.460302,0.0,0.0,0.5,0.5,0.0,-10.376773834228516,-10.518539428710938,0.0,0.0,0.0,0,11,,,
452,254573130,1680023564.560262,0.0,0.0,0.5,0.5,0.0,-10.359763145446776,-10.258954048156738,0.0,0.0,0.0,0,12,,,
453,254673090,1680023564.660222,0.0,0.0,0.5,0.5,0.0,-10.35085105895996,-10.295218467712402,0.0,0.0,0.0,0,11,,,
454,254773050,1680023564.760182,0.0,0.0,0.5,0.5,0.0,-10.34314250946045,-10.560463905334473,0.0,0.0,0.0,0,11,,,
455,254873010,1680023564.860142,0.0,0.0,0.5,0.5,0.0,-10.329309463500977,-10.487768173217772,0.0,0.0,0.0,0,11,,,
456,254972970,1680023564.960102,0.0,0.0,0.5,0.5,0.0,-10.318720817565918,-10.183612823486328,0.0,0.0,0.0,0,11,,,
457,255072930,1680023565.060062,0.0,0.0,0.5,0.5,0.0,-10.317865371704102,-10.449925422668455,0.0,0.0,0.0,0,10,,,
458,255172890,1680023565.160022,0.0,0.0,0.5,0.5,0.0,-10.315335273742676,-10.328773498535156,0.0,0.0,0.0,0,10,,,
459,255272850,1680023565.259982,0.0,0.0,0.5,0.5,0.0,-10.308027267456056,-10.496975898742676,0.0,0.0,0.0,0,10,,,
460,255372810,1680023565.359942,0.0,0.0,0.5,0.5,0.0,-10.303740501403809,-10.3660888671875,0.0,0.0,0.0,0,9,,,
461,255472770,1680023565.459902,0.0,0.0,0.5,0.5,0.0,-10.301506042480469,-10.171160697937012,0.0,0.0,0.0,0,9,,,
462,255572730,1680023565.559862,0.0,0.0,0.5,0.5,0.0,-10.303718566894531,-10.43760871887207,0.0,0.0,0.0,0,8,,,
463,255672690,1680023565.659822,0.0,0.0,0.5,0.5,0.0,-10.300853729248049,-10.252617835998535,0.0,0.0,0.0,0,8,,,
464,255772650,1680023565.759782,0.0,0.0,0.5,0.5,0.0,-10.29416847229004,-10.458172798156738,0.0,0.0,0.0,0,8,,,
465,255873443,1680023565.8605747,0.0,0.0,0.5,0.5,0.0,-10.289789199829102,-10.34455680847168,0.0,0.0,0.0,0,8,,,
466,255898000,1680023565.8605747,0.0,0.0,0.5,0.5,0.0,-10.289789199829102,-10.34455680847168,0.0,0.0,0.0,0,8,-20.0,-10.28791046142578,9.617089538574218
467,255898000,1680023565.8605747,0.0,0.0,0.5,0.5,0.0,-10.289789199829102,-10.34455680847168,0.0,0.0,0.0,0,8,-20.0,-10.28791046142578,9.617089538574218
468,255973403,1680023565.960535,0.0,0.0,0.5,0.5,0.0,-10.286548614501951,-10.123284339904783,0.0,0.0,0.0,0,7,-20.0,-10.28791046142578,9.617089538574218
469,256073363,1680023566.0604951,0.0,0.0,0.5,0.5,0.0,-10.287032127380373,-10.420336723327637,0.0,9.6,0.0,0,7,-20.0,-10.28791046142578,9.617089538574218
470,256148000,1680023566.0604951,0.0,0.0,0.5,0.5,0.0,-10.287032127380373,-10.420336723327637,0.0,9.6,0.0,0,7,-20.0,-10.28411102294922,9.62088897705078
471,256148000,1680023566.0604951,0.0,0.0,0.5,0.5,0.0,-10.287032127380373,-10.420336723327637,0.0,9.6,0.0,0,7,-20.0,-10.28411102294922,9.62088897705078
472,256173323,1680023566.1604548,0.0,0.0,0.5,0.5,0.0,-10.281264305114746,-10.07622241973877,0.0,9.6,0.0,0,7,-20.0,-10.28411102294922,9.62088897705078
473,256273283,1680023566.260415,0.0,0.0,0.5,0.5,0.0,-10.274199485778809,-10.071248054504396,0.0,9.61,0.0,0,7,-20.0,-10.28411102294922,9.62088897705078
474,256373243,1680023566.3603752,0.0,0.0,0.5,0.5,0.0,-10.26438808441162,-10.332335472106934,0.0,9.61,0.0,0,7,-20.0,-10.28411102294922,9.62088897705078
475,256398000,1680023566.3603752,0.0,0.0,0.5,0.5,0.0,-10.26438808441162,-10.332335472106934,0.0,9.61,0.0,0,7,-20.0,-10.260483741760254,9.644516258239744
476,256398000,1680023566.3603752,0.0,0.0,0.5,0.5,0.0,-10.26438808441162,-10.332335472106934,0.0,9.61,0.0,0,7,-20.0,-10.260483741760254,9.644516258239744
477,256398000,1680023566.3603752,0.0,0.0,0.5,0.5,0.0,-10.26438808441162,-10.332335472106934,0.0,9.61,0.0,0,7,-20.0,-10.260483741760254,9.644516258239744
478,256473203,1680023566.460335,0.0,0.0,0.5,0.5,0.0,-10.244158744812012,-10.406814575195312,0.0,9.63,0.0,0,8,-20.0,-10.260483741760254,9.644516258239744
479,256573163,1680023566.560295,0.0,0.0,0.5,0.5,0.0,-10.224550247192385,-10.047921180725098,0.0,9.63,0.0,0,9,-20.0,-10.260483741760254,9.644516258239744
480,256648000,1680023566.560295,0.0,0.0,0.5,0.5,0.0,-10.224550247192385,-10.047921180725098,0.0,9.63,0.0,0,9,-20.0,-10.21581745147705,9.689182548522949
481,256648000,1680023566.560295,0.0,0.0,0.5,0.5,0.0,-10.224550247192385,-10.047921180725098,0.0,9.63,0.0,0,9,-20.0,-10.21581745147705,9.689182548522949
482,256673123,1680023566.6602547,0.0,0.0,0.5,0.5,0.0,-10.2146577835083,-10.332024574279783,0.0,9.63,0.0,0,9,-20.0,-10.21581745147705,9.689182548522949
483,256773083,1680023566.760215,0.0,0.0,0.5,0.5,0.0,-10.20406436920166,-10.0427885055542,0.0,9.67,0.0,0,9,-20.0,-10.21581745147705,9.689182548522949
484,256873043,1680023566.8601751,0.0,0.0,0.5,0.5,0.0,-10.19268798828125,-10.052973747253418,0.0,9.67,0.0,0,9,-20.0,-10.21581745147705,9.689182548522949
