timestamp,TimeUS,ThI,ABst,ThO,ThH,DAlt,Alt,BAlt,DSAlt,SAlt,TAlt,DCRt,CRt
1705603248.30004001,8360821,0.3571317195892334,0.0,0.20161321759223938,0.5,-0.15054145455360413,-0.06827337294816971,-0.08447305113077164,-0.01,0.0,0.0,-27,-3
1705603248.40000010,8460781,0.014323294162750244,0.0,0.11560909450054169,0.5,-0.15323033928871155,-0.07575593143701553,-0.09631696343421936,-0.01,0.0,0.0,-25,-3
1705603248.49995995,8560741,0.03375062346458435,0.0,0.04880232736468315,0.5,-0.15552110970020294,-0.08296021074056625,-0.10625478625297546,-0.01,0.0,0.0,-23,-3
1705603248.59992003,8660701,0.07384681701660156,0.0,0.05442715808749199,0.5,-0.1574726551771164,-0.09029212594032288,-0.1075422540307045,-0.01,0.0,0.0,-21,-3
1705603248.69987988,8760661,0.11690804362297058,0.0,0.08613662421703339,0.5,-0.15913526713848114,-0.09752467274665833,-0.1179918721318245,-0.01,0.0,0.0,-20,-3
1705603248.79983997,8860621,0.16055047512054443,0.0,0.1259070336818695,0.5,-0.1604200154542923,-0.10471161454916,-0.10903778672218323,-0.01,0.0,0.0,-18,-3
1705603248.89980006,8960581,0.9405718445777893,0.0,0.28243204951286316,0.5,-0.1607619673013687,-0.1133260428905487,-0.1175757348537445,-0.01,0.0,0.0,-15,-14
1705603248.99975991,9060541,0.5674838423728943,0.0,0.5044189095497131,0.5,-0.16178996860980988,-0.13157600164413452,-0.13035953044891357,-0.01,0.0,0.0,-10,-15
1705603249.09972000,9160501,0.624366044998169,0.0,0.5821753740310669,0.5,-0.16266575455665588,-0.1478191763162613,-0.15807078778743744,-0.01,0.0,0.0,-5,-12
1705603249.19968009,9260461,0.4204869866371155,0.0,0.528980553150177,0.5,-0.16469082236289978,-0.16107842326164246,-0.16548629105091095,-0.01,0.0,0.0,-5,-9
1705603249.29963994,9360421,0.2109108567237854,0.0,0.3325681686401367,0.5,-0.17444652318954468,-0.17329920828342438,-0.16373006999492645,-0.01,0.0,0.0,-16,-11
1705603249.39960003,9460381,0.2877952754497528,0.0,0.3038545846939087,0.5,-0.19663311541080475,-0.1925886869430542,-0.1823493242263794,-0.01,0.0,0.0,-29,-23
1705603249.49955988,9560341,0.2674327492713928,0.0,0.2853677570819855,0.5,-0.22999179363250732,-0.22265249490737915,-0.22207111120224,-0.01,0.0,0.0,-40,-34
1705603249.59951997,9660301,0.2521035969257355,0.0,0.26702243089675903,0.5,-0.27286818623542786,-0.2627052366733551,-0.26238998770713806,-0.01,0.0,0.0,-50,-43
1705603249.69948006,9760261,0.23586374521255493,0.0,0.2492852807044983,0.5,-0.3238529860973358,-0.31252118945121765,-0.2979583740234375,-0.01,0.0,0.0,-58,-51
1705603249.79943991,9860221,0.21966829895973206,0.0,0.23313435912132263,0.5,-0.38174551725387573,-0.3698872923851013,-0.36226561665534973,-0.01,0.0,0.0,-64,-57
1705603249.89940000,9960181,0.20681393146514893,0.0,0.2181272655725479,0.5,-0.44552314281463623,-0.43374791741371155,-0.4196779429912567,-0.01,0.0,0.0,-69,-63
1705603249.99936008,10060141,0.19496580958366394,0.0,0.20508328080177307,0.5,-0.5143140554428101,-0.5031377673149109,-0.4928666949272156,-0.01,0.0,0.0,-74,-68
1705603250.09931993,10160101,0.1861700415611267,0.0,0.19453780353069305,0.5,-0.5873762369155884,-0.5779012441635132,-0.5687930583953857,-0.01,0.0,0.0,-77,-72
1705603250.19928002,10260061,0.17946207523345947,0.0,0.18568409979343414,0.5,-0.6640770435333252,-0.6562822461128235,-0.6356863975524902,-0.01,0.0,0.0,-80,-75
1705603250.29924011,10360021,0.17332977056503296,0.0,0.17841024696826935,0.5,-0.7438777685165405,-0.7377287745475769,-0.6961910128593445,-0.01,0.0,0.0,-83,-78
1705603250.40003300,10460814,0.16501349210739136,0.0,0.1710897982120514,0.5,-0.8270163536071777,-0.8217461109161377,-0.7858235239982605,-0.01,0.0,0.0,-85,-80
1705603250.49999309,10560774,0.15758869051933289,0.0,0.1631634384393692,0.5,-0.9117251634597778,-0.9062389135360718,-0.8769339919090271,-0.01,0.0,0.0,-87,-82
1705603250.59995294,10660734,0.15266913175582886,0.0,0.15699030458927155,0.5,-0.9983479380607605,-0.9931529760360718,-0.9558426141738892,-0.01,0.0,0.0,-89,-84
1705603250.69991302,10760694,0.1485201120376587,0.0,0.15230505168437958,0.5,-1.0866014957427979,-1.0820053815841675,-1.0313568115234375,-0.01,0.0,0.0,-90,-86
1705603250.79987311,10860654,0.1447114646434784,0.0,0.14796379208564758,0.5,-1.1762443780899048,-1.1717897653579712,-1.1038991212844849,-0.01,0.0,0.0,-91,-88
1705603250.89983296,10960614,0.1386648416519165,0.0,0.14341136813163757,0.5,-1.2670708894729614,-1.2615705728530884,-1.2008315324783325,-0.01,0.0,0.0,-93,-89
1705603250.99979305,11060574,0.13297927379608154,0.0,0.13776187598705292,0.5,-1.3589050769805908,-1.3518657684326172,-1.3073763847351074,-0.01,0.0,0.0,-94,-90
1705603251.09975290,11160534,0.1304343342781067,0.0,0.133146271109581,0.5,-1.4515985250473022,-1.4439480304718018,-1.3747998476028442,-0.01,0.0,0.0,-95,-92
1705603251.19971299,11260494,0.12550166249275208,0.0,0.12976403534412384,0.5,-1.545023798942566,-1.5367003679275513,-1.4786463975906372,-0.01,0.0,0.0,-96,-93
1705603251.29967308,11360454,0.12385895848274231,0.0,0.12604573369026184,0.5,-1.6390719413757324,-1.6303223371505737,-1.5635961294174194,-0.01,0.0,0.0,-96,-94
1705603251.39963293,11460414,0.12298864126205444,0.0,0.12329757213592529,0.5,-1.7336506843566895,-1.7245515584945679,-1.6550654172897339,-0.01,0.0,0.0,-97,-94
1705603251.49959302,11560374,0.1215505301952362,0.0,0.12093018740415573,0.5,-1.8286828994750977,-1.8191356658935547,-1.7436671257019043,-0.01,0.0,0.0,-98,-95
1705603251.59955311,11660334,0.11832037568092346,0.0,0.11827026307582855,0.5,-1.924100637435913,-1.913848638534546,-1.8324744701385498,-0.01,0.0,0.0,-98,-96
1705603251.69951296,11760294,0.11123773455619812,0.0,0.11513353139162064,0.5,-2.0198464393615723,-2.0077061653137207,-1.9442689418792725,-0.01,0.0,0.0,-99,-96
1705603251.79947305,11860254,0.11101838946342468,0.0,0.11172937601804733,0.5,-2.115872383117676,-2.1033389568328857,-2.040823459625244,-0.01,0.0,0.0,-99,-97
1705603251.89943290,11960214,0.11028572916984558,0.0,0.11090852320194244,0.5,-2.21213698387146,-2.200118064880371,-2.1218791007995605,-0.01,0.0,0.0,-100,-98
1705603251.99939299,12060174,0.11059963703155518,0.0,0.11028572916984558,0.5,-2.3086044788360596,-2.2969253063201904,-2.222773551940918,-0.01,0.0,0.0,-100,-98
1705603252.09935308,12160134,0.10466879606246948,0.0,0.10873844474554062,0.5,-2.4052445888519287,-2.394507884979248,-2.329198122024536,-0.01,0.0,0.0,-99,-98
1705603252.19931293,12260094,0.1072569191455841,0.0,0.10834041982889175,0.5,-2.5020322799682617,-2.49179744720459,-2.418229341506958,-0.01,0.0,0.0,-99,-98
1705603252.29927301,12360054,0.10716673731803894,0.0,0.10801026970148087,0.5,-2.5989456176757812,-2.58929705619812,-2.520998001098633,-0.01,0.0,0.0,-99,-98
1705603252.39923310,12460014,0.1034262478351593,0.0,0.1071009710431099,0.5,-2.695965528488159,-2.6870837211608887,-2.6107900142669678,-0.01,0.0,0.0,-99,-98
1705603252.50002599,12560807,0.10876375436782837,0.0,0.10686083137989044,0.5,-2.793886661529541,-2.7855687141418457,-2.7032971382141113,-0.01,0.0,0.0,-99,-98
1705603252.59998608,12660767,0.10426855087280273,0.0,0.10586386919021606,0.5,-2.89107608795166,-2.8828084468841553,-2.810051918029785,-0.01,0.0,0.0,-99,-98
1705603252.69994593,12760727,0.10742190480232239,0.0,0.10489467531442642,0.5,-2.9883313179016113,-2.979808807373047,-2.9054951667785645,-0.01,0.0,0.0,-99,-99
1705603252.79990602,12860687,0.10300132632255554,0.0,0.10404067486524582,0.5,-3.0856430530548096,-3.07656192779541,-3.0195353031158447,-0.01,0.0,0.0,-100,-99
1705603252.89986610,12960647,0.10217764973640442,0.0,0.10296974331140518,0.5,-3.18300199508667,-3.1738994121551514,-3.1204583644866943,-0.01,0.0,0.0,-100,-99
1705603252.99982595,13060607,0.1004425585269928,0.0,0.10263751447200775,0.5,-3.280402183532715,-3.2721593379974365,-3.201202869415283,-0.01,0.0,0.0,-99,-99
1705603253.09978604,13160567,0.10358163714408875,0.0,0.10291916131973267,0.5,-3.377837896347046,-3.3703672885894775,-3.300743818283081,-0.01,0.0,0.0,-99,-99
1705603253.19974589,13260527,0.10331994295120239,0.0,0.10321415215730667,0.5,-3.4753024578094482,-3.4681618213653564,-3.3998780250549316,-0.01,0.0,0.0,-99,-99
1705603253.29970598,13360487,0.10162341594696045,0.0,0.10241629183292389,0.5,-3.5727927684783936,-3.5657429695129395,-3.495384931564331,-0.01,0.0,0.0,-99,-99
1705603253.39966607,13460447,0.10359007120132446,0.0,0.10239073634147644,0.5,-3.670304775238037,-3.6631782054901123,-3.594160556793213,-0.01,0.0,0.0,-99,-99
1705603253.49962592,13560407,0.10141140222549438,0.0,0.10137642174959183,0.5,-3.767834424972534,-3.7605538368225098,-3.7001571655273438,-0.01,0.0,0.0,-99,-99
1705603253.59958601,13660367,0.09947401285171509,0.0,0.10061010718345642,0.5,-3.8653790950775146,-3.85829758644104,-3.8080954551696777,-0.01,0.0,0.0,-99,-99
1705603253.69954610,13760327,0.10009610652923584,0.0,0.10123482346534729,0.5,-3.962937593460083,-3.9568464756011963,-3.8931689262390137,-0.01,0.0,0.0,-99,-99
1705603253.79950595,13860287,0.10133388638496399,0.0,0.10165804624557495,0.5,-4.0605082511901855,-4.054662704467773,-3.989619731903076,-0.01,0.0,0.0,-99,-99
1705603253.89946604,13960247,0.10001736879348755,0.0,0.10251520574092865,0.5,-4.1580891609191895,-4.152890205383301,-4.0877509117126465,-0.01,0.0,0.0,-99,-99
1705603253.99942589,14060207,0.10211476683616638,0.0,0.10173768550157547,0.5,-4.255676746368408,-4.250722885131836,-4.20557165145874,-0.01,0.0,0.0,-99,-98
1705603254.09938598,14160167,0.10624530911445618,0.0,0.10242047160863876,0.5,-4.353271961212158,-4.349075794219971,-4.283872127532959,-0.01,0.0,0.0,-98,-98
1705603254.19934607,14260127,0.10584154725074768,0.0,0.10341590642929077,0.5,-4.450872898101807,-4.448180198669434,-4.394071102142334,-0.01,0.0,0.0,-98,-98
1705603254.29930592,14360087,0.1056327223777771,0.0,0.10468059778213501,0.5,-4.548480033874512,-4.546313285827637,-4.499269008636475,-0.01,0.0,0.0,-98,-98
1705603254.39926600,14460047,0.10749655961990356,0.0,0.10509101301431656,0.5,-4.646087646484375,-4.644811153411865,-4.592123031616211,-0.01,0.0,0.0,-98,-98
1705603254.49922609,14560007,0.10432788729667664,0.0,0.10649190098047256,0.5,-4.743703365325928,-4.743407249450684,-4.681787967681885,-0.01,0.0,0.0,-97,-98
1705603254.60001898,14660800,0.1055365800857544,0.0,0.10689844191074371,0.5,-4.842136383056641,-4.842300891876221,-4.785147666931152,-0.01,0.0,0.0,-97,-97
1705603254.69997907,14760760,0.10534250736236572,0.0,0.10674145817756653,0.5,-4.939755916595459,-4.940094947814941,-4.883162498474121,-0.01,0.0,0.0,-97,-97
1705603254.79993892,14860720,0.10677021741867065,0.0,0.10679410398006439,0.5,-5.037375450134277,-5.03790807723999,-4.9814629554748535,-0.01,0.0,0.0,-97,-97
1705603254.89989901,14960680,0.10797184705734253,0.0,0.10739979892969131,0.5,-5.1349968910217285,-5.135751724243164,-5.0814738273620605,-0.01,0.0,0.0,-97,-97
1705603254.99985909,15060640,0.10880130529403687,0.0,0.1069856658577919,0.5,-5.23262882232666,-5.23367166519165,-5.175408840179443,-0.01,0.0,0.0,-97,-97
1705603255.09981894,15160600,0.10894793272018433,0.0,0.10831348598003387,0.5,-5.330260753631592,-5.33148717880249,-5.272867679595947,-0.01,0.0,0.0,-97,-97
1705603255.19977903,15260560,0.10983544588088989,0.0,0.1084393635392189,0.5,-5.427892684936523,-5.429064750671387,-5.383591175079346,-0.01,0.0,0.0,-97,-97
1705603255.29973888,15360520,0.10899609327316284,0.0,0.10904213041067123,0.5,-5.525524139404297,-5.527021884918213,-5.474399566650391,-0.01,0.0,0.0,-97,-97
1705603255.39969897,15460480,0.11018809676170349,0.0,0.10980318486690521,0.5,-5.6231560707092285,-5.625211238861084,-5.5678229331970215,-0.01,0.0,0.0,-97,-97
1705603255.49965906,15560440,0.11144962906837463,0.0,0.11072313785552979,0.5,-5.72078800201416,-5.723132133483887,-5.656628608703613,-0.01,0.0,0.0,-96,-97
1705603255.59961891,15660400,0.10849091410636902,0.0,0.1104198694229126,0.5,-5.818419933319092,-5.820370197296143,-5.762465953826904,-0.01,0.0,0.0,-97,-97
1705603255.69957900,15760360,0.10732594132423401,0.0,0.1089739203453064,0.5,-5.916051864624023,-5.91737174987793,-5.867878437042236,-0.01,0.0,0.0,-97,-97
1705603255.79953909,15860320,0.10985967516899109,0.0,0.10905950516462326,0.5,-6.013683319091797,-6.01483678817749,-5.961246013641357,-0.01,0.0,0.0,-97,-97
1705603255.89949894,15960280,0.1079317033290863,0.0,0.10901565849781036,0.5,-6.1113152503967285,-6.111857891082764,-6.05959415435791,-0.01,0.0,0.0,-97,-97
1705603255.99945903,16060240,0.11089128255844116,0.0,0.10960286855697632,0.5,-6.20894718170166,-6.209893226623535,-6.147886753082275,-0.01,0.0,0.0,-97,-97
1705603256.09941912,16160200,0.11150816082954407,0.0,0.11051113903522491,0.5,-6.306579113006592,-6.307645320892334,-6.242086410522461,-0.01,0.0,0.0,-97,-97
1705603256.19937897,16260160,0.1054212749004364,0.0,0.1098853126168251,0.5,-6.404211044311523,-6.404816627502441,-6.356381416320801,-0.01,0.0,0.0,-97,-97
1705603256.29933906,16360120,0.10893192887306213,0.0,0.11012286692857742,0.5,-6.501842498779297,-6.503130912780762,-6.440117359161377,-0.01,0.0,0.0,-97,-97
1705603256.39929891,16460080,0.10831236839294434,0.0,0.10937909781932831,0.5,-6.5994744300842285,-6.600560665130615,-6.533994674682617,-0.01,0.0,0.0,-97,-97
1705603256.49925900,16560040,0.11009356379508972,0.0,0.10917359590530396,0.5,-6.69710636138916,-6.697635173797607,-6.643611907958984,-0.01,0.0,0.0,-97,-97
1705603256.59921908,16660000,0.10915133357048035,0.0,0.10914306342601776,0.5,-6.794738292694092,-6.795088768005371,-6.738289833068848,-0.01,0.0,0.0,-97,-97
1705603256.70001197,16760793,0.10668641328811646,0.0,0.10870716720819473,0.5,-6.893183708190918,-6.893703460693359,-6.833405017852783,-0.01,0.0,0.0,-97,-97
1705603256.79997206,16860753,0.11191189289093018,0.0,0.10878812521696091,0.5,-6.99081563949585,-6.991653919219971,-6.930788516998291,-0.01,0.0,0.0,-97,-97
1705603256.89993191,16960713,0.11037641763687134,0.0,0.10999340564012527,0.5,-7.088447093963623,-7.089628219604492,-7.017524719238281,-0.01,0.0,0.0,-97,-97
1705603256.99989200,17060673,0.10907354950904846,0.0,0.109705850481987,0.5,-7.186079025268555,-7.187019348144531,-7.1090474128723145,-0.01,0.0,0.0,-97,-97
1705603257.09985209,17160633,0.11133721470832825,0.0,0.10875226557254791,0.5,-7.283710956573486,-7.283627033233643,-7.2266621589660645,-0.01,0.0,0.0,-97,-97
1705603257.19981194,17260593,0.10826325416564941,0.0,0.10817518830299377,0.5,-7.381342887878418,-7.3806915283203125,-7.3167195320129395,-0.01,0.0,0.0,-97,-97
1705603257.29977202,17360553,0.10824427008628845,0.0,0.1075889840722084,0.5,-7.47897481918335,-7.477747440338135,-7.413198947906494,-0.01,0.0,0.0,-98,-97
1705603257.39973211,17460513,0.10439038276672363,0.0,0.10654814541339874,0.5,-7.576606273651123,-7.574520111083984,-7.514726638793945,-0.01,0.0,0.0,-98,-97
1705603257.49969196,17560473,0.10294613242149353,0.0,0.10534685850143433,0.5,-7.674238204956055,-7.671375751495361,-7.6116862297058105,-0.01,0.0,0.0,-98,-98
1705603257.59965205,17660433,0.10083365440368652,0.0,0.1038496121764183,0.5,-7.771870136260986,-7.7684760093688965,-7.699623107910156,-0.01,0.0,0.0,-98,-98
1705603257.69961190,17760393,0.10372722148895264,0.0,0.10296986997127533,0.5,-7.869502067565918,-7.8654375076293945,-7.80769681930542,-0.01,0.0,0.0,-98,-98
1705603257.79957199,17860353,0.10431674122810364,0.0,0.10255243629217148,0.5,-7.96713399887085,-7.962592601776123,-7.903621673583984,-0.01,0.0,0.0,-99,-98
1705603257.89953208,17960313,0.10011178255081177,0.0,0.10135192424058914,0.5,-8.064765930175781,-8.06010913848877,-7.990933418273926,-0.01,0.0,0.0,-99,-98
1705603257.99949193,18060273,0.10057133436203003,0.0,0.10015800595283508,0.5,-8.162397384643555,-8.156643867492676,-8.103160858154297,-0.01,0.0,0.0,-99,-98
1705603258.09945202,18160233,0.024767518043518066,0.0,0.026719842106103897,0.5,-8.255147933959961,-8.159396171569824,-8.19497013092041,-0.01,0.0,0.0,-126,-112
1705603258.19941211,18260193,-0.007560610771179199,0.0,0.02808673493564129,0.5,-8.340575218200684,-8.274580955505371,-8.336893081665039,-0.01,0.0,0.0,-117,-117
1705603258.29937196,18360153,0.05382049083709717,0.0,0.04286732152104378,0.5,-8.438207626342773,-8.391561508178711,-8.437049865722656,-0.01,0.0,0.0,-111,-114
1705603258.39933205,18460113,0.09127441048622131,0.0,0.06450863927602768,0.5,-8.535839080810547,-8.506389617919922,-8.544078826904297,-0.01,0.0,0.0,-106,-110
1705603258.49929190,18560073,0.09684517979621887,0.0,0.08081239461898804,0.5,-8.633471488952637,-8.615784645080566,-8.661096572875977,-0.01,0.0,0.0,-102,-106
1705603258.59925199,18660033,0.09673288464546204,0.0,0.09067092835903168,0.5,-8.73110294342041,-8.721525192260742,-8.767154693603516,-0.01,0.0,0.0,-100,-103
1705603258.70004511,18760826,0.09916946291923523,0.0,0.09684298187494278,0.5,-8.829547882080078,-8.825496673583984,-8.879712104797363,-0.01,0.0,0.0,-98,-101
1705603258.80000496,18860786,0.1037013828754425,0.0,0.10097090154886246,0.5,-8.927180290222168,-8.927042007446289,-8.975560188293457,-0.01,0.0,0.0,-97,-100
1705603258.89996505,18960746,0.10814180970191956,0.0,0.10502241551876068,0.5,-9.024811744689941,-9.027485847473145,-9.070183753967285,-0.01,0.0,0.0,-96,-99
1705603258.99992490,19060706,0.11031755805015564,0.0,0.10785981267690659,0.5,-9.122444152832031,-9.1267671585083,-9.168931007385254,-0.01,0.0,0.0,-96,-98
1705603259.09988499,19160666,0.10764509439468384,0.0,0.10909605771303177,0.5,-9.220075607299805,-9.225049018859863,-9.267234802246094,-0.01,0.0,0.0,-96,-97
1705603259.19984508,19260626,0.11194896697998047,0.0,0.11030424386262894,0.5,-9.317707061767578,-9.322675704956055,-9.371256828308105,-0.01,0.0,0.0,-96,-97
1705603259.29980493,19360586,0.10859709978103638,0.0,0.11062238365411758,0.5,-9.415339469909668,-9.42013931274414,-9.455490112304688,-0.01,0.0,0.0,-96,-97
1705603259.39976501,19460546,0.10883811116218567,0.0,0.10987036675214767,0.5,-9.512970924377441,-9.51710033416748,-9.557785987854004,-0.01,0.0,0.0,-96,-97
1705603259.49972510,19560506,0.1101275384426117,0.0,0.1093553751707077,0.5,-9.610603332519531,-9.613739013671875,-9.665230751037598,-0.01,0.0,0.0,-96,-97
1705603259.59968495,19660466,0.10921940207481384,0.0,0.10924425721168518,0.5,-9.708234786987305,-9.71081829071045,-9.760101318359375,-0.01,0.0,0.0,-96,-97
1705603259.69964504,19760426,0.10622787475585938,0.0,0.10869067907333374,0.5,-9.805866241455078,-9.808378219604492,-9.848241806030273,-0.01,0.0,0.0,-96,-97
1705603259.79960489,19860386,0.10767364501953125,0.0,0.10870405286550522,0.5,-9.903498649597168,-9.905805587768555,-9.94572639465332,-0.01,0.0,0.0,-96,-97
1705603259.89956498,19960346,0.11165440082550049,0.0,0.1087627112865448,0.5,-10.001130104064941,-10.00291919708252,-10.053398132324219,-0.01,0.0,0.0,-97,-97
1705603259.99952507,20060306,0.1097707748413086,0.0,0.10886087268590927,0.5,-10.098762512207031,-10.09947681427002,-10.131861686706543,-0.01,0.0,0.0,-97,-97
1705603260.09948492,20160266,0.10575014352798462,0.0,0.10772024095058441,0.5,-10.196393966674805,-10.196553230285645,-10.245153427124023,-0.01,0.0,0.0,-97,-97
1705603260.19944501,20260226,0.10676753520965576,0.0,0.10654520988464355,0.5,-10.294039726257324,-10.293749809265137,-10.345972061157227,-0.01,0.0,0.0,-97,-97
1705603260.29940510,20360186,0.10722368955612183,0.0,0.1073053851723671,0.5,-10.391695976257324,-10.391563415527344,-10.430949211120605,-0.01,0.0,0.0,-97,-97
1705603260.39936495,20460146,0.1665184497833252,0.0,0.11937122792005539,0.5,-10.489265441894531,-10.48927116394043,-10.540544509887695,-0.01,0.0,0.0,-97,-97
1705603260.49932504,20560106,0.23768144845962524,0.0,0.17631028592586517,0.5,-10.583422660827637,-10.584664344787598,-10.623428344726562,-0.01,0.0,0.0,-89,-90
1705603260.59928489,20660066,0.26259732246398926,0.0,0.2324264943599701,0.5,-10.66698932647705,-10.669174194335938,-10.711118698120117,-0.01,0.0,0.0,-76,-78
1705603260.69924498,20760026,0.30383995175361633,0.0,0.2732005715370178,0.5,-10.738234519958496,-10.742143630981445,-10.788384437561035,-0.01,0.0,0.0,-64,-68
1705603260.80003810,20860819,0.3395407199859619,0.0,0.3107078969478607,0.5,-10.799398422241211,-10.805678367614746,-10.842023849487305,-0.01,0.0,0.0,-54,-59
1705603260.89999795,20960779,0.36860013008117676,0.0,0.34385770559310913,0.5,-10.851038932800293,-10.859407424926758,-10.904227256774902,-0.01,0.0,0.0,-45,-51
1705603260.99995804,21060739,0.39399415254592896,0.0,0.37246987223625183,0.5,-10.895030975341797,-10.905083656311035,-10.942859649658203,-0.01,0.0,0.0,-37,-44
1705603261.09991789,21160699,0.41446658968925476,0.0,0.39698219299316406,0.5,-10.932507514953613,-10.943361282348633,-10.99428653717041,-0.01,0.0,0.0,-31,-38
1705603261.19987798,21260659,0.4311484694480896,0.0,0.41660287976264954,0.5,-10.964435577392578,-10.975622177124023,-11.017285346984863,-0.01,0.0,0.0,-26,-33
1705603261.29983807,21360619,0.44340258836746216,0.0,0.4326498210430145,0.5,-10.99163818359375,-11.002323150634766,-11.045601844787598,-0.01,0.0,0.0,-21,-28
1705603261.39979792,21460579,0.450398325920105,0.0,0.4437370300292969,0.5,-11.014810562133789,-11.024131774902344,-11.090353012084961,-0.01,0.0,0.0,-18,-24
1705603261.49975801,21560539,0.4567514955997467,0.0,0.45095527172088623,0.5,-11.034555435180664,-11.042831420898438,-11.11497688293457,-0.01,0.0,0.0,-15,-21
1705603261.59971809,21660499,0.46676620841026306,0.0,0.45918968319892883,0.5,-11.051377296447754,-11.05929946899414,-11.118151664733887,-0.01,0.0,0.0,-13,-18
1705603261.69967794,21760459,0.47326794266700745,0.0,0.46827659010887146,0.5,-11.065704345703125,-11.07303237915039,-11.150985717773438,-0.01,0.0,0.0,-11,-16
1705603261.79963803,21860419,0.4688107669353485,0.0,0.4686236083507538,0.5,-11.07790756225586,-11.084731101989746,-11.166491508483887,-0.01,0.0,0.0,-9,-13
1705603261.89959788,21960379,0.47022750973701477,0.0,0.46927809715270996,0.5,-11.088305473327637,-11.094822883605957,-11.18344497680664,-0.01,0.0,0.0,-7,-11
1705603261.99955797,22060339,0.47394442558288574,0.0,0.471443772315979,0.5,-11.09716510772705,-11.103717803955078,-11.181366920471191,-0.01,0.0,0.0,-6,-10
1705603262.09951806,22160299,0.4768390655517578,0.0,0.4747825860977173,0.5,-11.104711532592773,-11.110896110534668,-11.203627586364746,-0.01,0.0,0.0,-5,-8
1705603262.19947791,22260259,0.4767957329750061,0.0,0.4762151837348938,0.5,-11.111144065856934,-11.117158889770508,-11.198624610900879,-0.01,0.0,0.0,-4,-7
1705603262.29943800,22360219,0.4748779833316803,0.0,0.4763486683368683,0.5,-11.116621017456055,-11.1220703125,-11.221034049987793,-0.01,0.0,0.0,-3,-6
1705603262.39939809,22460179,0.46993300318717957,0.0,0.4731297194957733,0.5,-11.121288299560547,-11.126348495483398,-11.222902297973633,-0.01,0.0,0.0,-2,-4
1705603262.49935794,22560139,0.46475642919540405,0.0,0.4687863886356354,0.5,-11.125263214111328,-11.13005256652832,-11.233192443847656,-0.01,0.0,0.0,-2,-3
1705603262.59931803,22660099,0.46389737725257874,0.0,0.46764540672302246,0.5,-11.128650665283203,-11.133377075195312,-11.244965553283691,-0.01,0.0,0.0,-1,-3
1705603262.69927812,22760059,0.4652321934700012,0.0,0.46748918294906616,0.5,-11.131538391113281,-11.136829376220703,-11.239789009094238,-0.01,0.0,0.0,-1,-2
1705603262.79923797,22860019,0.46786773204803467,0.0,0.4684332311153412,0.5,-11.133996963500977,-11.139835357666016,-11.256714820861816,-0.01,0.0,0.0,0,-2
1705603262.90003109,22960812,0.46773576736450195,0.0,0.4677543640136719,0.5,-11.1361083984375,-11.14276123046875,-11.253570556640625,-0.01,0.0,0.0,0,-1
1705603262.99999094,23060772,0.4688146114349365,0.0,0.46835795044898987,0.5,-11.137890815734863,-11.145312309265137,-11.24038028717041,-0.01,0.0,0.0,0,0
1705603263.09995103,23160732,0.4670157730579376,0.0,0.46775633096694946,0.5,-11.139408111572266,-11.146674156188965,-11.25571060180664,-0.01,0.0,0.0,0,0
1705603263.19991088,23260692,0.46630388498306274,0.0,0.46671485900878906,0.5,-11.140700340270996,-11.147415161132812,-11.249735832214355,-0.01,0.0,0.0,0,0
1705603263.29987097,23360652,0.463623583316803,0.0,0.4654628038406372,0.5,-11.141801834106445,-11.147855758666992,-11.249034881591797,-0.01,0.0,0.0,0,0
1705603263.39983106,23460612,0.4597969055175781,0.0,0.4626368284225464,0.5,-11.142740249633789,-11.147883415222168,-11.260623931884766,-0.01,0.0,0.0,0,0
1705603263.49979091,23560572,0.45769092440605164,0.0,0.4593496024608612,0.5,-11.143538475036621,-11.148072242736816,-11.249713897705078,-0.01,0.0,0.0,0,0
1705603263.59975100,23660532,0.45826148986816406,0.0,0.4585837125778198,0.5,-11.144220352172852,-11.1482515335083,-11.248899459838867,-0.01,0.0,0.0,0,0
1705603263.69971108,23760492,0.45718222856521606,0.0,0.4580167531967163,0.5,-11.144800186157227,-11.14818000793457,-11.264242172241211,-0.01,0.0,0.0,0,0
1705603263.79967093,23860452,0.45806288719177246,0.0,0.4574410617351532,0.5,-11.145297050476074,-11.148548126220703,-11.27083969116211,-0.01,0.0,0.0,0,0
1705603263.89963102,23960412,0.46456223726272583,0.0,0.4602172076702118,0.5,-11.145715713500977,-11.14982795715332,-11.266826629638672,-0.01,0.0,0.0,0,0
1705603263.99959111,24060372,0.4737381935119629,0.0,0.4671357572078705,0.5,-11.146075248718262,-11.151626586914062,-11.27363395690918,-0.01,0.0,0.0,1,0
1705603264.09955096,24160332,0.4712061285972595,0.0,0.4695388972759247,0.5,-11.146380424499512,-11.153562545776367,-11.261536598205566,-0.01,0.0,0.0,1,0
1705603264.19951105,24260292,0.4719679355621338,0.0,0.4714338779449463,0.5,-11.146639823913574,-11.154837608337402,-11.269083976745605,-0.01,0.0,0.0,2,1
1705603264.29947090,24360252,0.4663795828819275,0.0,0.46971794962882996,0.5,-11.146862030029297,-11.155423164367676,-11.268070220947266,-0.01,0.0,0.0,2,1
1705603264.39943099,24460212,0.46737104654312134,0.0,0.4667007625102997,0.5,-11.147056579589844,-11.155515670776367,-11.260283470153809,-0.01,0.0,0.0,2,1
1705603264.49939108,24560172,0.4635551869869232,0.0,0.46573594212532043,0.5,-11.147209167480469,-11.155096054077148,-11.2614164352417,-0.01,0.0,0.0,2,2
1705603264.59935093,24660132,0.4582626223564148,0.0,0.4619353413581848,0.5,-11.147356033325195,-11.154228210449219,-11.268284797668457,-0.01,0.0,0.0,1,2
1705603264.69931102,24760092,0.45502129197120667,0.0,0.4575726091861725,0.5,-11.147464752197266,-11.153488159179688,-11.27230167388916,-0.01,0.0,0.0,1,2
1705603264.79927111,24860052,0.45662471652030945,0.0,0.45610326528549194,0.5,-11.147562026977539,-11.153318405151367,-11.260087013244629,-0.01,0.0,0.0,1,1
1705603264.89923096,24960012,0.46018296480178833,0.0,0.4580813944339752,0.5,-11.147660255432129,-11.153289794921875,-11.259933471679688,-0.01,0.0,0.0,1,1
1705603265.00002408,25060805,0.4609275758266449,0.0,0.459948867559433,0.5,-11.147729873657227,-11.153107643127441,-11.259387016296387,-0.01,0.0,0.0,1,1
1705603265.09998393,25160765,0.46079331636428833,0.0,0.46063780784606934,0.5,-11.147778511047363,-11.152824401855469,-11.278315544128418,-0.01,0.0,0.0,1,1
1705603265.19994402,25260725,0.46291643381118774,0.0,0.4610951542854309,0.5,-11.1478271484375,-11.15322208404541,-11.265763282775879,-0.01,0.0,0.0,1,1
1705603265.29990411,25360685,0.4686964154243469,0.0,0.46493443846702576,0.5,-11.147875785827637,-11.154010772705078,-11.264164924621582,-0.01,0.0,0.0,1,1
1705603265.39986396,25460645,0.4654955565929413,0.0,0.4670734703540802,0.5,-11.147924423217773,-11.154607772827148,-11.26754379272461,-0.01,0.0,0.0,1,1
1705603265.49982405,25560605,0.46920615434646606,0.0,0.4668051600456238,0.5,-11.147974014282227,-11.155160903930664,-11.26638126373291,-0.01,0.0,0.0,2,1
1705603265.59978390,25660565,0.46783575415611267,0.0,0.4667145311832428,0.5,-11.148022651672363,-11.155279159545898,-11.25814151763916,-0.01,0.0,0.0,2,1
1705603265.69974399,25760525,0.4653436839580536,0.0,0.4666421413421631,0.5,-11.148035049438477,-11.15488338470459,-11.25650405883789,-0.01,0.0,0.0,2,1
1705603265.79970407,25860485,0.46009403467178345,0.0,0.46364864706993103,0.5,-11.148035049438477,-11.153971672058105,-11.25517749786377,-0.01,0.0,0.0,1,1
1705603265.89966393,25960445,0.4544123113155365,0.0,0.4586608111858368,0.5,-11.148035049438477,-11.152710914611816,-11.250594139099121,-0.01,0.0,0.0,1,1
1705603265.99962401,26060405,0.44954633712768555,0.0,0.4535403549671173,0.5,-11.148035049438477,-11.151189804077148,-11.255449295043945,-0.01,0.0,0.0,0,1
1705603266.09958410,26160365,0.44800126552581787,0.0,0.449707955121994,0.5,-11.148035049438477,-11.149937629699707,-11.252368927001953,-0.01,0.0,0.0,0,1
1705603266.19954395,26260325,0.45015090703964233,0.0,0.4492349326610565,0.5,-11.148035049438477,-11.149102210998535,-11.240614891052246,-0.01,0.0,0.0,0,0
1705603266.29950404,26360285,0.4516211450099945,0.0,0.4504784941673279,0.5,-11.148035049438477,-11.148194313049316,-11.257298469543457,-0.01,0.0,0.0,0,0
1705603266.39946389,26460245,0.4535207450389862,0.0,0.451515793800354,0.5,-11.148035049438477,-11.14795970916748,-11.250349998474121,-0.01,0.0,0.0,0,0
1705603266.49942398,26560205,0.45880433917045593,0.0,0.45514345169067383,0.5,-11.148035049438477,-11.148212432861328,-11.249578475952148,-0.01,0.0,0.0,0,0
1705603266.59938407,26660165,0.4630810618400574,0.0,0.45966842770576477,0.5,-11.148035049438477,-11.148653030395508,-11.250388145446777,-0.01,0.0,0.0,0,0
1705603266.69934392,26760125,0.4659142792224884,0.0,0.46326860785484314,0.5,-11.148035049438477,-11.149152755737305,-11.243895530700684,-0.01,0.0,0.0,0,0
1705603266.79930401,26860085,0.4658590853214264,0.0,0.465349406003952,0.5,-11.148035049438477,-11.149285316467285,-11.245142936706543,-0.01,0.0,0.0,0,0
1705603266.89926410,26960045,0.46264132857322693,0.0,0.464633971452713,0.5,-11.148035049438477,-11.14903736114502,-11.257473945617676,-0.01,0.0,0.0,0,0
1705603266.99922395,27060005,0.46082210540771484,0.0,0.46215325593948364,0.5,-11.148035049438477,-11.149088859558105,-11.23917007446289,-0.01,0.0,0.0,0,0
1705603267.10001707,27160798,0.459764301776886,0.0,0.46109575033187866,0.5,-11.148035049438477,-11.148694038391113,-11.25438404083252,-0.01,0.0,0.0,0,0
1705603267.19997692,27260758,0.45776087045669556,0.0,0.4589283764362335,0.5,-11.148035049438477,-11.148477554321289,-11.24311637878418,-0.01,0.0,0.0,0,0
1705603267.29993701,27360718,0.4570900797843933,0.0,0.4580910801887512,0.5,-11.148035049438477,-11.148137092590332,-11.244353294372559,-0.01,0.0,0.0,0,0
1705603267.39989710,27460678,0.45601123571395874,0.0,0.45716235041618347,0.5,-11.148035049438477,-11.147671699523926,-11.254093170166016,-0.01,0.0,0.0,0,0
1705603267.49985695,27560638,0.4575745463371277,0.0,0.4566526412963867,0.5,-11.148035049438477,-11.147664070129395,-11.253975868225098,-0.01,0.0,0.0,0,0
1705603267.59981704,27660598,0.4614872932434082,0.0,0.4586399495601654,0.5,-11.148035049438477,-11.148164749145508,-11.247454643249512,-0.01,0.0,0.0,0,0
1705603267.69977689,27760558,0.4650413990020752,0.0,0.4623723030090332,0.5,-11.148035049438477,-11.14867877960205,-11.242850303649902,-0.01,0.0,0.0,0,0
1705603267.79973698,27860518,0.4650022089481354,0.0,0.46455228328704834,0.5,-11.148035049438477,-11.148783683776855,-11.251177787780762,-0.01,0.0,0.0,0,0
1705603267.89969707,27960478,0.4630727469921112,0.0,0.46389588713645935,0.5,-11.148035049438477,-11.14882755279541,-11.242430686950684,-0.01,0.0,0.0,0,0
1705603267.99965692,28060438,0.46063151955604553,0.0,0.46243518590927124,0.5,-11.148035049438477,-11.148513793945312,-11.240324020385742,-0.01,0.0,0.0,0,0
1705603268.09961700,28160398,0.4557607173919678,0.0,0.4593210220336914,0.5,-11.148035049438477,-11.147748947143555,-11.256192207336426,-0.01,0.0,0.0,0,0
1705603268.19957709,28260358,0.45461276173591614,0.0,0.45582154393196106,0.5,-11.148035049438477,-11.147467613220215,-11.247003555297852,-0.01,0.0,0.0,0,0
1705603268.29953694,28360318,0.45700597763061523,0.0,0.45605695247650146,0.5,-11.148035049438477,-11.14745807647705,-11.245765686035156,-0.01,0.0,0.0,0,0
1705603268.39949703,28460278,0.45930784940719604,0.0,0.45781147480010986,0.5,-11.148035049438477,-11.147504806518555,-11.250577926635742,-0.01,0.0,0.0,0,0
1705603268.49945688,28560238,0.4612357020378113,0.0,0.4596950113773346,0.5,-11.148035049438477,-11.147789001464844,-11.25304126739502,-0.01,0.0,0.0,0,0
1705603268.59941697,28660198,0.4643864333629608,0.0,0.4619337022304535,0.5,-11.148035049438477,-11.148368835449219,-11.242371559143066,-0.01,0.0,0.0,0,0
1705603268.69937706,28760158,0.4653816223144531,0.0,0.46433746814727783,0.5,-11.148035049438477,-11.148613929748535,-11.24850082397461,-0.01,0.0,0.0,0,0
1705603268.79933691,28860118,0.4635007977485657,0.0,0.46422675251960754,0.5,-11.148035049438477,-11.148656845092773,-11.254889488220215,-0.01,0.0,0.0,0,0
1705603268.89929700,28960078,0.4629089832305908,0.0,0.46332085132598877,0.5,-11.148035049438477,-11.148895263671875,-11.248337745666504,-0.01,0.0,0.0,0,0
1705603268.99925709,29060038,0.46333011984825134,0.0,0.4634656608104706,0.5,-11.148035049438477,-11.149044036865234,-11.251776695251465,-0.01,0.0,0.0,0,0
1705603269.09921694,29159998,0.4626326560974121,0.0,0.46306249499320984,0.5,-11.148035049438477,-11.149134635925293,-11.25193977355957,-0.01,0.0,0.0,0,0
1705603269.20001006,29260791,0.4624837636947632,0.0,0.46267345547676086,0.5,-11.148035049438477,-11.149236679077148,-11.25610065460205,-0.01,0.0,0.0,0,0
1705603269.29996991,29360751,0.46361321210861206,0.0,0.46282437443733215,0.5,-11.148035049438477,-11.149505615234375,-11.24783706665039,-0.01,0.0,0.0,0,0
1705603269.39993000,29460711,0.46372219920158386,0.0,0.46354928612709045,0.5,-11.148035049438477,-11.149628639221191,-11.254009246826172,-0.01,0.0,0.0,0,0
1705603269.49989009,29560671,0.4627223014831543,0.0,0.46315038204193115,0.5,-11.148035049438477,-11.149664878845215,-11.244538307189941,-0.01,0.0,0.0,0,0
1705603269.59984994,29660631,0.46115565299987793,0.0,0.4624587297439575,0.5,-11.148035049438477,-11.14939022064209,-11.246807098388672,-0.01,0.0,0.0,0,0
1705603269.69981003,29760591,0.4574911296367645,0.0,0.4599487781524658,0.5,-11.148035049438477,-11.14880084991455,-11.247936248779297,-0.01,0.0,0.0,0,0
1705603269.79977012,29860551,0.454683780670166,0.0,0.4569752812385559,0.5,-11.148035049438477,-11.14816951751709,-11.245138168334961,-0.01,0.0,0.0,0,0
1705603269.89972997,29960511,0.45373305678367615,0.0,0.45495307445526123,0.5,-11.148035049438477,-11.14755630493164,-11.24002456665039,-0.01,0.0,0.0,0,0
1705603269.99969006,30060471,0.452830046415329,0.0,0.4538038372993469,0.5,-11.148035049438477,-11.146835327148438,-11.245999336242676,-0.01,0.0,0.0,0,0
1705603270.09964991,30160431,0.4529264569282532,0.0,0.45284003019332886,0.5,-11.148035049438477,-11.1462984085083,-11.238221168518066,-0.01,0.0,0.0,0,0
1705603270.19960999,30260391,0.4535268247127533,0.0,0.45323652029037476,0.5,-11.148035049438477,-11.145845413208008,-11.239731788635254,-0.01,0.0,0.0,0,0
1705603270.29957008,30360351,0.4533863663673401,0.0,0.4533185660839081,0.5,-11.148035049438477,-11.14542007446289,-11.243745803833008,-0.01,0.0,0.0,0,0
1705603270.39952993,30460311,0.45496511459350586,0.0,0.4538678228855133,0.5,-11.148035049438477,-11.145277976989746,-11.235614776611328,-0.01,0.0,0.0,0,0
1705603270.49949002,30560271,0.45665332674980164,0.0,0.45555514097213745,0.5,-11.148035049438477,-11.145156860351562,-11.238201141357422,-0.01,0.0,0.0,0,0
1705603270.59945011,30660231,0.4564482867717743,0.0,0.4562366008758545,0.5,-11.148035049438477,-11.144993782043457,-11.253918647766113,-0.01,0.0,0.0,0,0
1705603270.69940996,30760191,0.4595232605934143,0.0,0.4572029709815979,0.5,-11.148035049438477,-11.14547348022461,-11.242046356201172,-0.01,0.0,0.0,0,0
1705603270.79937005,30860151,0.4643678367137909,0.0,0.4609954357147217,0.5,-11.148035049438477,-11.14625072479248,-11.245287895202637,-0.01,0.0,0.0,0,0
1705603270.89932990,30960111,0.4669370949268341,0.0,0.46460679173469543,0.5,-11.148035049438477,-11.146986961364746,-11.25369930267334,-0.01,0.0,0.0,0,0
1705603270.99928999,31060071,0.4668513834476471,0.0,0.466971755027771,0.5,-11.148035049438477,-11.14791202545166,-11.256112098693848,-0.01,0.0,0.0,0,0
1705603271.09925008,31160031,0.4675164222717285,0.0,0.46794959902763367,0.5,-11.148035049438477,-11.149018287658691,-11.243278503417969,-0.01,0.0,0.0,0,0
1705603271.20004296,31260824,0.46202394366264343,0.0,0.4671657085418701,0.5,-11.148035049438477,-11.149550437927246,-11.239986419677734,-0.01,0.0,0.0,0,0
1705603271.30000305,31360784,0.4633432626724243,0.0,0.4658859074115753,0.5,-11.148035049438477,-11.149088859558105,-11.250843048095703,-0.01,0.0,0.0,0,0
1705603271.39996290,31460744,0.45748287439346313,0.0,0.46130895614624023,0.5,-11.148035049438477,-11.148504257202148,-11.246609687805176,-0.01,0.0,0.0,0,0
1705603271.49992299,31560704,0.4545659124851227,0.0,0.4572271406650543,0.5,-11.148035049438477,-11.1478853225708,-11.25589370727539,-0.01,0.0,0.0,0,0
1705603271.59988308,31660664,0.4549632668495178,0.0,0.45519882440567017,0.5,-11.148035049438477,-11.147754669189453,-11.247034072875977,-0.01,0.0,0.0,0,0
1705603271.69984293,31760624,0.4585644006729126,0.0,0.4564523696899414,0.5,-11.148035049438477,-11.147797584533691,-11.24086856842041,-0.01,0.0,0.0,0,0
1705603271.79980302,31860584,0.4586751461029053,0.0,0.45823362469673157,0.5,-11.148035049438477,-11.14758014678955,-11.245760917663574,-0.01,0.0,0.0,0,0
1705603271.89976311,31960544,0.4577351212501526,0.0,0.45816150307655334,0.5,-11.148035049438477,-11.147308349609375,-11.245928764343262,-0.01,0.0,0.0,0,0
1705603271.99972296,32060504,0.457429438829422,0.0,0.45764702558517456,0.5,-11.148035049438477,-11.14710521697998,-11.2571439743042,-0.01,0.0,0.0,0,0
1705603272.09968305,32160464,0.4597841501235962,0.0,0.45798271894454956,0.5,-11.148035049438477,-11.1475191116333,-11.24661922454834,-0.01,0.0,0.0,0,0
1705603272.19964290,32260424,0.4636038839817047,0.0,0.46105384826660156,0.5,-11.148035049438477,-11.148029327392578,-11.247862815856934,-0.01,0.0,0.0,0,0
1705603272.29960299,32360384,0.46499329805374146,0.0,0.46368011832237244,0.5,-11.148035049438477,-11.148426055908203,-11.247443199157715,-0.01,0.0,0.0,0,0
1705603272.39956307,32460344,0.4645082354545593,0.0,0.4646211564540863,0.5,-11.148035049438477,-11.148638725280762,-11.251832962036133,-0.01,0.0,0.0,0,0
1705603272.49952292,32560304,0.46385806798934937,0.0,0.464259535074234,0.5,-11.148035049438477,-11.148839950561523,-11.2557373046875,-0.01,0.0,0.0,0,0
1705603272.59948301,32660264,0.46415209770202637,0.0,0.46391454339027405,0.5,-11.148035049438477,-11.149231910705566,-11.254595756530762,-0.01,0.0,0.0,0,0
1705603272.69944310,32760224,0.4660090506076813,0.0,0.46468427777290344,0.5,-11.148035049438477,-11.149715423583984,-11.25553035736084,-0.01,0.0,0.0,0,0
1705603272.79940295,32860184,0.4675028324127197,0.0,0.4660779535770416,0.5,-11.148035049438477,-11.150224685668945,-11.2495698928833,-0.01,0.0,0.0,0,0
1705603272.89936304,32960144,0.46640700101852417,0.0,0.4663083851337433,0.5,-11.148035049438477,-11.150379180908203,-11.245760917663574,-0.01,0.0,0.0,0,0
1705603272.99932289,33060104,0.4625304639339447,0.0,0.46502619981765747,0.5,-11.148035049438477,-11.149967193603516,-11.255644798278809,-0.01,0.0,0.0,0,0
1705603273.09928298,33160064,0.45864972472190857,0.0,0.4614049792289734,0.5,-11.148035049438477,-11.149576187133789,-11.240439414978027,-0.01,0.0,0.0,0,0
1705603273.19924307,33260024,0.45518818497657776,0.0,0.45819416642189026,0.5,-11.148035049438477,-11.148714065551758,-11.251009941101074,-0.01,0.0,0.0,0,0
1705603273.30003595,33360817,0.45199400186538696,0.0,0.45453277230262756,0.5,-11.148035049438477,-11.147931098937988,-11.248924255371094,-0.01,0.0,0.0,0,0
1705603273.39999604,33460777,0.45281782746315,0.0,0.4529156982898712,0.5,-11.148035049438477,-11.147439002990723,-11.244253158569336,-0.01,0.0,0.0,0,0
1705603273.49995589,33560737,0.45449188351631165,0.0,0.4535645544528961,0.5,-11.148035049438477,-11.14708137512207,-11.252939224243164,-0.01,0.0,0.0,0,0
1705603273.59991598,33660697,0.4569128155708313,0.0,0.45504993200302124,0.5,-11.148035049438477,-11.147153854370117,-11.246767044067383,-0.01,0.0,0.0,0,0
1705603273.69987607,33760657,0.4609806537628174,0.0,0.4581945240497589,0.5,-11.148035049438477,-11.147497177124023,-11.243735313415527,-0.01,0.0,0.0,0,0
1705603273.79983592,33860617,0.4628737270832062,0.0,0.46112945675849915,0.5,-11.148035049438477,-11.147723197937012,-11.241573333740234,-0.01,0.0,0.0,0,0
1705603273.89979601,33960577,0.46144625544548035,0.0,0.46192634105682373,0.5,-11.148035049438477,-11.147636413574219,-11.240591049194336,-0.01,0.0,0.0,0,0
1705603273.99975610,34060537,0.4582977294921875,0.0,0.4603348672389984,0.5,-11.148035049438477,-11.147201538085938,-11.256671905517578,-0.01,0.0,0.0,0,0
1705603274.09971595,34160497,0.45721912384033203,0.0,0.4578804671764374,0.5,-11.148035049438477,-11.147170066833496,-11.256363868713379,-0.01,0.0,0.0,0,0
1705603274.19967604,34260457,0.46195393800735474,0.0,0.45887845754623413,0.5,-11.148035049438477,-11.147811889648438,-11.244132041931152,-0.01,0.0,0.0,0,0
1705603274.29963589,34360417,0.4659637212753296,0.0,0.4629880487918854,0.5,-11.148035049438477,-11.148419380187988,-11.242573738098145,-0.01,0.0,0.0,0,0
1705603274.39959598,34460377,0.46561405062675476,0.0,0.4651671350002289,0.5,-11.148035049438477,-11.148552894592285,-11.241512298583984,-0.01,0.0,0.0,0,0
1705603274.49955606,34560337,0.4612217843532562,0.0,0.4638211131095886,0.5,-11.148035049438477,-11.148178100585938,-11.239482879638672,-0.01,0.0,0.0,0,0
1705603274.59951591,34660297,0.45534422993659973,0.0,0.4596801996231079,0.5,-11.148035049438477,-11.147344589233398,-11.244348526000977,-0.01,0.0,0.0,0,0
1705603274.69947600,34760257,0.4510876536369324,0.0,0.45468249917030334,0.5,-11.148035049438477,-11.146442413330078,-11.248517990112305,-0.01,0.0,0.0,0,0
1705603274.79943609,34860217,0.4515996277332306,0.0,0.45198842883110046,0.5,-11.148035049438477,-11.145966529846191,-11.250992774963379,-0.01,0.0,0.0,0,0
1705603274.89939594,34960177,0.45578107237815857,0.0,0.45324981212615967,0.5,-11.148035049438477,-11.14614486694336,-11.25776195526123,-0.01,0.0,0.0,0,0
1705603274.99935603,35060137,0.4632072150707245,0.0,0.45794516801834106,0.5,-11.148035049438477,-11.147150993347168,-11.252158164978027,-0.01,0.0,0.0,0,0
1705603275.09931588,35160097,0.47115641832351685,0.0,0.46511468291282654,0.5,-11.148035049438477,-11.148534774780273,-11.266945838928223,-0.01,0.0,0.0,0,0
1705603275.19927597,35260057,0.4689338207244873,0.0,0.4685629904270172,0.5,-11.148035049438477,-11.150321006774902,-11.260613441467285,-0.01,0.0,0.0,0,0
1705603275.29923606,35360017,0.47146257758140564,0.0,0.46998775005340576,0.5,-11.148035049438477,-11.151952743530273,-11.26498031616211,-0.01,0.0,0.0,1,0
1705603275.40002894,35460810,0.471420556306839,0.0,0.4710405170917511,0.5,-11.148035049438477,-11.15322208404541,-11.267400741577148,-0.01,0.0,0.0,1,0
1705603275.49998903,35560770,0.469814270734787,0.0,0.4706932008266449,0.5,-11.148035049438477,-11.154189109802246,-11.254372596740723,-0.01,0.0,0.0,1,1
1705603275.59994888,35660730,0.46626052260398865,0.0,0.4692101776599884,0.5,-11.148035049438477,-11.154306411743164,-11.248621940612793,-0.01,0.0,0.0,1,1
1705603275.69990897,35760690,0.46153920888900757,0.0,0.4647881090641022,0.5,-11.148035049438477,-11.15330696105957,-11.24516773223877,-0.01,0.0,0.0,1,1
1705603275.79986906,35860650,0.45147988200187683,0.0,0.45847198367118835,0.5,-11.148035049438477,-11.151460647583008,-11.245434761047363,-0.01,0.0,0.0,1,1
1705603275.89982891,35960610,0.4431335926055908,0.0,0.4498556852340698,0.5,-11.148035049438477,-11.149250030517578,-11.247689247131348,-0.01,0.0,0.0,0,1
1705603275.99978900,36060570,0.4409528076648712,0.0,0.44373902678489685,0.5,-11.148035049438477,-11.147321701049805,-11.250609397888184,-0.01,0.0,0.0,0,1
1705603276.09974909,36160530,0.4448031485080719,0.0,0.44300055503845215,0.5,-11.148035049438477,-11.146232604980469,-11.2433443069458,-0.01,0.0,0.0,0,0
1705603276.19970894,36260490,0.45061102509498596,0.0,0.4466765522956848,0.5,-11.148035049438477,-11.145822525024414,-11.243745803833008,-0.01,0.0,0.0,0,0
1705603276.29966903,36360450,0.4556903839111328,0.0,0.45159459114074707,0.5,-11.148035049438477,-11.145845413208008,-11.24420166015625,-0.01,0.0,0.0,0,0
1705603276.39962912,36460410,0.4599710702896118,0.0,0.4562574326992035,0.5,-11.148035049438477,-11.1461763381958,-11.23656940460205,-0.01,0.0,0.0,0,0
1705603276.49958897,36560370,0.4620080292224884,0.0,0.4600087106227875,0.5,-11.148035049438477,-11.146354675292969,-11.243913650512695,-0.01,0.0,0.0,0,0
1705603276.59954906,36660330,0.4613785743713379,0.0,0.4611188769340515,0.5,-11.148035049438477,-11.14645767211914,-11.246698379516602,-0.01,0.0,0.0,0,0
1705603276.69950891,36760290,0.46165522933006287,0.0,0.4613828659057617,0.5,-11.148035049438477,-11.146708488464355,-11.24801254272461,-0.01,0.0,0.0,0,0
1705603276.79946899,36860250,0.4635568857192993,0.0,0.462245374917984,0.5,-11.148035049438477,-11.147143363952637,-11.251235008239746,-0.01,0.0,0.0,0,0
1705603276.89942908,36960210,0.46634572744369507,0.0,0.46413159370422363,0.5,-11.148035049438477,-11.147797584533691,-11.24864387512207,-0.01,0.0,0.0,0,0
1705603276.99938893,37060170,0.4681098759174347,0.0,0.4664939045906067,0.5,-11.148035049438477,-11.148468971252441,-11.247899055480957,-0.01,0.0,0.0,0,0
1705603277.09934902,37160130,0.4654388427734375,0.0,0.46652868390083313,0.5,-11.148035049438477,-11.148900985717773,-11.254085540771484,-0.01,0.0,0.0,0,0
1705603277.19930911,37260090,0.4662742018699646,0.0,0.46680039167404175,0.5,-11.148035049438477,-11.149310111999512,-11.248000144958496,-0.01,0.0,0.0,0,0
1705603277.29926896,37360050,0.46592390537261963,0.0,0.46645089983940125,0.5,-11.148035049438477,-11.149459838867188,-11.257180213928223,-0.01,0.0,0.0,0,0
1705603277.39922905,37460010,0.46506646275520325,0.0,0.4654850363731384,0.5,-11.148035049438477,-11.149724960327148,-11.239720344543457,-0.01,0.0,0.0,0,0
1705603277.50002193,37560803,0.4623899757862091,0.0,0.4644644856452942,0.5,-11.148035049438477,-11.1493501663208,-11.239775657653809,-0.01,0.0,0.0,0,0
1705603277.59998202,37660763,0.4556414484977722,0.0,0.4604503810405731,0.5,-11.148035049438477,-11.148294448852539,-11.230982780456543,-0.01,0.0,0.0,0,0
1705603277.69994211,37760723,0.4472522735595703,0.0,0.45368248224258423,0.5,-11.148035049438477,-11.146471977233887,-11.245990753173828,-0.01,0.0,0.0,0,0
1705603277.79990196,37860683,0.44298675656318665,0.0,0.4467100501060486,0.5,-11.148035049438477,-11.144972801208496,-11.239824295043945,-0.01,0.0,0.0,0,0
1705603277.89986205,37960643,0.4456014037132263,0.0,0.44491568207740784,0.5,-11.148035049438477,-11.144021034240723,-11.238006591796875,-0.01,0.0,0.0,-1,0
1705603277.99982190,38060603,0.4494689106941223,0.0,0.4469302296638489,0.5,-11.148035049438477,-11.14356517791748,-11.24630355834961,-0.01,0.0,0.0,-1,0
1705603278.09978199,38160563,0.4552291929721832,0.0,0.45096611976623535,0.5,-11.148035049438477,-11.143899917602539,-11.232107162475586,-0.01,0.0,0.0,-1,-1
1705603278.19974208,38260523,0.46034806966781616,0.0,0.4565492570400238,0.5,-11.148035049438477,-11.144353866577148,-11.242615699768066,-0.01,0.0,0.0,-1,-1
1705603278.29970193,38360483,0.4622620642185211,0.0,0.46003881096839905,0.5,-11.148035049438477,-11.144867897033691,-11.257320404052734,-0.01,0.0,0.0,0,-1
1705603278.39966202,38460443,0.4667823314666748,0.0,0.4630851447582245,0.5,-11.148035049438477,-11.146093368530273,-11.254941940307617,-0.01,0.0,0.0,0,-1
1705603278.49962211,38560403,0.47007277607917786,0.0,0.4678537845611572,0.5,-11.148035049438477,-11.14786148071289,-11.254638671875,-0.01,0.0,0.0,0,-1
1705603278.59958196,38660363,0.4692409634590149,0.0,0.4690134823322296,0.5,-11.148035049438477,-11.149497032165527,-11.248924255371094,-0.01,0.0,0.0,0,0
1705603278.69954205,38760323,0.4694531261920929,0.0,0.4688129723072052,0.5,-11.148035049438477,-11.150419235229492,-11.245083808898926,-0.01,0.0,0.0,0,0
1705603278.79950190,38860283,0.4637562930583954,0.0,0.4670152962207794,0.5,-11.148035049438477,-11.150416374206543,-11.251826286315918,-0.01,0.0,0.0,0,0
1705603278.89946198,38960243,0.4614892601966858,0.0,0.46440988779067993,0.5,-11.148035049438477,-11.149982452392578,-11.243577003479004,-0.01,0.0,0.0,0,0
1705603278.99942207,39060203,0.4567125141620636,0.0,0.4604288339614868,0.5,-11.148035049438477,-11.14916706085205,-11.248907089233398,-0.01,0.0,0.0,0,0
1705603279.09938192,39160163,0.4520965814590454,0.0,0.4556788504123688,0.5,-11.148035049438477,-11.148233413696289,-11.242838859558105,-0.01,0.0,0.0,0,0
1705603279.19934201,39260123,0.4506552517414093,0.0,0.4525696039199829,0.5,-11.148035049438477,-11.147286415100098,-11.254254341125488,-0.01,0.0,0.0,0,0
1705603279.29930210,39360083,0.4516642987728119,0.0,0.4511893093585968,0.5,-11.148035049438477,-11.146860122680664,-11.255939483642578,-0.01,0.0,0.0,0,0
1705603279.39926195,39460043,0.45772695541381836,0.0,0.45388445258140564,0.5,-11.148035049438477,-11.147269248962402,-11.247544288635254,-0.01,0.0,0.0,0,0
1705603279.49922204,39560003,0.46399831771850586,0.0,0.45940101146698,0.5,-11.148035049438477,-11.14797592163086,-11.254982948303223,-0.01,0.0,0.0,0,0
1705603279.60001493,39660796,0.4685068726539612,0.0,0.46454405784606934,0.5,-11.148035049438477,-11.148870468139648,-11.247215270996094,-0.01,0.0,0.0,0,0
1705603279.69997501,39760756,0.4688674509525299,0.0,0.46684712171554565,0.5,-11.148035049438477,-11.149532318115234,-11.239184379577637,-0.01,0.0,0.0,0,0
1705603279.79993510,39860716,0.46568575501441956,0.0,0.4669143557548523,0.5,-11.148035049438477,-11.149348258972168,-11.25497055053711,-0.01,0.0,0.0,0,0
1705603279.89989495,39960676,0.4603551924228668,0.0,0.4634954035282135,0.5,-11.148035049438477,-11.14901065826416,-11.239521026611328,-0.01,0.0,0.0,0,0
1705603279.99985504,40060636,0.4568899869918823,0.0,0.459990918636322,0.5,-11.148035049438477,-11.148343086242676,-11.25766372680664,-0.01,0.0,0.0,0,0
1705603280.09981489,40160596,0.45473647117614746,0.0,0.45634955167770386,0.5,-11.148035049438477,-11.147931098937988,-11.2406005859375,-0.01,0.0,0.0,0,0
1705603280.19977498,40260556,0.4554004669189453,0.0,0.45557737350463867,0.5,-11.148035049438477,-11.147550582885742,-11.25768756866455,-0.01,0.0,0.0,0,0
1705603280.29973507,40360516,0.457145094871521,0.0,0.4559299945831299,0.5,-11.148035049438477,-11.147595405578613,-11.250810623168945,-0.01,0.0,0.0,0,0
1705603280.39969492,40460476,0.4619240462779999,0.0,0.4587097465991974,0.5,-11.148035049438477,-11.148073196411133,-11.242288589477539,-0.01,0.0,0.0,0,0
1705603280.49965501,40560436,0.46402260661125183,0.0,0.4621627926826477,0.5,-11.148035049438477,-11.14832878112793,-11.244750022888184,-0.01,0.0,0.0,0,0
1705603280.59961510,40660396,0.4622958302497864,0.0,0.4629467725753784,0.5,-11.148035049438477,-11.14824104309082,-11.249656677246094,-0.01,0.0,0.0,0,0
1705603280.69957495,40760356,0.4601472318172455,0.0,0.46155062317848206,0.5,-11.148035049438477,-11.148117065429688,-11.245264053344727,-0.01,0.0,0.0,0,0
1705603280.79953504,40860316,0.45904210209846497,0.0,0.4601811170578003,0.5,-11.148035049438477,-11.14791202545166,-11.251794815063477,-0.01,0.0,0.0,0,0
1705603280.89949489,40960276,0.45881518721580505,0.0,0.45915651321411133,0.5,-11.148035049438477,-11.147855758666992,-11.257576942443848,-0.01,0.0,0.0,0,0
1705603280.99945498,41060236,0.46153882145881653,0.0,0.4597029983997345,0.5,-11.148035049438477,-11.14830207824707,-11.243083000183105,-0.01,0.0,0.0,0,0
1705603281.09941506,41160196,0.4643571972846985,0.0,0.46250447630882263,0.5,-11.148035049438477,-11.148637771606445,-11.25737476348877,-0.01,0.0,0.0,0,0
1705603281.19937491,41260156,0.46510374546051025,0.0,0.4638732969760895,0.5,-11.148035049438477,-11.149062156677246,-11.251169204711914,-0.01,0.0,0.0,0,0
1705603281.29933500,41360116,0.4667596220970154,0.0,0.46548759937286377,0.5,-11.148035049438477,-11.149532318115234,-11.244844436645508,-0.01,0.0,0.0,0,0
1705603281.39929509,41460076,0.46511489152908325,0.0,0.4655616879463196,0.5,-11.148035049438477,-11.149540901184082,-11.250333786010742,-0.01,0.0,0.0,0,0
1705603281.49925494,41560036,0.4616411328315735,0.0,0.4636682868003845,0.5,-11.148035049438477,-11.149271965026855,-11.243963241577148,-0.01,0.0,0.0,0,0
1705603281.59921503,41659996,0.45778393745422363,0.0,0.4606584906578064,0.5,-11.148035049438477,-11.148690223693848,-11.251100540161133,-0.01,0.0,0.0,0,0
1705603281.70000792,41760789,0.4550097584724426,0.0,0.45716267824172974,0.5,-11.148035049438477,-11.14810848236084,-11.243481636047363,-0.01,0.0,0.0,0,0
1705603281.79996800,41860749,0.45410147309303284,0.0,0.4552176594734192,0.5,-11.148035049438477,-11.147504806518555,-11.24998950958252,-0.01,0.0,0.0,0,0
1705603281.89992809,41960709,0.4542371332645416,0.0,0.4542389512062073,0.5,-11.148035049438477,-11.147174835205078,-11.240888595581055,-0.01,0.0,0.0,0,0
1705603281.99988794,42060669,0.4555051922798157,0.0,0.455003023147583,0.5,-11.148035049438477,-11.146821022033691,-11.240703582763672,-0.01,0.0,0.0,0,0
1705603282.09984803,42160629,0.45526123046875,0.0,0.4554256796836853,0.5,-11.148035049438477,-11.14637279510498,-11.251714706420898,-0.01,0.0,0.0,0,0
1705603282.19980788,42260589,0.45673176646232605,0.0,0.4557631015777588,0.5,-11.148035049438477,-11.14643383026123,-11.244538307189941,-0.01,0.0,0.0,0,0
1705603282.29976797,42360549,0.4600176513195038,0.0,0.4578615725040436,0.5,-11.148035049438477,-11.146699905395508,-11.246820449829102,-0.01,0.0,0.0,0,0
1705603282.39972806,42460509,0.46238183975219727,0.0,0.4604017436504364,0.5,-11.148035049438477,-11.147088050842285,-11.243861198425293,-0.01,0.0,0.0,0,0
1705603282.49968791,42560469,0.4632628858089447,0.0,0.46237608790397644,0.5,-11.148035049438477,-11.14737319946289,-11.245777130126953,-0.01,0.0,0.0,0,0
1705603282.59964800,42660429,0.4631199538707733,0.0,0.46306145191192627,0.5,-11.148035049438477,-11.147550582885742,-11.25661563873291,-0.01,0.0,0.0,0,0
1705603282.69960809,42760389,0.4643540382385254,0.0,0.4632790982723236,0.5,-11.148035049438477,-11.14812183380127,-11.239396095275879,-0.01,0.0,0.0,0,0
1705603282.79956794,42860349,0.4648784399032593,0.0,0.46462202072143555,0.5,-11.148035049438477,-11.14826774597168,-11.250536918640137,-0.01,0.0,0.0,0,0
1705603282.89952803,42960309,0.4627862572669983,0.0,0.4637778103351593,0.5,-11.148035049438477,-11.148307800292969,-11.258340835571289,-0.01,0.0,0.0,0,0
1705603282.99948812,43060269,0.46368879079818726,0.0,0.46308642625808716,0.5,-11.148035049438477,-11.14876651763916,-11.240854263305664,-0.01,0.0,0.0,0,0
1705603283.09944797,43160229,0.4636945426464081,0.0,0.46385446190834045,0.5,-11.148035049438477,-11.14879035949707,-11.252180099487305,-0.01,0.0,0.0,0,0
1705603283.19940805,43260189,0.461620032787323,0.0,0.46269282698631287,0.5,-11.148035049438477,-11.148737907409668,-11.239734649658203,-0.01,0.0,0.0,0,0
1705603283.29936790,43360149,0.4589272141456604,0.0,0.46103137731552124,0.5,-11.148035049438477,-11.148212432861328,-11.245522499084473,-0.01,0.0,0.0,0,0
1705603283.39932799,43460109,0.4545234441757202,0.0,0.4576188027858734,0.5,-11.148035049438477,-11.147500038146973,-11.254548072814941,-0.01,0.0,0.0,0,0
1705603283.49928808,43560069,0.45470789074897766,0.0,0.45508071780204773,0.5,-11.148035049438477,-11.147279739379883,-11.255823135375977,-0.01,0.0,0.0,0,0
1705603283.59924793,43660029,0.4592156410217285,0.0,0.45656105875968933,0.5,-11.148035049438477,-11.147720336914062,-11.257664680480957,-0.01,0.0,0.0,0,0
1705603283.70004106,43760822,0.4662874639034271,0.0,0.4613131582736969,0.5,-11.148035049438477,-11.148734092712402,-11.24812126159668,-0.01,0.0,0.0,0,0
1705603283.80000091,43860782,0.4673750102519989,0.0,0.4665757119655609,0.5,-11.148035049438477,-11.14958381652832,-11.242218971252441,-0.01,0.0,0.0,0,0
1705603283.89996099,43960742,0.4650258719921112,0.0,0.46647247672080994,0.5,-11.148035049438477,-11.149670600891113,-11.257013320922852,-0.01,0.0,0.0,0,0
1705603283.99992108,44060702,0.4633793830871582,0.0,0.46509379148483276,0.5,-11.148035049438477,-11.149616241455078,-11.257832527160645,-0.01,0.0,0.0,0,0
1705603284.09988093,44160662,0.46314823627471924,0.0,0.46346405148506165,0.5,-11.148035049438477,-11.149832725524902,-11.255356788635254,-0.01,0.0,0.0,0,0
1705603284.19984102,44260622,0.46429193019866943,0.0,0.4637558162212372,0.5,-11.148035049438477,-11.150160789489746,-11.240501403808594,-0.01,0.0,0.0,0,0
1705603284.29980111,44360582,0.46331074833869934,0.0,0.46431007981300354,0.5,-11.148035049438477,-11.149898529052734,-11.252293586730957,-0.01,0.0,0.0,0,0
1705603284.39976096,44460542,0.45875394344329834,0.0,0.46147865056991577,0.5,-11.148035049438477,-11.14933967590332,-11.258331298828125,-0.01,0.0,0.0,0,0
1705603284.49972105,44560502,0.4574953019618988,0.0,0.45865708589553833,0.5,-11.148035049438477,-11.149137496948242,-11.247231483459473,-0.01,0.0,0.0,0,0
1705603284.59968090,44660462,0.45895150303840637,0.0,0.45852792263031006,0.5,-11.148035049438477,-11.148980140686035,-11.242100715637207,-0.01,0.0,0.0,0,0
1705603284.69964099,44760422,0.4574308693408966,0.0,0.4583761394023895,0.5,-11.148035049438477,-11.148465156555176,-11.234984397888184,-0.01,0.0,0.0,0,0
1705603284.79960108,44860382,0.45320940017700195,0.0,0.45608821511268616,0.5,-11.148035049438477,-11.14736270904541,-11.237733840942383,-0.01,0.0,0.0,0,0
1705603284.89956093,44960342,0.44767966866493225,0.0,0.45161882042884827,0.5,-11.148035049438477,-11.145949363708496,-11.239192008972168,-0.01,0.0,0.0,0,0
1705603284.99952102,45060302,0.4457920789718628,0.0,0.4477918744087219,0.5,-11.148035049438477,-11.144694328308105,-11.244359970092773,-0.01,0.0,0.0,-1,0
1705603285.09948111,45160262,0.4479545056819916,0.0,0.4469722807407379,0.5,-11.148035049438477,-11.144078254699707,-11.23582649230957,-0.01,0.0,0.0,-1,0
1705603285.19944096,45260222,0.4526817202568054,0.0,0.4497765600681305,0.5,-11.148035049438477,-11.143888473510742,-11.230109214782715,-0.01,0.0,0.0,-1,0
1705603285.29940104,45360182,0.4543111026287079,0.0,0.4528358280658722,0.5,-11.148035049438477,-11.143646240234375,-11.240769386291504,-0.01,0.0,0.0,-1,-1
1705603285.39936090,45460142,0.45558038353919983,0.0,0.4542734920978546,0.5,-11.148035049438477,-11.143644332885742,-11.252250671386719,-0.01,0.0,0.0,-1,-1
1705603285.49932098,45560102,0.4603597819805145,0.0,0.4567546248435974,0.5,-11.148035049438477,-11.144500732421875,-11.250691413879395,-0.01,0.0,0.0,-1,-1
1705603285.59928107,45660062,0.4688326120376587,0.0,0.4627979099750519,0.5,-11.148035049438477,-11.146037101745605,-11.244543075561523,-0.01,0.0,0.0,0,-1
1705603285.69924092,45760022,0.470632940530777,0.0,0.46829161047935486,0.5,-11.148035049438477,-11.14752197265625,-11.245026588439941,-0.01,0.0,0.0,0,-1
1705603285.80003405,45860815,0.4656717777252197,0.0,0.46814534068107605,0.5,-11.148035049438477,-11.148402214050293,-11.25678825378418,-0.01,0.0,0.0,0,0
1705603285.89999390,45960775,0.46348804235458374,0.0,0.4672192633152008,0.5,-11.148035049438477,-11.149105072021484,-11.242511749267578,-0.01,0.0,0.0,0,0
1705603285.99995399,46060735,0.466518759727478,0.0,0.466851145029068,0.5,-11.148035049438477,-11.149333000183105,-11.257821083068848,-0.01,0.0,0.0,0,0
1705603286.09991407,46160695,0.4645855724811554,0.0,0.4657436013221741,0.5,-11.148035049438477,-11.149494171142578,-11.244647026062012,-0.01,0.0,0.0,0,0
1705603286.19987392,46260655,0.462812215089798,0.0,0.46445393562316895,0.5,-11.148035049438477,-11.149394035339355,-11.250876426696777,-0.01,0.0,0.0,0,0
1705603286.29983401,46360615,0.4596397876739502,0.0,0.461921364068985,0.5,-11.148035049438477,-11.14907169342041,-11.243446350097656,-0.01,0.0,0.0,0,0
1705603286.39979410,46460575,0.45660239458084106,0.0,0.4591321647167206,0.5,-11.148035049438477,-11.148426055908203,-11.258499145507812,-0.01,0.0,0.0,0,0
1705603286.49975395,46560535,0.45577073097229004,0.0,0.4565848708152771,0.5,-11.148035049438477,-11.148242950439453,-11.257658958435059,-0.01,0.0,0.0,0,0
1705603286.59971404,46660495,0.45989376306533813,0.0,0.4574054479598999,0.5,-11.148035049438477,-11.14865779876709,-11.239720344543457,-0.01,8.85,0.0,0,0
1705603286.69967389,46760455,0.46216776967048645,0.0,0.4605872333049774,0.5,-11.148035049438477,-11.14866828918457,-11.245814323425293,-0.01,8.88,-20.028667449951172,0,0
1705603286.79963398,46860415,0.4601902961730957,0.0,0.4608674943447113,0.5,-11.148035049438477,-11.148365020751953,-11.244415283203125,-0.01,8.950000000000001,-20.038188934326172,0,0
1705603286.89959407,46960375,0.4571596682071686,0.0,0.45908764004707336,0.5,-11.148035049438477,-11.147859573364258,-11.238455772399902,-0.01,8.85,-20.038846969604492,0,0
