timestamp,TimeUS,ThI,ABst,ThO,ThH,DAlt,Alt,BAlt,DSAlt,SAlt,TAlt,DCRt,CRt
1697465345.38000798,8439956,0.0,0.0,0.5,0.5,0.0,-0.06532462686300278,-0.08706393837928772,0.0,0.0,-0.22999998927116394,0,-1
1697465345.47996807,8539916,0.0,0.0,0.5,0.5,0.0,-0.07128839939832687,-0.09451371431350708,0.0,0.0,-0.22999998927116394,0,-1
1697465345.57992792,8639876,0.0,0.0,0.5,0.5,0.0,-0.07721473276615143,-0.09643096476793289,0.0,0.0,-0.22999998927116394,0,-1
1697465345.67988801,8739836,0.0,0.0,0.5,0.5,0.0,-0.08294713497161865,-0.10175222903490067,0.0,0.0,-0.23999999463558197,0,-1
1697465345.77984810,8839796,0.0,0.0,0.5,0.5,0.0,-0.08847871422767639,-0.11851004511117935,0.0,0.0,-0.23999999463558197,0,-1
1697465345.87980795,8939756,0.0,0.0,0.5,0.5,0.0,-0.09451940655708313,-0.11954161524772644,0.0,0.0,-0.25,0,-1
1697465345.97976804,9039716,0.0,0.0,0.5,0.5,0.0,-0.10086741298437119,-0.10992904752492905,0.0,0.0,-0.25,0,-1
1697465346.07972813,9139676,0.0,0.0,0.5,0.5,0.0,-0.10650860518217087,-0.12468431144952774,0.0,0.0,-0.25999999046325684,0,-1
1697465346.17968798,9239636,0.0,0.0,0.25,0.5,0.0,-0.11821229755878448,-0.12191246449947357,0.0,0.0,-0.25999999046325684,0,-19
1697465346.27964807,9339596,0.0,0.0,0.25,0.5,0.0,-0.15011993050575256,-0.1531640589237213,0.0,0.0,-0.26999998092651367,0,-37
1697465346.37960792,9439556,0.0,0.0,0.25,0.5,0.0,-0.19718627631664276,-0.2031329721212387,0.0,0.0,-0.26999998092651367,0,-48
1697465346.47956800,9539516,0.0,0.0,0.25,0.5,0.0,-0.2536330819129944,-0.2616039514541626,0.0,0.0,-0.3199999928474426,0,-54
1697465346.57952809,9639476,0.0,0.0,0.25,0.5,0.0,-0.3156099319458008,-0.31409597396850586,0.0,0.0,-0.3199999928474426,0,-58
1697465346.67948794,9739436,0.0,0.0,0.25,0.5,0.0,-0.37991634011268616,-0.36631137132644653,0.0,0.0,-0.4099999964237213,0,-59
1697465346.77944803,9839396,0.0,0.0,0.25,0.5,0.0,-0.44570162892341614,-0.4426514804363251,0.0,0.0,-0.4099999964237213,0,-60
1697465346.87940812,9939356,0.0,0.0,0.25,0.5,0.0,-0.5124972462654114,-0.49341997504234314,0.0,0.0,-0.5299999713897705,0,-61
1697465346.97936797,10039316,0.0,0.0,0.25,0.5,0.0,-0.5794276595115662,-0.5587946176528931,0.0,0.0,-0.5299999713897705,0,-62
1697465347.07932806,10139276,0.0,0.0,0.25,0.5,0.0,-0.6467624306678772,-0.629875659942627,0.0,0.0,-0.6499999761581421,0,-62
1697465347.17928815,10239236,0.0,0.0,0.25,0.5,0.0,-0.7137811779975891,-0.6871356964111328,0.0,0.0,-0.6499999761581421,0,-62
1697465347.27924800,10339196,0.0,0.0,0.25,0.5,0.0,-0.7806443572044373,-0.7510164380073547,0.0,0.0,-0.7699999809265137,0,-63
1697465347.37920809,10439156,0.0,0.0,0.25,0.5,0.0,-0.8472285270690918,-0.8016182780265808,0.0,0.0,-0.7699999809265137,0,-63
1697465347.48000097,10539949,0.0,0.0,0.25,0.5,0.0,-0.9134257435798645,-0.8621882796287537,0.0,0.0,-0.8899999856948853,0,-63
1697465347.57996106,10639909,0.0,0.0,0.25,0.5,0.0,-0.9778342843055725,-0.9293566942214966,0.0,0.0,-0.8899999856948853,0,-63
1697465347.67992115,10739869,0.0,0.0,0.25,0.5,0.0,-1.0412366390228271,-1.0004113912582397,0.0,0.0,-1.0099999904632568,0,-63
1697465347.77988100,10839829,0.0,0.0,0.25,0.5,0.0,-1.1043579578399658,-1.0600669384002686,0.0,0.0,-1.0099999904632568,0,-63
1697465347.87984109,10939789,0.0,0.0,0.25,0.5,0.0,-1.1673343181610107,-1.1147018671035767,0.0,0.0,-1.1299999952316284,0,-63
1697465347.97980094,11039749,0.0,0.0,0.25,0.5,0.0,-1.2298061847686768,-1.1785163879394531,0.0,0.0,-1.1299999952316284,0,-63
1697465348.07976103,11139709,0.0,0.0,0.25,0.5,0.0,-1.291791319847107,-1.2364604473114014,0.0,0.0,-1.25,0,-63
1697465348.17972112,11239669,0.0,0.0,0.25,0.5,0.0,-1.353291392326355,-1.2997488975524902,0.0,0.0,-1.25,0,-63
1697465348.27968097,11339629,0.0,0.0,0.25,0.5,0.0,-1.4144071340560913,-1.355054259300232,0.0,0.0,-1.3600000143051147,0,-63
1697465348.37964106,11439589,0.0,0.0,0.25,0.5,0.0,-1.475029706954956,-1.4254815578460693,0.0,0.0,-1.3600000143051147,0,-63
1697465348.47960114,11539549,0.0,0.0,0.25,0.5,0.0,-1.5355236530303955,-1.4919475317001343,0.0,0.0,-1.4900000095367432,0,-63
1697465348.57956100,11639509,0.0,0.0,0.25,0.5,0.0,-1.5963207483291626,-1.5393534898757935,0.0,0.0,-1.4900000095367432,0,-62
1697465348.67952108,11739469,0.0,0.0,0.25,0.5,0.0,-1.656353235244751,-1.5966215133666992,0.0,0.0,-1.5999999046325684,0,-62
1697465348.77948093,11839429,0.0,0.0,0.25,0.5,0.0,-1.7162729501724243,-1.6721205711364746,0.0,0.0,-1.5999999046325684,0,-62
1697465348.87944102,11939389,0.0,0.0,0.25,0.5,0.0,-1.7762458324432373,-1.7338991165161133,0.0,0.0,-1.7300000190734863,0,-62
1697465348.97940111,12039349,0.0,0.0,0.25,0.5,0.0,-1.8366080522537231,-1.7931417226791382,0.0,0.0,-1.7300000190734863,0,-62
1697465349.07936096,12139309,0.0,0.0,0.25,0.5,0.0,-1.8971881866455078,-1.8448604345321655,0.0,0.0,-1.8499999046325684,0,-62
1697465349.17932105,12239269,0.0,0.0,0.25,0.5,0.0,-1.9580200910568237,-1.909907579421997,0.0,0.0,-1.8499999046325684,0,-62
1697465349.27928114,12339229,0.0,0.0,0.25,0.5,0.0,-2.018132448196411,-1.9782254695892334,0.0,0.0,-1.9799998998641968,0,-62
1697465349.37924099,12439189,0.0,0.0,0.25,0.5,0.0,-2.078495979309082,-2.0292258262634277,0.0,0.0,-1.9799998998641968,0,-61
1697465349.48003411,12539982,0.0,0.0,0.25,0.5,0.0,-2.1393167972564697,-2.1074953079223633,0.0,0.0,-2.0999999046325684,0,-61
1697465349.57999396,12639942,0.0,0.0,0.25,0.5,0.0,-2.200040817260742,-2.1641557216644287,0.0,0.0,-2.0999999046325684,0,-61
1697465349.67995405,12739902,0.0,0.0,0.25,0.5,0.0,-2.2612881660461426,-2.225231170654297,0.0,0.0,-2.2200000286102295,0,-61
1697465349.77991414,12839862,0.0,0.0,0.25,0.5,0.0,-2.3228049278259277,-2.2869443893432617,0.0,0.0,-2.2200000286102295,0,-61
1697465349.87987399,12939822,0.0,0.0,0.25,0.5,0.0,-2.3844993114471436,-2.3474442958831787,0.0,0.0,-2.3399999141693115,0,-61
1697465349.97983408,13039782,0.0,0.0,0.25,0.5,0.0,-2.4462640285491943,-2.4095726013183594,0.0,0.0,-2.3399999141693115,0,-61
1697465350.07979393,13139742,0.0,0.0,0.25,0.5,0.0,-2.508143901824951,-2.4791693687438965,0.0,0.0,-2.4600000381469727,0,-61
1697465350.17975402,13239702,0.0,0.0,0.25,0.5,0.0,-2.570479393005371,-2.5385308265686035,0.0,0.0,-2.4600000381469727,0,-61
1697465350.27971411,13339662,0.0,0.0,0.25,0.5,0.0,-2.6331160068511963,-2.5944037437438965,0.0,0.0,-2.5799999237060547,0,-61
1697465350.37967396,13439622,0.0,0.0,0.25,0.5,0.0,-2.695631980895996,-2.659052848815918,0.0,0.0,-2.5799999237060547,0,-62
1697465350.47963405,13539582,0.0,0.0,0.25,0.5,0.0,-2.7580740451812744,-2.7254369258880615,0.0,0.0,-2.700000047683716,0,-62
1697465350.57959414,13639542,0.0,0.0,0.25,0.5,0.0,-2.8206894397735596,-2.774759292602539,0.0,0.0,-2.700000047683716,0,-62
1697465350.67955399,13739502,0.0,0.0,0.25,0.5,0.0,-2.8828930854797363,-2.8553826808929443,0.0,0.0,-2.819999933242798,0,-62
1697465350.77951407,13839462,0.0,0.0,0.25,0.5,0.0,-2.9449548721313477,-2.899151086807251,0.0,0.0,-2.819999933242798,0,-62
1697465350.87947392,13939422,0.0,0.0,0.25,0.5,0.0,-3.0072078704833984,-2.9739229679107666,0.0,0.0,-2.93999981880188,0,-62
1697465350.97943401,14039382,0.0,0.0,0.25,0.5,0.0,-3.0695512294769287,-3.022739887237549,0.0,0.0,-2.93999981880188,0,-62
1697465351.07939410,14139342,0.0,0.0,0.25,0.5,0.0,-3.13151478767395,-3.089780807495117,0.0,0.0,-3.059999942779541,0,-62
1697465351.17935395,14239302,0.0,0.0,0.25,0.5,0.0,-3.193782091140747,-3.1457581520080566,0.0,0.0,-3.059999942779541,0,-62
1697465351.27931404,14339262,0.0,0.0,0.25,0.5,0.0,-3.2551774978637695,-3.211770534515381,0.0,0.0,-3.169999837875366,0,-62
1697465351.37927413,14439222,0.0,0.0,0.25,0.5,0.0,-3.316441774368286,-3.2781050205230713,0.0,0.0,-3.169999837875366,0,-62
1697465351.47923398,14539182,0.0,0.0,0.25,0.5,0.0,-3.377901792526245,-3.338101863861084,0.0,0.0,-3.299999952316284,0,-62
1697465351.58002710,14639975,0.0,0.0,0.25,0.5,0.0,-3.4400084018707275,-3.3967084884643555,0.0,0.0,-3.299999952316284,0,-62
1697465351.67998695,14739935,0.0,0.0,0.25,0.5,0.0,-3.5015292167663574,-3.4561662673950195,0.0,0.0,-3.419999837875366,0,-61
1697465351.77994704,14839895,0.0,0.0,0.25,0.5,0.0,-3.562899351119995,-3.5306880474090576,0.0,0.0,-3.419999837875366,0,-61
1697465351.87990713,14939855,0.0,0.0,0.25,0.5,0.0,-3.6247406005859375,-3.583061933517456,0.0,0.0,-3.5399999618530273,0,-61
1697465351.97986698,15039815,0.0,0.0,0.25,0.5,0.0,-3.6866631507873535,-3.6415743827819824,0.0,0.0,-3.5399999618530273,0,-61
1697465352.07982707,15139775,0.0,0.0,0.25,0.5,0.0,-3.7483510971069336,-3.7068023681640625,0.0,0.0,-3.669999837875366,0,-61
1697465352.17978692,15239735,0.0,0.0,0.25,0.5,0.0,-3.8099782466888428,-3.768221378326416,0.0,0.0,-3.669999837875366,0,-61
1697465352.27974701,15339695,0.0,0.0,0.25,0.5,0.0,-3.871596574783325,-3.831775426864624,0.0,0.0,-3.7899999618530273,0,-61
1697465352.37970710,15439655,0.0,0.0,0.25,0.5,0.0,-3.933290719985962,-3.8991923332214355,0.0,0.0,-3.7899999618530273,0,-61
1697465352.47966695,15539615,0.0,0.0,0.25,0.5,0.0,-3.9953246116638184,-3.9477765560150146,0.0,0.0,-3.8999998569488525,0,-61
1697465352.57962704,15639575,0.0,0.0,0.25,0.5,0.0,-4.057061195373535,-4.0223493576049805,0.0,0.0,-3.8999998569488525,0,-61
1697465352.67958713,15739535,0.0,0.0,0.25,0.5,0.0,-4.118983745574951,-4.066145420074463,0.0,0.0,-4.029999732971191,0,-61
1697465352.77954698,15839495,0.0,0.0,0.25,0.5,0.0,-4.180383205413818,-4.150936603546143,0.0,0.0,-4.029999732971191,0,-61
1697465352.87950706,15939455,0.0,0.0,0.25,0.5,0.0,-4.241717338562012,-4.214568614959717,0.0,0.0,-4.150000095367432,0,-61
1697465352.97946692,16039415,0.0,0.0,0.25,0.5,0.0,-4.304290771484375,-4.265670299530029,0.0,0.0,-4.150000095367432,0,-61
1697465353.07942700,16139375,0.0,0.0,0.25,0.5,0.0,-4.366909027099609,-4.333420753479004,0.0,0.0,-4.269999980926514,0,-62
1697465353.17938709,16239335,0.0,0.0,0.25,0.5,0.0,-4.429652690887451,-4.40083646774292,0.0,0.0,-4.269999980926514,0,-62
1697465353.27934694,16339295,0.0,0.0,0.25,0.5,0.0,-4.493305683135986,-4.4607930183410645,0.0,0.0,-4.389999866485596,0,-62
1697465353.37930703,16439255,0.0,0.0,0.25,0.5,0.0,-4.556661605834961,-4.518305778503418,0.0,0.0,-4.389999866485596,0,-62
1697465353.47926712,16539215,0.0,0.0,0.25,0.5,0.0,-4.619628429412842,-4.5842976570129395,0.0,0.0,-4.509999752044678,0,-62
1697465353.57922697,16639175,0.0,0.0,0.25,0.5,0.0,-4.682234764099121,-4.646317958831787,0.0,0.0,-4.509999752044678,0,-62
1697465353.68002009,16739968,0.0,0.0,0.25,0.5,0.0,-4.745164394378662,-4.6938910484313965,0.0,0.0,-4.630000114440918,0,-62
1697465353.77997994,16839928,0.0,0.0,0.25,0.5,0.0,-4.806857585906982,-4.76655387878418,0.0,0.0,-4.630000114440918,0,-62
1697465353.87994003,16939888,0.0,0.0,0.25,0.5,0.0,-4.868216514587402,-4.817378044128418,0.0,0.0,-4.75,0,-62
1697465353.97990012,17039848,0.0,0.0,0.25,0.5,0.0,-4.929182052612305,-4.878407955169678,0.0,0.0,-4.75,0,-62
1697465354.07985997,17139808,0.0,0.0,0.25,0.5,0.0,-4.9896321296691895,-4.949667453765869,0.0,0.0,-4.869999885559082,0,-61
1697465354.17982006,17239768,0.0,0.0,0.25,0.5,0.0,-5.050118923187256,-5.008543491363525,0.0,0.0,-4.869999885559082,0,-61
1697465354.27978015,17339728,0.0,0.0,0.25,0.5,0.0,-5.110804080963135,-5.062537670135498,0.0,0.0,-4.989999771118164,0,-61
1697465354.37974000,17439688,0.0,0.0,0.25,0.5,0.0,-5.171319961547852,-5.1341047286987305,0.0,0.0,-4.989999771118164,0,-61
1697465354.47970009,17539648,0.0,0.0,0.25,0.5,0.0,-5.231973648071289,-5.200295925140381,0.0,0.0,-5.109999656677246,0,-61
1697465354.57965994,17639608,0.0,0.0,0.25,0.5,0.0,-5.293144226074219,-5.260621070861816,0.0,0.0,-5.109999656677246,0,-61
1697465354.67962003,17739568,0.0,0.0,0.25,0.5,0.0,-5.354743480682373,-5.324297904968262,0.0,0.0,-5.230000019073486,0,-61
1697465354.77958012,17839528,0.0,0.0,0.25,0.5,0.0,-5.416695594787598,-5.370021343231201,0.0,0.0,-5.230000019073486,0,-61
1697465354.87953997,17939488,0.0,0.0,0.25,0.5,0.0,-5.47830057144165,-5.439997673034668,0.0,0.0,-5.349999904632568,0,-61
1697465354.97950006,18039448,0.0,0.0,0.25,0.5,0.0,-5.539128303527832,-5.4930925369262695,0.0,0.0,-5.349999904632568,0,-61
1697465355.07946014,18139408,0.0,0.0,0.25,0.5,0.0,-5.600152492523193,-5.556949138641357,0.0,0.0,-5.480000019073486,0,-61
1697465355.17941999,18239368,0.0,0.0,0.25,0.5,0.0,-5.660884380340576,-5.632425785064697,0.0,0.0,-5.480000019073486,0,-61
1697465355.27938008,18339328,0.0,0.0,0.25,0.5,0.0,-5.66202974319458,-5.685513973236084,0.0,0.0,-5.599999904632568,0,-61
1697465355.37933993,18439288,0.0,0.0,0.25,0.5,0.0,-5.723969459533691,-5.73725700378418,0.0,0.0,-5.599999904632568,0,-61
1697465355.47930002,18539248,0.0,0.0,0.25,0.5,0.0,-5.785038948059082,-5.798395156860352,0.0,0.0,-5.71999979019165,0,-61
1697465355.57926011,18639208,0.0,0.0,0.25,0.5,0.0,-5.845618724822998,-5.874516010284424,0.0,0.0,-5.71999979019165,0,-61
1697465355.67921996,18739168,0.0,0.0,0.25,0.5,0.0,-5.90643310546875,-5.939071178436279,0.0,0.0,-5.839999675750732,0,-61
1697465355.78001308,18839961,0.0,0.0,0.25,0.5,0.0,-5.968428611755371,-5.999445915222168,0.0,0.0,-5.839999675750732,0,-61
1697465355.87997293,18939921,0.0,0.0,0.25,0.5,0.0,-6.030430793762207,-6.061111927032471,0.0,0.0,-5.960000038146973,0,-61
1697465355.97993302,19039881,0.0,0.0,0.25,0.5,0.0,-6.092789173126221,-6.120753288269043,0.0,0.0,-5.960000038146973,0,-61
1697465356.07989311,19139841,0.0,0.0,0.25,0.5,0.0,-6.15529727935791,-6.192175388336182,0.0,0.0,-6.079999923706055,0,-61
1697465356.17985296,19239801,0.0,0.0,0.25,0.5,0.0,-6.218299388885498,-6.255082130432129,0.0,0.0,-6.079999923706055,0,-61
1697465356.27981305,19339761,0.0,0.0,0.25,0.5,0.0,-6.281802177429199,-6.315732479095459,0.0,0.0,-6.199999809265137,0,-61
1697465356.37977314,19439721,0.0,0.0,0.25,0.5,0.0,-6.345541954040527,-6.363940715789795,0.0,0.0,-6.199999809265137,0,-61
1697465356.47973299,19539681,0.0,0.0,0.25,0.5,0.0,-6.40873384475708,-6.430043697357178,0.0,0.0,-6.319999694824219,0,-62
1697465356.57969308,19639641,0.0,0.0,0.25,0.5,0.0,-6.471484184265137,-6.4900102615356445,0.0,0.0,-6.319999694824219,0,-62
1697465356.67965293,19739601,0.0,0.0,0.25,0.5,0.0,-6.533868312835693,-6.557097434997559,0.0,0.0,-6.440000057220459,0,-62
1697465356.77961302,19839561,0.0,0.0,0.25,0.5,0.0,-6.596187114715576,-6.622368335723877,0.0,0.0,-6.440000057220459,0,-62
1697465356.87957311,19939521,0.0,0.0,0.25,0.5,0.0,-6.6586785316467285,-6.6863017082214355,0.0,0.0,-6.559999942779541,0,-62
1697465356.97953296,20039481,0.0,0.0,0.25,0.5,0.0,-6.7214202880859375,-6.745941638946533,0.0,0.0,-6.559999942779541,0,-62
1697465357.07949305,20139441,0.0,0.0,0.25,0.5,0.0,-6.783711910247803,-6.801043510437012,0.0,0.0,-6.679999828338623,0,-62
1697465357.17945313,20239401,0.0,0.0,0.25,0.5,0.0,-6.846192359924316,-6.867502212524414,0.0,0.0,-6.679999828338623,0,-62
1697465357.27941298,20339361,0.0,0.0,0.25,0.5,0.0,-6.908527851104736,-6.932500839233398,0.0,0.0,-6.799999713897705,0,-62
1697465357.37937307,20439321,0.0,0.0,0.25,0.5,0.0,-6.970945358276367,-6.98931360244751,0.0,0.0,-6.799999713897705,0,-62
1697465357.47933292,20539281,0.0,0.0,0.25,0.5,0.0,-7.03372859954834,-7.0371832847595215,0.0,0.0,-6.920000076293945,0,-62
1697465357.57929301,20639241,0.0,0.0,0.25,0.5,0.0,-7.09522008895874,-7.102776527404785,0.0,0.0,-6.920000076293945,0,-62
1697465357.67925310,20739201,0.0,0.0,0.25,0.5,0.0,-7.156169414520264,-7.16621732711792,0.0,0.0,-7.039999961853027,0,-62
1697465357.77921295,20839161,0.0,0.0,0.25,0.5,0.0,-7.21688175201416,-7.231622219085693,0.0,0.0,-7.039999961853027,0,-62
1697465357.88000607,20939954,0.0,0.0,0.25,0.5,0.0,-7.278166770935059,-7.301037311553955,0.0,0.0,-7.159999847412109,0,-61
1697465357.97996593,21039914,0.0,0.0,0.25,0.5,0.0,-7.339108943939209,-7.363575458526611,0.0,0.0,-7.159999847412109,0,-61
1697465358.07992601,21139874,0.0,0.0,0.25,0.5,0.0,-7.400241374969482,-7.4230875968933105,0.0,0.0,-7.289999961853027,0,-61
1697465358.17988610,21239834,0.0,0.0,0.25,0.5,0.0,-7.46145486831665,-7.467463970184326,0.0,0.0,-7.289999961853027,0,-61
1697465358.27984595,21339794,0.0,0.0,0.25,0.5,0.0,-7.522010326385498,-7.542272567749023,0.0,0.0,-7.409999847412109,0,-61
1697465358.37980604,21439754,0.0,0.0,0.25,0.5,0.0,-7.58228063583374,-7.598607540130615,0.0,0.0,-7.409999847412109,0,-61
1697465358.47976613,21539714,0.0,0.0,0.25,0.5,0.0,-7.642526149749756,-7.665582656860352,0.0,0.0,-7.519999980926514,0,-61
1697465358.57972598,21639674,0.0,0.0,0.25,0.5,0.0,-7.702931880950928,-7.737244129180908,0.0,0.0,-7.519999980926514,0,-61
1697465358.67968607,21739634,0.0,0.0,0.25,0.5,0.0,-7.764004230499268,-7.797891616821289,0.0,0.0,-7.649999618530273,0,-61
1697465358.77964592,21839594,0.0,0.0,0.25,0.5,0.0,-7.825748920440674,-7.860745429992676,0.0,0.0,-7.649999618530273,0,-61
1697465358.87960601,21939554,0.0,0.0,0.25,0.5,0.0,-7.887997150421143,-7.921354293823242,0.0,0.0,-7.769999980926514,0,-61
1697465358.97956610,22039514,0.0,0.0,0.25,0.5,0.0,-7.950565814971924,-7.981941223144531,0.0,0.0,-7.769999980926514,0,-61
1697465359.07952595,22139474,0.0,0.0,0.25,0.5,0.0,-8.012744903564453,-8.03101634979248,0.0,0.0,-7.889999866485596,0,-61
1697465359.17948604,22239434,0.0,0.0,0.25,0.5,0.0,-8.074970245361328,-8.096905708312988,0.0,0.0,-7.889999866485596,0,-61
1697465359.27944613,22339394,0.0,0.0,0.25,0.5,0.0,-8.136734962463379,-8.162952423095703,0.0,0.0,-8.010000228881836,0,-61
1697465359.37940598,22439354,0.0,0.0,0.25,0.5,0.0,-8.1984281539917,-8.221810340881348,0.0,0.0,-8.010000228881836,0,-61
1697465359.47936606,22539314,0.0,0.0,0.25,0.5,0.0,-8.260052680969238,-8.293339729309082,0.0,0.0,-8.119999885559082,0,-61
1697465359.57932591,22639274,0.0,0.0,0.25,0.5,0.0,-8.322478294372559,-8.349494934082031,0.0,0.0,-8.119999885559082,0,-61
1697465359.67928600,22739234,0.0,0.0,0.25,0.5,0.0,-8.3845853805542,-8.404433250427246,0.0,0.0,-8.25,0,-61
1697465359.77924609,22839194,0.0,0.0,0.25,0.5,0.0,-8.44643497467041,-8.462020874023438,0.0,0.0,-8.25,0,-61
1697465359.88003898,22939987,0.0,0.0,0.25,0.5,0.0,-8.508302688598633,-8.541520118713379,0.0,0.0,-8.369999885559082,0,-61
1697465359.97999907,23039947,0.0,0.0,0.25,0.5,0.0,-8.56991958618164,-8.597776412963867,0.0,0.0,-8.369999885559082,0,-61
1697465360.07995892,23139907,0.0,0.0,0.25,0.5,0.0,-8.631939888000488,-8.650469779968262,0.0,0.0,-8.489999771118164,0,-61
1697465360.17991900,23239867,0.0,0.0,0.25,0.5,0.0,-8.693791389465332,-8.709763526916504,0.0,0.0,-8.489999771118164,0,-61
1697465360.27987909,23339827,0.0,0.0,0.25,0.5,0.0,-8.755227088928223,-8.768701553344727,0.0,0.0,-8.609999656677246,0,-61
1697465360.37983894,23439787,0.0,0.0,0.25,0.5,0.0,-8.816213607788086,-8.847323417663574,0.0,0.0,-8.609999656677246,0,-61
1697465360.47979903,23539747,0.0,0.0,0.25,0.5,0.0,-8.877509117126465,-8.909595489501953,0.0,0.0,-8.729999542236328,0,-61
1697465360.57975912,23639707,0.0,0.0,0.25,0.5,0.0,-8.939428329467773,-8.968133926391602,0.0,0.0,-8.729999542236328,0,-61
1697465360.67971897,23739667,0.0,0.0,0.25,0.5,0.0,-9.001676559448242,-9.022679328918457,0.0,0.0,-8.84999942779541,0,-61
1697465360.77967906,23839627,0.0,0.0,0.25,0.5,0.0,-9.063790321350098,-9.088091850280762,0.0,0.0,-8.84999942779541,0,-61
1697465360.87963915,23939587,0.0,0.0,0.25,0.5,0.0,-9.125777244567871,-9.14907169342041,0.0,0.0,-8.970000267028809,0,-61
1697465360.97959900,24039547,0.0,0.0,0.25,0.5,0.0,-9.187714576721191,-9.210227012634277,0.0,0.0,-8.970000267028809,0,-61
1697465361.07955909,24139507,0.0,0.0,0.25,0.5,0.0,-9.249567031860352,-9.26447582244873,0.0,0.0,-9.09999942779541,0,-61
1697465361.17951894,24239467,0.0,0.0,0.25,0.5,0.0,-9.310534477233887,-9.328856468200684,0.0,0.0,-9.09999942779541,0,-61
1697465361.27947903,24339427,0.0,0.0,0.25,0.5,0.0,-9.371705055236816,-9.403468132019043,0.0,0.0,-9.210000038146973,0,-61
1697465361.37943912,24439387,0.0,0.0,0.25,0.5,0.0,-9.433258056640625,-9.449345588684082,0.0,0.0,-9.210000038146973,0,-61
1697465361.47939897,24539347,0.0,0.0,0.25,0.5,0.0,-9.494760513305664,-9.517068862915039,0.0,0.0,-9.34000015258789,0,-61
1697465361.57935905,24639307,0.0,0.0,0.25,0.5,0.0,-9.556618690490723,-9.571568489074707,0.0,0.0,-9.34000015258789,0,-61
1697465361.67931914,24739267,0.0,0.0,0.25,0.5,0.0,-9.61771297454834,-9.654106140136719,0.0,0.0,-9.460000038146973,0,-61
1697465361.77927899,24839227,0.0,0.0,0.25,0.5,0.0,-9.679529190063477,-9.709275245666504,0.0,0.0,-9.460000038146973,0,-61
1697465361.87923908,24939187,0.0,0.0,0.25,0.5,0.0,-9.741869926452637,-9.767382621765137,0.0,0.0,-9.579999923706055,0,-61
1697465361.98003197,25039980,0.0,0.0,0.25,0.5,0.0,-9.804816246032715,-9.843777656555176,0.0,0.0,-9.579999923706055,0,-61
1697465362.07999206,25139940,0.0,0.0,0.25,0.5,0.0,-9.867915153503418,-9.902088165283203,0.0,0.0,-9.699999809265137,0,-61
1697465362.17995214,25239900,0.0,0.0,0.25,0.5,0.0,-9.93153190612793,-9.952913284301758,0.0,0.0,-9.699999809265137,0,-61
1697465362.27991199,25339860,0.0,0.0,0.25,0.5,0.0,-9.994914054870605,-10.023988723754883,0.0,0.0,-9.819999694824219,0,-62
1697465362.37987208,25439820,0.0,0.0,0.25,0.5,0.0,-10.05833625793457,-10.081839561462402,0.0,0.0,-9.819999694824219,0,-62
1697465362.47983193,25539780,0.0,0.0,0.25,0.5,0.0,-10.121674537658691,-10.14696216583252,0.0,0.0,-9.9399995803833,0,-62
1697465362.57979202,25639740,0.0,0.0,0.25,0.5,0.0,-10.184720039367676,-10.210466384887695,0.0,0.0,-9.9399995803833,0,-62
1697465362.67975211,25739700,0.14975190162658691,0.0,0.2572724223136902,0.5,-10.247563362121582,-10.246918678283691,-10.25652027130127,0.0,0.0,-10.050000190734863,-64,-60
1697465362.77971196,25839660,0.25230100750923157,0.0,0.24452275037765503,0.5,-10.314004898071289,-10.308783531188965,-10.319425582885742,0.0,0.0,-10.050000190734863,-69,-63
1697465362.87967205,25939620,0.32573366165161133,0.0,0.2810033857822418,0.5,-10.381120681762695,-10.37063217163086,-10.396855354309082,0.0,0.0,-10.179999351501465,-67,-61
1697465362.97963214,26039580,0.45546871423721313,0.0,0.3624211251735687,0.5,-10.440949440002441,-10.427583694458008,-10.452411651611328,0.0,0.0,-10.179999351501465,-57,-53
1697465363.07959199,26139540,0.5295847654342651,0.0,0.4772345721721649,0.5,-10.486000061035156,-10.474418640136719,-10.49030876159668,0.0,0.0,-10.289999961853027,-40,-41
1697465363.17955208,26239500,0.6011781692504883,0.0,0.5436787605285645,0.5,-10.516273498535156,-10.509993553161621,-10.527458190917969,0.0,0.0,-10.289999961853027,-26,-32
1697465363.27951193,26339460,0.6116426587104797,0.0,0.5914996862411499,0.5,-10.536528587341309,-10.536527633666992,-10.553272247314453,0.0,0.0,-10.399999618530273,-16,-25
1697465363.37947202,26439420,0.5988795757293701,0.0,0.6011079549789429,0.5,-10.550080299377441,-10.554953575134277,-10.584890365600586,0.0,0.0,-10.399999618530273,-9,-17
1697465363.47943211,26539380,0.5816347599029541,0.0,0.5924069881439209,0.5,-10.559147834777832,-10.566508293151855,-10.584847450256348,0.0,0.0,-10.449999809265137,-5,-11
1697465363.57939196,26639340,0.5604402422904968,0.0,0.5764472484588623,0.5,-10.565216064453125,-10.572476387023926,-10.610062599182129,0.0,0.0,-10.449999809265137,-2,-7
1697465363.67935205,26739300,0.5386440753936768,0.0,0.5558543801307678,0.5,-10.569275856018066,-10.57490062713623,-10.612983703613281,0.0,0.0,-10.489999771118164,-1,-4
1697465363.77931213,26839260,0.5179488062858582,0.0,0.5351353287696838,0.5,-10.571991920471191,-10.575260162353516,-10.614255905151367,0.0,9.65,-10.489999771118164,-1,-2
1697465363.87927198,26939220,0.5018419027328491,0.0,0.5174983143806458,0.5,-10.573809623718262,-10.574405670166016,-10.606507301330566,9.65,9.65,-10.5,-1,-1
1697465363.97923207,27039180,0.4709753394126892,0.0,0.49430152773857117,0.5,-10.575024604797363,-10.572455406188965,-10.607318878173828,9.65,9.540000000000001,-10.5,-1,-1
1697465364.08002496,27139973,0.44460055232048035,0.0,0.47647741436958313,0.5,-10.575512886047363,-10.569414138793945,-10.606462478637695,9.65,9.540000000000001,-10.510000228881836,-1,0
1697465364.17998505,27239933,0.4267498850822449,0.0,0.451992392539978,0.5,-10.575177192687988,-10.565557479858398,-10.616650581359863,9.65,9.49,-10.510000228881836,-2,0
1697465364.27994514,27339893,0.4301483631134033,0.0,0.4451192617416382,0.5,-10.574134826660156,-10.562152862548828,-10.631824493408203,9.65,9.450000000000001,-10.510000228881836,-2,0
1697465364.37990499,27439853,0.4412027597427368,0.0,0.4479723274707794,0.5,-10.572331428527832,-10.560372352600098,-10.620332717895508,9.65,9.44,-10.510000228881836,-1,0
1697465364.47986507,27539813,0.46081140637397766,0.0,0.4612496793270111,0.5,-10.569867134094238,-10.559711456298828,-10.615873336791992,9.65,9.41,-10.519999504089355,0,0
1697465364.57982492,27639773,0.4690306484699249,0.0,0.47385090589523315,0.5,-10.566776275634766,-10.559057235717773,-10.627357482910156,9.65,9.4,-10.519999504089355,1,0
1697465364.67978501,27739733,0.48691537976264954,0.0,0.48705819249153137,0.5,-10.563133239746094,-10.55823802947998,-10.623758316040039,9.65,9.38,-10.519999504089355,2,0
1697465364.77974510,27839693,0.5087229013442993,0.0,0.5050069093704224,0.5,-10.55896282196045,-10.557196617126465,-10.62004566192627,9.65,9.370000000000001,-10.519999504089355,3,1
1697465364.87970495,27939653,0.5310734510421753,0.0,0.5254387259483337,0.5,-10.554313659667969,-10.555615425109863,-10.61634349822998,9.65,9.38,-10.519999504089355,5,2
1697465364.97966504,28039613,0.5344191193580627,0.0,0.5400201678276062,0.5,-10.549291610717773,-10.553163528442383,-10.61738395690918,9.65,9.370000000000001,-10.519999504089355,6,3
1697465365.07962513,28139573,0.5302152633666992,0.0,0.5422685146331787,0.5,-10.543946266174316,-10.549466133117676,-10.614686965942383,9.65,9.370000000000001,-10.519999504089355,7,4
1697465365.17958498,28239533,0.5221033096313477,0.0,0.5374024510383606,0.5,-10.538311958312988,-10.544534683227539,-10.615169525146484,9.65,9.370000000000001,-10.519999504089355,7,5
1697465365.27954507,28339493,0.5154599547386169,0.0,0.5291968584060669,0.5,-10.53244400024414,-10.538728713989258,-10.603618621826172,9.65,9.370000000000001,-10.510000228881836,7,6
1697465365.37950492,28439453,0.5147987008094788,0.0,0.5260204076766968,0.5,-10.526394844055176,-10.532341003417969,-10.605446815490723,9.65,9.370000000000001,-10.510000228881836,7,7
1697465365.47946501,28539413,0.5070390701293945,0.0,0.5197791457176208,0.5,-10.520197868347168,-10.525640487670898,-10.597821235656738,9.65,9.370000000000001,-10.5,7,7
1697465365.57942510,28639373,0.49877050518989563,0.0,0.5117776989936829,0.5,-10.513888359069824,-10.518789291381836,-10.587601661682129,9.65,9.370000000000001,-10.5,7,7
1697465365.67938495,28739333,0.488111674785614,0.0,0.5022470951080322,0.5,-10.50748062133789,-10.511585235595703,-10.601346015930176,9.65,9.370000000000001,-10.489999771118164,7,8
1697465365.77934504,28839293,0.4779071509838104,0.0,0.4909105896949768,0.5,-10.500999450683594,-10.50472354888916,-10.577478408813477,9.65,9.370000000000001,-10.489999771118164,7,8
1697465365.87930512,28939253,0.4705228805541992,0.0,0.481882244348526,0.5,-10.494466781616211,-10.49793529510498,-10.583358764648438,9.65,9.370000000000001,-10.479999542236328,7,8
1697465365.97926497,29039213,0.4626927971839905,0.0,0.472910076379776,0.5,-10.487889289855957,-10.491217613220215,-10.577775001525879,9.65,9.370000000000001,-10.479999542236328,7,8
1697465366.07922506,29139173,0.463022381067276,0.0,0.4670895040035248,0.5,-10.48128890991211,-10.484856605529785,-10.55409049987793,9.65,9.370000000000001,-10.469999313354492,7,8
1697465366.18001795,29239966,0.4611421227455139,0.0,0.46725964546203613,0.5,-10.474604606628418,-10.47839069366455,-10.560365676879883,9.65,9.370000000000001,-10.469999313354492,7,8
1697465366.27997804,29339926,0.4639369547367096,0.0,0.466701865196228,0.5,-10.467964172363281,-10.471834182739258,-10.545523643493652,9.65,9.38,-10.460000038146973,7,8
1697465366.37993813,29439886,0.46335655450820923,0.0,0.46659374237060547,0.5,-10.461356163024902,-10.465264320373535,-10.545865058898926,9.65,9.38,-10.460000038146973,7,8
1697465366.47989798,29539846,0.4660089910030365,0.0,0.4667486250400543,0.5,-10.45480728149414,-10.458929061889648,-10.522382736206055,9.65,9.38,-10.4399995803833,7,8
1697465366.57985806,29639806,0.46833115816116333,0.0,0.4653441905975342,0.5,-10.448312759399414,-10.452094078063965,-10.528946876525879,9.65,9.4,-10.4399995803833,7,8
1697465366.67981791,29739766,0.4672142565250397,0.0,0.46506017446517944,0.5,-10.441974639892578,-10.445449829101562,-10.522199630737305,9.65,9.4,-10.429999351501465,7,7
1697465366.77977800,29839726,0.46853843331336975,0.0,0.4646530747413635,0.5,-10.435770034790039,-10.439254760742188,-10.517396926879883,9.65,9.41,-10.429999351501465,7,7
1697465366.87973809,29939686,0.4719248116016388,0.0,0.4663309156894684,0.5,-10.429715156555176,-10.433534622192383,-10.496009826660156,9.65,9.41,-10.40999984741211,7,7
1697465366.97969794,30039646,0.47109705209732056,0.0,0.4672589898109436,0.5,-10.4237642288208,-10.42743968963623,-10.502830505371094,9.65,9.42,-10.40999984741211,7,7
1697465367.07965803,30139606,0.47075217962265015,0.0,0.4665120542049408,0.5,-10.417917251586914,-10.421478271484375,-10.489227294921875,9.65,9.42,-10.399999618530273,6,7
1697465367.17961812,30239566,0.47048312425613403,0.0,0.4669952392578125,0.5,-10.4121732711792,-10.415555000305176,-10.47836971282959,9.65,9.42,-10.399999618530273,6,6
1697465367.27957797,30339526,0.46736276149749756,0.0,0.4646761119365692,0.5,-10.406537055969238,-10.409364700317383,-10.470914840698242,9.65,9.44,-10.380000114440918,6,6
1697465367.37953806,30439486,0.4632781147956848,0.0,0.46128547191619873,0.5,-10.401070594787598,-10.402952194213867,-10.474586486816406,9.65,9.44,-10.380000114440918,5,6
1697465367.47949815,30539446,0.46081921458244324,0.0,0.45736628770828247,0.5,-10.395748138427734,-10.397037506103516,-10.454488754272461,9.65,9.450000000000001,-10.369999885559082,5,6
1697465367.57945800,30639406,0.46069905161857605,0.0,0.45615026354789734,0.5,-10.39057731628418,-10.391044616699219,-10.462980270385742,9.65,9.450000000000001,-10.369999885559082,5,5
1697465367.67941809,30739366,0.461088091135025,0.0,0.45570075511932373,0.5,-10.385514259338379,-10.385650634765625,-10.439838409423828,9.65,9.46,-10.359999656677246,5,5
1697465367.77937794,30839326,0.4614165425300598,0.0,0.45608967542648315,0.5,-10.380583763122559,-10.380181312561035,-10.457148551940918,9.65,9.46,-10.359999656677246,4,5
1697465367.87933803,30939286,0.46237754821777344,0.0,0.4552593529224396,0.5,-10.375777244567871,-10.375502586364746,-10.443260192871094,9.65,9.48,-10.34999942779541,4,4
1697465367.97929811,31039246,0.46691858768463135,0.0,0.4571771025657654,0.5,-10.371170997619629,-10.371448516845703,-10.44485092163086,9.65,9.49,-10.34999942779541,4,4
1697465368.07925797,31139206,0.47222593426704407,0.0,0.46132761240005493,0.5,-10.366767883300781,-10.36798095703125,-10.422063827514648,9.65,9.49,-10.34000015258789,4,4
1697465368.17921805,31239166,0.4733348488807678,0.0,0.46509239077568054,0.5,-10.362536430358887,-10.364070892333984,-10.436229705810547,9.65,9.5,-10.34000015258789,4,4
1697465368.28001094,31339959,0.4706434905529022,0.0,0.4641094207763672,0.5,-10.358451843261719,-10.360321998596191,-10.42338752746582,9.65,9.52,-10.329999923706055,4,4
1697465368.37997103,31439919,0.4700750410556793,0.0,0.4632248878479004,0.5,-10.354619026184082,-10.356619834899902,-10.4263277053833,9.65,9.52,-10.329999923706055,4,4
1697465368.47993112,31539879,0.469107985496521,0.0,0.4625490605831146,0.5,-10.350977897644043,-10.35311222076416,-10.419588088989258,9.65,9.53,-10.319999694824219,4,4
1697465368.57989097,31639839,0.46906623244285583,0.0,0.4618636965751648,0.5,-10.347512245178223,-10.349802017211914,-10.40857219696045,9.65,9.53,-10.319999694824219,4,3
1697465368.67985106,31739799,0.46791788935661316,0.0,0.4620782732963562,0.5,-10.344195365905762,-10.346305847167969,-10.414535522460938,9.65,9.540000000000001,-10.309999465942383,3,3
1697465368.77981114,31839759,0.4655202627182007,0.0,0.4599539339542389,0.5,-10.341036796569824,-10.342926979064941,-10.41623306274414,9.65,9.540000000000001,-10.309999465942383,3,3
1697465368.87977099,31939719,0.46682533621788025,0.0,0.4596460461616516,0.5,-10.338013648986816,-10.340109825134277,-10.402024269104004,9.65,9.540000000000001,-10.300000190734863,3,3
1697465368.97973108,32039679,0.4690115451812744,0.0,0.461923211812973,0.5,-10.33509635925293,-10.337408065795898,-10.401355743408203,9.65,9.540000000000001,-10.300000190734863,3,3
1697465369.07969093,32139639,0.46937093138694763,0.0,0.46370744705200195,0.5,-10.332265853881836,-10.334620475769043,-10.390922546386719,9.65,9.56,-10.300000190734863,3,3
1697465369.17965102,32239599,0.46553006768226624,0.0,0.4613431692123413,0.5,-10.329551696777344,-10.331514358520508,-10.378812789916992,9.65,9.56,-10.300000190734863,3,3
1697465369.27961111,32339559,0.4592559337615967,0.0,0.45772668719291687,0.5,-10.32699966430664,-10.327733039855957,-10.39087963104248,9.65,9.57,-10.289999961853027,2,3
1697465369.37957096,32439519,0.452822208404541,0.0,0.4509608745574951,0.5,-10.32458782196045,-10.32404613494873,-10.380293846130371,9.65,9.57,-10.289999961853027,2,3
1697465369.47953105,32539479,0.45266053080558777,0.0,0.4480343163013458,0.5,-10.322308540344238,-10.320745468139648,-10.384769439697266,9.65,9.57,-10.279999732971191,1,2
1697465369.57949114,32639439,0.45466017723083496,0.0,0.44754451513290405,0.5,-10.320141792297363,-10.318117141723633,-10.373394966125488,9.65,9.58,-10.279999732971191,1,2
1697465369.67945099,32739399,0.45821142196655273,0.0,0.4501873850822449,0.5,-10.31810188293457,-10.31590461730957,-10.370615005493164,9.65,9.58,-10.279999732971191,1,1
1697465369.77941108,32839359,0.4600207507610321,0.0,0.45322147011756897,0.5,-10.316162109375,-10.313843727111816,-10.360280990600586,9.65,9.58,-10.279999732971191,1,1
1697465369.87937093,32939319,0.4592057168483734,0.0,0.45495277643203735,0.5,-10.314308166503906,-10.311551094055176,-10.36625862121582,9.65,9.58,-10.269999504089355,1,1
1697465369.97933102,33039279,0.45688024163246155,0.0,0.45409926772117615,0.5,-10.3125,-10.30923843383789,-10.372886657714844,9.65,9.58,-10.269999504089355,0,1
1697465370.07929111,33139239,0.4583224952220917,0.0,0.45393210649490356,0.5,-10.310735702514648,-10.307510375976562,-10.3654203414917,9.65,9.58,-10.269999504089355,0,0
1697465370.17925096,33239199,0.46180105209350586,0.0,0.45572373270988464,0.5,-10.308998107910156,-10.306201934814453,-10.376688957214355,9.65,9.59,-10.269999504089355,0,0
1697465370.27921104,33339159,0.4667648673057556,0.0,0.45906925201416016,0.5,-10.307351112365723,-10.305550575256348,-10.375200271606445,9.65,9.59,-10.269999504089355,1,0
1697465370.38000393,33439952,0.4731663167476654,0.0,0.46346771717071533,0.5,-10.305776596069336,-10.305523872375488,-10.374798774719238,9.65,9.61,-10.269999504089355,1,0
1697465370.47996402,33539912,0.4749573767185211,0.0,0.4680391550064087,0.5,-10.3043794631958,-10.30578327178955,-10.35738468170166,9.65,9.61,-10.269999504089355,1,0
1697465370.57992411,33639872,0.4737834632396698,0.0,0.4676409363746643,0.5,-10.303116798400879,-10.305221557617188,-10.369016647338867,9.65,9.61,-10.269999504089355,1,1
1697465370.67988396,33739832,0.4698357880115509,0.0,0.4667942225933075,0.5,-10.301945686340332,-10.304108619689941,-10.369248390197754,9.65,9.61,-10.269999504089355,1,1
1697465370.77984405,33839792,0.4662323296070099,0.0,0.4639623761177063,0.5,-10.300837516784668,-10.303041458129883,-10.364675521850586,9.65,9.620000000000001,-10.269999504089355,1,1
1697465370.87980413,33939752,0.46382391452789307,0.0,0.4613739848136902,0.5,-10.29983901977539,-10.301840782165527,-10.348207473754883,9.65,9.620000000000001,-10.260000228881836,1,1
1697465370.97976398,34039712,0.458663672208786,0.0,0.4585047960281372,0.5,-10.298924446105957,-10.299874305725098,-10.362110137939453,9.65,9.620000000000001,-10.260000228881836,1,1
1697465371.07972407,34139672,0.45343250036239624,0.0,0.4536072909832001,0.5,-10.298069953918457,-10.297965049743652,-10.355545997619629,9.65,9.620000000000001,-10.260000228881836,0,1
1697465371.17968392,34239632,0.4526050090789795,0.0,0.45083996653556824,0.5,-10.297255516052246,-10.29627513885498,-10.351760864257812,9.65,9.620000000000001,-10.260000228881836,0,1
1697465371.27964401,34339592,0.4531092345714569,0.0,0.45029982924461365,0.5,-10.296470642089844,-10.29474925994873,-10.3567533493042,9.65,9.620000000000001,-10.260000228881836,0,0
1697465371.37960410,34439552,0.4550494849681854,0.0,0.4512249231338501,0.5,-10.295692443847656,-10.293722152709961,-10.347497940063477,9.65,9.620000000000001,-10.260000228881836,0,0
1697465371.47956395,34539512,0.4577319324016571,0.0,0.45390936732292175,0.5,-10.294944763183594,-10.292829513549805,-10.357876777648926,9.65,9.620000000000001,-10.260000228881836,0,0
1697465371.57952404,34639472,0.460551381111145,0.0,0.45642781257629395,0.5,-10.294212341308594,-10.292438507080078,-10.347317695617676,9.65,9.620000000000001,-10.260000228881836,0,0
1697465371.67948413,34739432,0.4637362062931061,0.0,0.45986440777778625,0.5,-10.293479919433594,-10.29206371307373,-10.355501174926758,9.65,9.620000000000001,-10.260000228881836,0,0
1697465371.77944398,34839392,0.4652184545993805,0.0,0.46225160360336304,0.5,-10.292747497558594,-10.29188060760498,-10.351890563964844,9.65,9.620000000000001,-10.260000228881836,0,0
1697465371.87940407,34939352,0.46691006422042847,0.0,0.4644027352333069,0.5,-10.292015075683594,-10.291718482971191,-10.349587440490723,9.65,9.620000000000001,-10.260000228881836,0,0
1697465371.97936392,35039312,0.46701329946517944,0.0,0.4657682776451111,0.5,-10.291282653808594,-10.291346549987793,-10.363887786865234,9.65,9.620000000000001,-10.260000228881836,0,0
1697465372.07932401,35139272,0.46797242760658264,0.0,0.46623826026916504,0.5,-10.290550231933594,-10.291391372680664,-10.359559059143066,9.65,9.620000000000001,-10.260000228881836,0,0
1697465372.17928410,35239232,0.46937859058380127,0.0,0.4668915867805481,0.5,-10.289817810058594,-10.291632652282715,-10.360820770263672,9.65,9.620000000000001,-10.260000228881836,1,0
1697465372.27924395,35339192,0.4641799330711365,0.0,0.46718114614486694,0.5,-10.289085388183594,-10.291857719421387,-10.364251136779785,9.65,9.620000000000001,-10.260000228881836,1,0
1697465372.38003707,35439985,0.4686925411224365,0.0,0.4669405221939087,0.5,-10.288347244262695,-10.29206371307373,-10.347057342529297,9.65,9.620000000000001,-10.260000228881836,1,1
1697465372.47999692,35539945,0.46882304549217224,0.0,0.4668433964252472,0.5,-10.287614822387695,-10.291409492492676,-10.33653736114502,9.65,9.620000000000001,-10.25,1,1
1697465372.57995701,35639905,0.46015849709510803,0.0,0.4646856188774109,0.5,-10.286882400512695,-10.289463996887207,-10.341952323913574,9.65,9.620000000000001,-10.25,1,1
1697465372.67991710,35739865,0.4491106867790222,0.0,0.45651349425315857,0.5,-10.286149978637695,-10.28687858581543,-10.353196144104004,9.65,9.620000000000001,-10.25,0,1
1697465372.77987695,35839825,0.44537386298179626,0.0,0.4489213526248932,0.5,-10.285417556762695,-10.284782409667969,-10.339715003967285,9.65,9.620000000000001,-10.25,0,1
1697465372.87983704,35939785,0.4473646283149719,0.0,0.44705867767333984,0.5,-10.284685134887695,-10.28299617767334,-10.338726997375488,9.65,9.620000000000001,-10.25,0,1
1697465372.97979712,36039745,0.4494361877441406,0.0,0.4479745328426361,0.5,-10.283952713012695,-10.281512260437012,-10.352232933044434,9.65,9.620000000000001,-10.25,0,0
1697465373.07975698,36139705,0.455222487449646,0.0,0.45093539357185364,0.5,-10.283220291137695,-10.281051635742188,-10.34860610961914,9.65,9.620000000000001,-10.25,0,0
1697465373.17971706,36239665,0.46389248967170715,0.0,0.45745378732681274,0.5,-10.282487869262695,-10.281397819519043,-10.35065746307373,9.65,9.620000000000001,-10.25,0,0
1697465373.27967691,36339625,0.47252222895622253,0.0,0.4655977487564087,0.5,-10.281755447387695,-10.282244682312012,-10.349466323852539,9.65,9.620000000000001,-10.25,0,0
1697465373.37963700,36439585,0.47081458568573,0.0,0.46807992458343506,0.5,-10.281042098999023,-10.283082008361816,-10.338722229003906,9.65,9.63,-10.25,1,0
1697465373.47959709,36539545,0.47056037187576294,0.0,0.46739810705184937,0.5,-10.280400276184082,-10.283008575439453,-10.340866088867188,9.65,9.63,-10.25,1,0
1697465373.57955694,36639505,0.46621885895729065,0.0,0.46627217531204224,0.5,-10.279810905456543,-10.282228469848633,-10.334436416625977,9.65,9.63,-10.25,1,1
1697465373.67951703,36739465,0.4592733383178711,0.0,0.4627319574356079,0.5,-10.279266357421875,-10.280810356140137,-10.34427547454834,9.65,9.63,-10.239999771118164,1,1
1697465373.77947712,36839425,0.45406436920166016,0.0,0.4571540355682373,0.5,-10.278729438781738,-10.279425621032715,-10.339534759521484,9.65,9.63,-10.239999771118164,0,1
1697465373.87943697,36939385,0.45340871810913086,0.0,0.4539327621459961,0.5,-10.278210639953613,-10.278213500976562,-10.33007526397705,9.65,9.63,-10.239999771118164,0,1
1697465373.97939706,37039345,0.4525116980075836,0.0,0.45270004868507385,0.5,-10.277722358703613,-10.276840209960938,-10.33809757232666,9.65,9.63,-10.239999771118164,0,0
1697465374.07935715,37139305,0.4522068202495575,0.0,0.4517476260662079,0.5,-10.277234077453613,-10.275774955749512,-10.327898025512695,9.65,9.63,-10.239999771118164,0,0
1697465374.17931700,37239265,0.45360174775123596,0.0,0.4523615837097168,0.5,-10.276745796203613,-10.274746894836426,-10.329839706420898,9.65,9.63,-10.239999771118164,0,0
1697465374.27927709,37339225,0.4539167284965515,0.0,0.45296722650527954,0.5,-10.276257514953613,-10.273847579956055,-10.335061073303223,9.65,9.63,-10.239999771118164,0,0
1697465374.37923694,37439185,0.45635107159614563,0.0,0.4542970061302185,0.5,-10.275769233703613,-10.273346900939941,-10.34420394897461,9.65,9.63,-10.239999771118164,0,0
1697465374.48003006,37539978,0.46203649044036865,0.0,0.45757079124450684,0.5,-10.275277137756348,-10.273661613464355,-10.331513404846191,9.65,9.63,-10.239999771118164,0,0
1697465374.57999015,37639938,0.4672231376171112,0.0,0.4614279866218567,0.5,-10.274819374084473,-10.27419376373291,-10.344632148742676,9.65,9.65,-10.239999771118164,0,0
1697465374.67995000,37739898,0.4710146486759186,0.0,0.46476075053215027,0.5,-10.274489402770996,-10.275006294250488,-10.334747314453125,9.65,9.65,-10.239999771118164,0,0
1697465374.77991009,37839858,0.5724211931228638,0.0,0.49108970165252686,0.5,-10.274087905883789,-10.275723457336426,-10.341035842895508,9.65,5.65,-10.239999771118164,1,0
1697465374.87986994,37939818,0.7803189754486084,0.0,0.6612107753753662,0.5,-10.2695951461792,-10.275374412536621,-10.341340065002441,9.65,5.65,-10.239999771118164,10,3
1697465374.97983003,38039778,0.740233302116394,0.0,0.7202627062797546,0.5,-10.25416374206543,-10.265381813049316,-10.31778335571289,9.65,5.65,-10.239999771118164,25,18
1697465375.07979012,38139738,0.7606371641159058,0.0,0.7523908019065857,0.5,-10.223799705505371,-10.237738609313965,-10.29592514038086,9.65,5.65,-10.229999542236328,42,36
1697465375.17974997,38239698,0.7922002077102661,0.0,0.7836508750915527,0.5,-10.177358627319336,-10.192235946655273,-10.252089500427246,9.65,5.65,-10.229999542236328,58,52
1697465375.27971005,38339658,0.8089810609817505,0.0,0.8064389824867249,0.5,-10.116262435913086,-10.131406784057617,-10.190861701965332,9.65,5.65,-10.179999351501465,71,64
1697465375.37967014,38439618,0.8157511949539185,0.0,0.8215983510017395,0.5,-10.04389476776123,-10.058873176574707,-10.126277923583984,9.65,5.65,-10.179999351501465,81,73
1697465375.47962999,38539578,0.8102211952209473,0.0,0.825661838054657,0.5,-9.964219093322754,-9.97866153717041,-10.052885055541992,9.65,5.65,-10.079999923706055,86,78
1697465375.57959008,38639538,0.8003929257392883,0.0,0.8243942260742188,0.5,-9.881032943725586,-9.894628524780273,-9.975359916687012,9.65,5.65,-10.079999923706055,88,80
1697465375.67954993,38739498,0.7999029159545898,0.0,0.8215252757072449,0.5,-9.7969331741333,-9.809361457824707,-9.888373374938965,9.65,5.65,-9.9399995803833,87,80
1697465375.77951002,38839458,0.7999002933502197,0.0,0.8178114295005798,0.5,-9.713265419006348,-9.7246732711792,-9.793326377868652,9.65,5.65,-9.9399995803833,86,80
1697465375.87947011,38939418,0.7914808988571167,0.0,0.8134714961051941,0.5,-9.63050365447998,-9.639223098754883,-9.721060752868652,9.65,5.66,-9.779999732971191,84,80
1697465375.97942996,39039378,0.7905292510986328,0.0,0.8092946410179138,0.5,-9.548633575439453,-9.554308891296387,-9.656797409057617,9.65,5.66,-9.779999732971191,83,79
1697465376.07939005,39139338,0.7903381586074829,0.0,0.8071114420890808,0.5,-9.467361450195312,-9.471019744873047,-9.570136070251465,9.65,5.66,-9.630000114440918,82,79
1697465376.17935014,39239298,0.7894092202186584,0.0,0.8063656687736511,0.5,-9.386392593383789,-9.388427734375,-9.492464065551758,9.65,5.71,-9.630000114440918,81,79
1697465376.27930999,39339258,0.791530191898346,0.0,0.8066518902778625,0.5,-9.305569648742676,-9.30734920501709,-9.422738075256348,9.65,5.71,-9.469999313354492,81,78
1697465376.37927008,39439218,0.7944120168685913,0.0,0.8061878085136414,0.5,-9.224745750427246,-9.227129936218262,-9.33298397064209,9.65,5.88,-9.469999313354492,81,79
1697465376.47922993,39539178,0.7982293367385864,0.0,0.8074105978012085,0.5,-9.144030570983887,-9.14724063873291,-9.256837844848633,9.65,5.88,-9.319999694824219,81,79
1697465376.58002305,39639971,0.8002344369888306,0.0,0.8087939620018005,0.5,-9.062784194946289,-9.066611289978027,-9.178328514099121,9.65,5.95,-9.319999694824219,81,79
1697465376.67998314,39739931,0.8170786499977112,0.0,0.8057257533073425,0.5,-8.982490539550781,-8.986797332763672,-9.10893440246582,9.65,6.04,-9.170000076293945,81,79
1697465376.77994299,39839891,0.8141088485717773,0.0,0.8062826991081238,0.5,-8.902811050415039,-8.907745361328125,-9.01697826385498,9.65,6.11,-9.170000076293945,80,79
1697465376.87990308,39939851,0.8154087066650391,0.0,0.8024967908859253,0.5,-8.823734283447266,-8.828782081604004,-8.951261520385742,9.65,6.19,-9.010000228881836,80,79
1697465376.97986293,40039811,0.8143566846847534,0.0,0.8016750812530518,0.5,-8.74537467956543,-8.750574111938477,-8.871376991271973,9.65,6.26,-9.010000228881836,79,78
1697465377.07982302,40139771,0.8128898739814758,0.0,0.7970748543739319,0.5,-8.667684555053711,-8.673140525817871,-8.786873817443848,9.65,6.34,-8.859999656677246,78,78
1697465377.17978311,40239731,0.8110044002532959,0.0,0.7964200377464294,0.5,-8.590778350830078,-8.596248626708984,-8.721370697021484,9.65,6.34,-8.859999656677246,78,77
1697465377.27974296,40339691,0.8090593218803406,0.0,0.7933051586151123,0.5,-8.514544486999512,-8.520235061645508,-8.63552188873291,9.65,6.5,-8.710000038146973,77,77
1697465377.37970304,40439651,0.8071926832199097,0.0,0.791097104549408,0.5,-8.439094543457031,-8.44483470916748,-8.559897422790527,9.65,6.57,-8.710000038146973,76,76
1697465377.47966313,40539611,0.8028069138526917,0.0,0.7874250411987305,0.5,-8.364520072937012,-8.370007514953613,-8.486647605895996,9.65,6.57,-8.569999694824219,75,75
1697465377.57962298,40639571,0.7893198132514954,0.0,0.7813085317611694,0.5,-8.29080867767334,-8.295927047729492,-8.420638084411621,9.65,6.8,-8.569999694824219,74,74
1697465377.67958307,40739531,0.7889396548271179,0.0,0.77503502368927,0.5,-8.218267440795898,-8.223374366760254,-8.339788436889648,9.65,6.8,-8.420000076293945,73,73
1697465377.77954292,40839491,0.7899632453918457,0.0,0.7731946110725403,0.5,-8.14712905883789,-8.152215003967285,-8.28311824798584,9.65,6.88,-8.420000076293945,72,72
1697465377.87950301,40939451,0.7784424424171448,0.0,0.7681472897529602,0.5,-8.077103614807129,-8.083253860473633,-8.207046508789062,9.65,6.96,-8.279999732971191,71,71
1697465377.97946310,41039411,0.7815964221954346,0.0,0.7652563452720642,0.5,-8.0083646774292,-8.015169143676758,-8.130091667175293,9.65,7.03,-8.279999732971191,70,70
1697465378.07942295,41139371,0.769115686416626,0.0,0.76032954454422,0.5,-7.940902233123779,-7.947902202606201,-8.078219413757324,9.65,7.11,-7.929999828338623,68,69
1697465378.17938304,41239331,0.7722437977790833,0.0,0.756304144859314,0.5,-7.874829292297363,-7.88227653503418,-8.001153945922852,9.65,7.11,-7.869999885559082,67,67
1697465378.27934313,41339291,0.7668676376342773,0.0,0.7542795538902283,0.5,-7.810040473937988,-7.817302227020264,-7.9481353759765625,9.65,7.26,-7.799999713897705,66,66
1697465378.37930298,41439251,0.7646511197090149,0.0,0.7484357953071594,0.5,-7.74641227722168,-7.754310131072998,-7.8626203536987305,9.65,7.26,-7.739999771118164,65,65
1697465378.47926307,41539211,0.7574431896209717,0.0,0.7449490427970886,0.5,-7.684151649475098,-7.691946983337402,-7.800235271453857,9.65,7.4,-7.679999828338623,63,64
1697465378.57922292,41639171,0.7496729493141174,0.0,0.7375073432922363,0.5,-7.623239517211914,-7.630070209503174,-7.750251293182373,9.65,7.4,-7.619999885559082,62,63
1697465378.68001604,41739964,0.7450850009918213,0.0,0.7324090003967285,0.5,-7.563288688659668,-7.569295883178711,-7.679611682891846,9.65,7.55,-7.549999713897705,60,61
1697465378.77997613,41839924,0.7367271780967712,0.0,0.7238509654998779,0.5,-7.5052595138549805,-7.51039981842041,-7.623856067657471,9.65,7.55,-7.5,58,60
1697465378.87993598,41939884,0.7371122241020203,0.0,0.7195627093315125,0.5,-7.448845863342285,-7.453406810760498,-7.5630669593811035,9.65,7.61,-7.440000057220459,57,58
1697465378.97989607,42039844,0.7111955285072327,0.0,0.711478590965271,0.5,-7.393791675567627,-7.398156642913818,-7.50645637512207,9.65,7.82,-7.37999963760376,55,57
1697465379.07985592,42139804,0.7115105390548706,0.0,0.7005910277366638,0.5,-7.340573787689209,-7.344823360443115,-7.443573951721191,9.65,7.98,-7.329999923706055,53,54
1697465379.17981601,42239764,0.6955455541610718,0.0,0.6874784827232361,0.5,-7.289719104766846,-7.293498516082764,-7.398820877075195,9.65,8.040000000000001,-7.279999732971191,50,52
1697465379.27977610,42339724,0.690781831741333,0.0,0.6774479150772095,0.5,-7.241580963134766,-7.244683742523193,-7.3536152839660645,9.65,8.040000000000001,-7.230000019073486,47,49
1697465379.37973595,42439684,0.6807798147201538,0.0,0.6714770197868347,0.5,-7.195878982543945,-7.198604106903076,-7.294562339782715,9.65,8.17,-7.179999828338623,45,47
1697465379.47969604,42539644,0.6744768023490906,0.0,0.6631190180778503,0.5,-7.15225076675415,-7.154463291168213,-7.244744300842285,9.65,8.17,-7.139999866485596,43,45
1697465379.57965612,42639604,0.6568817496299744,0.0,0.655992329120636,0.5,-7.110529899597168,-7.111788272857666,-7.199610233306885,9.65,8.41,-7.099999904632568,41,43
1697465379.67961597,42739564,0.6468892097473145,0.0,0.6394887566566467,0.5,-7.070793628692627,-7.070631504058838,-7.161625385284424,9.65,8.41,-7.059999942779541,38,41
1697465379.77957606,42839524,0.6466367244720459,0.0,0.6315621733665466,0.5,-7.033361911773682,-7.0318193435668945,-7.1170477867126465,9.65,8.52,-7.019999980926514,35,38
1697465379.87953591,42939484,0.631623387336731,0.0,0.6229475140571594,0.5,-6.997857570648193,-6.995107650756836,-7.0743279457092285,9.65,8.52,-6.980000019073486,33,36
1697465379.97949600,43039444,0.6316174268722534,0.0,0.6158006191253662,0.5,-6.964130878448486,-6.960384368896484,-7.056987285614014,9.65,8.57,-6.949999809265137,31,34
1697465380.07945609,43139404,0.6212900876998901,0.0,0.6093355417251587,0.5,-6.9319071769714355,-6.92761754989624,-6.998092174530029,9.65,8.620000000000001,-6.909999847412109,30,32
1697465380.17941594,43239364,0.6181088089942932,0.0,0.6040528416633606,0.5,-6.901081085205078,-6.896243095397949,-6.965573310852051,9.65,8.66,-6.87999963760376,28,31
1697465380.27937603,43339324,0.6069112420082092,0.0,0.5970438122749329,0.5,-6.871546745300293,-6.865655899047852,-6.936470985412598,9.65,8.71,-6.849999904632568,27,29
1697465380.37933612,43439284,0.6002659797668457,0.0,0.5885312557220459,0.5,-6.843254566192627,-6.835894584655762,-6.915158748626709,9.65,8.71,-6.819999694824219,25,28
1697465380.47929597,43539244,0.5971745252609253,0.0,0.5842092633247375,0.5,-6.816055774688721,-6.807991981506348,-6.883408069610596,9.65,8.81,-6.789999961853027,24,27
1697465380.57925606,43639204,0.5896657705307007,0.0,0.5773077011108398,0.5,-6.789814472198486,-6.7815842628479,-6.855220794677734,9.65,8.81,-6.769999980926514,23,25
1697465380.67921615,43739164,0.5856415033340454,0.0,0.57248854637146,0.5,-6.764641284942627,-6.75647497177124,-6.830190658569336,9.65,8.84,-6.739999771118164,22,24
1697465380.78000903,43839957,0.5838499665260315,0.0,0.5695569515228271,0.5,-6.740314960479736,-6.73237943649292,-6.816548824310303,9.65,8.88,-6.71999979019165,21,23
1697465380.87996912,43939917,0.5814297795295715,0.0,0.566413164138794,0.5,-6.717141151428223,-6.709955215454102,-6.77987003326416,9.65,8.91,-6.690000057220459,20,22
1697465380.97992897,44039877,0.5740845203399658,0.0,0.5641117095947266,0.5,-6.694883823394775,-6.688442707061768,-6.768712520599365,9.65,8.99,-6.670000076293945,19,21
1697465381.07988906,44139837,0.5699928998947144,0.0,0.5575119256973267,0.5,-6.673650741577148,-6.667900085449219,-6.73588228225708,9.65,9.02,-6.649999618530273,18,20
1697465381.17984915,44239797,0.5699796676635742,0.0,0.5537417531013489,0.5,-6.653501033782959,-6.648118019104004,-6.710911273956299,9.65,9.040000000000001,-6.62999963760376,18,19
1697465381.27980900,44339757,0.5610495805740356,0.0,0.5496737360954285,0.5,-6.634276866912842,-6.628670692443848,-6.7000532150268555,9.65,9.08,-6.609999656677246,17,18
1697465381.37976909,44439717,0.5557699799537659,0.0,0.5428367853164673,0.5,-6.6159138679504395,-6.609933376312256,-6.671635150909424,9.65,9.09,-6.589999675750732,16,18
1697465381.47972894,44539677,0.5515304803848267,0.0,0.5385116934776306,0.5,-6.598316669464111,-6.591801643371582,-6.6499786376953125,9.65,9.09,-6.579999923706055,15,17
1697465381.57968903,44639637,0.5451086759567261,0.0,0.5340853929519653,0.5,-6.581344127655029,-6.57399845123291,-6.648959636688232,9.65,9.17,-6.559999942779541,14,16
1697465381.67964911,44739597,0.5383079648017883,0.0,0.52573561668396,0.5,-6.565018177032471,-6.55731201171875,-6.620257377624512,9.65,9.17,-6.539999961853027,13,15
1697465381.77960896,44839557,0.5371749401092529,0.0,0.523015558719635,0.5,-6.549475193023682,-6.541738033294678,-6.618015766143799,9.65,9.21,-6.529999732971191,12,14
1697465381.87956905,44939517,0.5311400294303894,0.0,0.5179410576820374,0.5,-6.534661769866943,-6.527375221252441,-6.590933322906494,9.65,9.21,-6.509999752044678,12,13
1697465381.97952914,45039477,0.5293517112731934,0.0,0.5157029032707214,0.5,-6.520564079284668,-6.513787269592285,-6.587639331817627,9.65,9.24,-6.5,11,13
1697465382.07948899,45139437,0.5242919921875,0.0,0.5119276642799377,0.5,-6.507129669189453,-6.501097202301025,-6.55711030960083,9.65,9.25,-6.489999771118164,11,12
1697465382.17944908,45239397,0.5193641185760498,0.0,0.508238673210144,0.5,-6.494350433349609,-6.488491058349609,-6.56109619140625,9.65,9.28,-6.46999979019165,10,12
1697465382.27940893,45339357,0.5063685774803162,0.0,0.4992946982383728,0.5,-6.482198715209961,-6.476380348205566,-6.537315845489502,9.65,9.290000000000001,-6.460000038146973,10,11
1697465382.37936902,45439317,0.4948313236236572,0.0,0.48964470624923706,0.5,-6.470667839050293,-6.464593887329102,-6.535614490509033,9.65,9.290000000000001,-6.449999809265137,9,11
1697465382.47932911,45539277,0.4783504009246826,0.0,0.4766736924648285,0.5,-6.459662914276123,-6.453159809112549,-6.526700496673584,9.65,9.33,-6.440000057220459,8,11
1697465382.57928896,45639237,0.4728418290615082,0.0,0.4636373817920685,0.5,-6.449212551116943,-6.442577362060547,-6.51371431350708,9.65,9.33,-6.429999828338623,8,10
1697465382.67924905,45739197,0.4729999601840973,0.0,0.4605482816696167,0.5,-6.439273834228516,-6.432840347290039,-6.497923374176025,9.65,9.370000000000001,-6.420000076293945,7,9
1697465382.77920914,45839157,0.47274816036224365,0.0,0.45894864201545715,0.5,-6.429849624633789,-6.423689842224121,-6.473977088928223,9.65,9.370000000000001,-6.409999847412109,7,9
1697465382.88000202,45939950,0.470519483089447,0.0,0.45879748463630676,0.5,-6.420859336853027,-6.414322376251221,-6.475243091583252,9.65,9.4,-6.399999618530273,6,8
1697465382.97996211,46039910,0.4640837609767914,0.0,0.45412716269493103,0.5,-6.412416934967041,-6.405365943908691,-6.463513374328613,9.65,9.4,-6.389999866485596,6,7
1697465383.07992196,46139870,0.461928129196167,0.0,0.45134803652763367,0.5,-6.404431343078613,-6.396909236907959,-6.460620880126953,9.65,9.41,-6.37999963760376,5,7
1697465383.17988205,46239830,0.46141552925109863,0.0,0.4495179057121277,0.5,-6.396852493286133,-6.389271259307861,-6.445319652557373,9.65,9.42,-6.369999885559082,5,6
1697465383.27984214,46339790,0.4634389579296112,0.0,0.45061028003692627,0.5,-6.389665603637695,-6.382157325744629,-6.450915813446045,9.65,9.44,-6.369999885559082,4,6
1697465383.37980199,46439750,0.4658248722553253,0.0,0.45152223110198975,0.5,-6.382852554321289,-6.3760294914245605,-6.444944858551025,9.65,9.450000000000001,-6.359999656677246,4,5
1697465383.47976208,46539710,0.4710904657840729,0.0,0.45537427067756653,0.5,-6.3764166831970215,-6.370866775512695,-6.432896137237549,9.65,9.46,-6.359999656677246,4,4
1697465383.57972193,46639670,0.47611501812934875,0.0,0.4606494605541229,0.5,-6.3703293800354,-6.36618709564209,-6.442001819610596,9.65,9.46,-6.349999904632568,4,4
1697465383.67968202,46739630,0.4807862341403961,0.0,0.465957909822464,0.5,-6.364561557769775,-6.362168312072754,-6.414965629577637,9.65,9.46,-6.349999904632568,4,4
1697465383.77964211,46839590,0.47622624039649963,0.0,0.4676617681980133,0.5,-6.359063625335693,-6.357851505279541,-6.4217705726623535,9.65,9.48,-6.339999675750732,5,4
1697465383.87960196,46939550,0.47639840841293335,0.0,0.46675312519073486,0.5,-6.353857517242432,-6.353121280670166,-6.41351318359375,9.65,9.49,-6.339999675750732,4,4
1697465383.97956204,47039510,0.47284629940986633,0.0,0.4648496210575104,0.5,-6.348922252655029,-6.348321914672852,-6.416507720947266,9.65,9.49,-6.329999923706055,4,4
1697465384.07952213,47139470,0.47081318497657776,0.0,0.4631364941596985,0.5,-6.344233512878418,-6.343819618225098,-6.403047561645508,9.65,9.5,-6.329999923706055,4,4
1697465384.17948198,47239430,0.468302845954895,0.0,0.4604315161705017,0.5,-6.339766979217529,-6.339354038238525,-6.408683776855469,9.65,9.52,-6.319999694824219,4,4
1697465384.27944207,47339390,0.46653199195861816,0.0,0.45791730284690857,0.5,-6.335588455200195,-6.335244178771973,-6.391571044921875,9.65,9.53,-6.319999694824219,3,4
1697465384.37940192,47439350,0.4659650921821594,0.0,0.45701470971107483,0.5,-6.331701755523682,-6.331225395202637,-6.401093006134033,9.65,9.540000000000001,-6.319999694824219,3,3
1697465384.47936201,47539310,0.46595990657806396,0.0,0.45630261301994324,0.5,-6.328087329864502,-6.327627658843994,-6.386610984802246,9.65,9.540000000000001,-6.309999942779541,3,3
1697465384.57932210,47639270,0.46690988540649414,0.0,0.4575384557247162,0.5,-6.324689865112305,-6.3242669105529785,-6.3899688720703125,9.65,9.540000000000001,-6.309999942779541,3,3
1697465384.67928195,47739230,0.46724748611450195,0.0,0.4588167071342468,0.5,-6.321478366851807,-6.321195125579834,-6.366217136383057,9.65,9.540000000000001,-6.309999942779541,3,3
1697465384.77924204,47839190,0.46564918756484985,0.0,0.45987987518310547,0.5,-6.318402290344238,-6.317677974700928,-6.3712873458862305,9.65,9.540000000000001,-6.299999713897705,2,3
1697465384.88003492,47939983,0.45884278416633606,0.0,0.45579761266708374,0.5,-6.315427303314209,-6.313743591308594,-6.3746771812438965,9.65,9.56,-6.299999713897705,2,2
1697465384.97999501,48039943,0.4561229646205902,0.0,0.45105254650115967,0.5,-6.312661170959473,-6.31016731262207,-6.369763374328613,9.65,9.56,-6.299999713897705,1,2
1697465385.07995510,48139903,0.4567699432373047,0.0,0.449398010969162,0.5,-6.310056209564209,-6.307139873504639,-6.35964822769165,9.65,9.57,-6.289999961853027,1,2
1697465385.17991495,48239863,0.45850539207458496,0.0,0.4504934251308441,0.5,-6.307621955871582,-6.30436372756958,-6.368589878082275,9.65,9.57,-6.289999961853027,1,1
1697465385.27987504,48339823,0.46015632152557373,0.0,0.4515978693962097,0.5,-6.305333137512207,-6.302153587341309,-6.348915100097656,9.65,9.58,-6.289999961853027,1,1
1697465385.37983513,48439783,0.4620862901210785,0.0,0.4542444944381714,0.5,-6.303192138671875,-6.299973487854004,-6.346322536468506,9.65,9.58,-6.279999732971191,1,1
