,TimeUS,timestamp,ThI,ABst,ThO,ThH,DAlt,Alt,BAlt,DSAlt,SAlt,TAlt,DCRt,CRt,terrain_cm,sub_cm,rf_cm,signal_quality
0,8360821,1705603248.30004,0.3571317195892334,0.0,0.2016132175922393,0.5,-0.1505414545536041,-0.0682733729481697,-0.0844730511307716,-0.01,0.0,0.0,-27,-3,,,,
1,8460781,1705603248.4,0.0143232941627502,0.0,0.1156090945005416,0.5,-0.1532303392887115,-0.0757559314370155,-0.0963169634342193,-0.01,0.0,0.0,-25,-3,,,,
2,8560741,1705603248.49996,0.0337506234645843,0.0,0.0488023273646831,0.5,-0.1555211097002029,-0.0829602107405662,-0.1062547862529754,-0.01,0.0,0.0,-23,-3,,,,
3,8660701,1705603248.59992,0.0738468170166015,0.0,0.0544271580874919,0.5,-0.1574726551771164,-0.0902921259403228,-0.1075422540307045,-0.01,0.0,0.0,-21,-3,,,,
4,8760661,1705603248.69988,0.1169080436229705,0.0,0.0861366242170333,0.5,-0.1591352671384811,-0.0975246727466583,-0.1179918721318245,-0.01,0.0,0.0,-20,-3,,,,
5,8860621,1705603248.79984,0.1605504751205444,0.0,0.1259070336818695,0.5,-0.1604200154542923,-0.10471161454916,-0.1090377867221832,-0.01,0.0,0.0,-18,-3,,,,
6,8960581,1705603248.8998,0.9405718445777892,0.0,0.2824320495128631,0.5,-0.1607619673013687,-0.1133260428905487,-0.1175757348537445,-0.01,0.0,0.0,-15,-14,,,,
7,9060541,1705603248.99976,0.5674838423728943,0.0,0.5044189095497131,0.5,-0.1617899686098098,-0.1315760016441345,-0.1303595304489135,-0.01,0.0,0.0,-10,-15,,,,
8,9160501,1705603249.09972,0.624366044998169,0.0,0.5821753740310669,0.5,-0.1626657545566558,-0.1478191763162613,-0.1580707877874374,-0.01,0.0,0.0,-5,-12,,,,
9,9260461,1705603249.19968,0.4204869866371155,0.0,0.528980553150177,0.5,-0.1646908223628997,-0.1610784232616424,-0.1654862910509109,-0.01,0.0,0.0,-5,-9,,,,
10,9360421,1705603249.29964,0.2109108567237854,0.0,0.3325681686401367,0.5,-0.1744465231895446,-0.1732992082834243,-0.1637300699949264,-0.01,0.0,0.0,-16,-11,,,,
11,9460381,1705603249.3996,0.2877952754497528,0.0,0.3038545846939087,0.5,-0.1966331154108047,-0.1925886869430542,-0.1823493242263794,-0.01,0.0,0.0,-29,-23,,,,
12,9560341,1705603249.4995599,0.2674327492713928,0.0,0.2853677570819855,0.5,-0.2299917936325073,-0.2226524949073791,-0.22207111120224,-0.01,0.0,0.0,-40,-34,,,,
13,9660301,1705603249.59952,0.2521035969257355,0.0,0.267022430896759,0.5,-0.2728681862354278,-0.2627052366733551,-0.262389987707138,-0.01,0.0,0.0,-50,-43,,,,
14,9760261,1705603249.69948,0.2358637452125549,0.0,0.2492852807044983,0.5,-0.3238529860973358,-0.3125211894512176,-0.2979583740234375,-0.01,0.0,0.0,-58,-51,,,,
15,9860221,1705603249.79944,0.219668298959732,0.0,0.2331343591213226,0.5,-0.3817455172538757,-0.3698872923851013,-0.3622656166553497,-0.01,0.0,0.0,-64,-57,,,,
16,9960181,1705603249.8994,0.2068139314651489,0.0,0.2181272655725479,0.5,-0.4455231428146362,-0.4337479174137115,-0.4196779429912567,-0.01,0.0,0.0,-69,-63,,,,
17,10060141,1705603249.99936,0.1949658095836639,0.0,0.205083280801773,0.5,-0.5143140554428101,-0.5031377673149109,-0.4928666949272156,-0.01,0.0,0.0,-74,-68,,,,
18,10160101,1705603250.09932,0.1861700415611267,0.0,0.194537803530693,0.5,-0.5873762369155884,-0.5779012441635132,-0.5687930583953857,-0.01,0.0,0.0,-77,-72,,,,
19,10260061,1705603250.19928,0.1794620752334594,0.0,0.1856840997934341,0.5,-0.6640770435333252,-0.6562822461128235,-0.6356863975524902,-0.01,0.0,0.0,-80,-75,,,,
20,10360021,1705603250.29924,0.1733297705650329,0.0,0.1784102469682693,0.5,-0.7438777685165405,-0.7377287745475769,-0.6961910128593445,-0.01,0.0,0.0,-83,-78,,,,
21,10460814,1705603250.400033,0.1650134921073913,0.0,0.1710897982120514,0.5,-0.8270163536071777,-0.8217461109161377,-0.7858235239982605,-0.01,0.0,0.0,-85,-80,,,,
22,10560774,1705603250.499993,0.1575886905193328,0.0,0.1631634384393692,0.5,-0.9117251634597778,-0.9062389135360718,-0.8769339919090271,-0.01,0.0,0.0,-87,-82,,,,
23,10660734,1705603250.5999527,0.1526691317558288,0.0,0.1569903045892715,0.5,-0.9983479380607604,-0.9931529760360718,-0.9558426141738892,-0.01,0.0,0.0,-89,-84,,,,
24,10760694,1705603250.699913,0.1485201120376587,0.0,0.1523050516843795,0.5,-1.086601495742798,-1.0820053815841677,-1.0313568115234375,-0.01,0.0,0.0,-90,-86,,,,
25,10860654,1705603250.799873,0.1447114646434784,0.0,0.1479637920856475,0.5,-1.1762443780899048,-1.1717897653579712,-1.1038991212844849,-0.01,0.0,0.0,-91,-88,,,,
26,10960614,1705603250.8998327,0.1386648416519165,0.0,0.1434113681316375,0.5,-1.2670708894729614,-1.2615705728530884,-1.2008315324783323,-0.01,0.0,0.0,-93,-89,,,,
27,11060574,1705603250.999793,0.1329792737960815,0.0,0.1377618759870529,0.5,-1.3589050769805908,-1.3518657684326172,-1.3073763847351074,-0.01,0.0,0.0,-94,-90,,,,
28,11160534,1705603251.099753,0.1304343342781067,0.0,0.133146271109581,0.5,-1.4515985250473022,-1.4439480304718018,-1.3747998476028442,-0.01,0.0,0.0,-95,-92,,,,
29,11260494,1705603251.1997128,0.125501662492752,0.0,0.1297640353441238,0.5,-1.545023798942566,-1.5367003679275513,-1.4786463975906372,-0.01,0.0,0.0,-96,-93,,,,
30,11360454,1705603251.299673,0.1238589584827423,0.0,0.1260457336902618,0.5,-1.6390719413757324,-1.6303223371505735,-1.5635961294174194,-0.01,0.0,0.0,-96,-94,,,,
31,11460414,1705603251.3996327,0.1229886412620544,0.0,0.1232975721359252,0.5,-1.7336506843566897,-1.724551558494568,-1.655065417289734,-0.01,0.0,0.0,-97,-94,,,,
32,11560374,1705603251.499593,0.1215505301952362,0.0,0.1209301874041557,0.5,-1.8286828994750977,-1.819135665893555,-1.7436671257019043,-0.01,0.0,0.0,-98,-95,,,,
33,11660334,1705603251.599553,0.1183203756809234,0.0,0.1182702630758285,0.5,-1.924100637435913,-1.913848638534546,-1.8324744701385496,-0.01,0.0,0.0,-98,-96,,,,
34,11760294,1705603251.6995127,0.1112377345561981,0.0,0.1151335313916206,0.5,-2.0198464393615723,-2.0077061653137207,-1.9442689418792725,-0.01,0.0,0.0,-99,-96,,,,
35,11860254,1705603251.799473,0.1110183894634246,0.0,0.1117293760180473,0.5,-2.115872383117676,-2.1033389568328857,-2.040823459625244,-0.01,0.0,0.0,-99,-97,,,,
36,11960214,1705603251.899433,0.1102857291698455,0.0,0.1109085232019424,0.5,-2.21213698387146,-2.200118064880371,-2.1218791007995605,-0.01,0.0,0.0,-100,-98,,,,
37,12060174,1705603251.9993927,0.1105996370315551,0.0,0.1102857291698455,0.5,-2.30860447883606,-2.2969253063201904,-2.222773551940918,-0.01,0.0,0.0,-100,-98,,,,
38,12160134,1705603252.099353,0.1046687960624694,0.0,0.1087384447455406,0.5,-2.4052445888519287,-2.394507884979248,-2.329198122024536,-0.01,0.0,0.0,-99,-98,,,,
39,12260094,1705603252.1993127,0.1072569191455841,0.0,0.1083404198288917,0.5,-2.5020322799682617,-2.49179744720459,-2.418229341506958,-0.01,0.0,0.0,-99,-98,,,,
40,12360054,1705603252.299273,0.1071667373180389,0.0,0.1080102697014808,0.5,-2.598945617675781,-2.58929705619812,-2.520998001098633,-0.01,0.0,0.0,-99,-98,,,,
41,12460014,1705603252.399233,0.1034262478351593,0.0,0.1071009710431099,0.5,-2.695965528488159,-2.6870837211608887,-2.610790014266968,-0.01,0.0,0.0,-99,-98,,,,
42,12560807,1705603252.500026,0.1087637543678283,0.0,0.1068608313798904,0.5,-2.793886661529541,-2.7855687141418457,-2.7032971382141118,-0.01,0.0,0.0,-99,-98,,,,
43,12660767,1705603252.599986,0.1042685508728027,0.0,0.105863869190216,0.5,-2.89107608795166,-2.8828084468841557,-2.810051918029785,-0.01,0.0,0.0,-99,-98,,,,
44,12760727,1705603252.699946,0.1074219048023223,0.0,0.1048946753144264,0.5,-2.9883313179016118,-2.979808807373047,-2.9054951667785645,-0.01,0.0,0.0,-99,-99,,,,
45,12860687,1705603252.799906,0.1030013263225555,0.0,0.1040406748652458,0.5,-3.0856430530548096,-3.07656192779541,-3.0195353031158447,-0.01,0.0,0.0,-100,-99,,,,
46,12960647,1705603252.899866,0.1021776497364044,0.0,0.1029697433114051,0.5,-3.18300199508667,-3.173899412155152,-3.1204583644866943,-0.01,0.0,0.0,-100,-99,,,,
47,13060607,1705603252.999826,0.1004425585269928,0.0,0.1026375144720077,0.5,-3.280402183532715,-3.2721593379974365,-3.201202869415283,-0.01,0.0,0.0,-99,-99,,,,
48,13160567,1705603253.099786,0.1035816371440887,0.0,0.1029191613197326,0.5,-3.377837896347046,-3.370367288589477,-3.300743818283081,-0.01,0.0,0.0,-99,-99,,,,
49,13260527,1705603253.199746,0.1033199429512023,0.0,0.1032141521573066,0.5,-3.475302457809448,-3.4681618213653564,-3.399878025054932,-0.01,0.0,0.0,-99,-99,,,,
50,13360487,1705603253.299706,0.1016234159469604,0.0,0.1024162918329238,0.5,-3.5727927684783936,-3.5657429695129395,-3.495384931564331,-0.01,0.0,0.0,-99,-99,,,,
51,13460447,1705603253.399666,0.1035900712013244,0.0,0.1023907363414764,0.5,-3.670304775238037,-3.663178205490112,-3.594160556793213,-0.01,0.0,0.0,-99,-99,,,,
52,13560407,1705603253.499626,0.1014114022254943,0.0,0.1013764217495918,0.5,-3.767834424972534,-3.7605538368225098,-3.700157165527344,-0.01,0.0,0.0,-99,-99,,,,
53,13660367,1705603253.599586,0.099474012851715,0.0,0.1006101071834564,0.5,-3.865379095077514,-3.85829758644104,-3.8080954551696777,-0.01,0.0,0.0,-99,-99,,,,
54,13760327,1705603253.699546,0.1000961065292358,0.0,0.1012348234653472,0.5,-3.962937593460083,-3.956846475601196,-3.8931689262390137,-0.01,0.0,0.0,-99,-99,,,,
55,13860287,1705603253.799506,0.1013338863849639,0.0,0.1016580462455749,0.5,-4.0605082511901855,-4.054662704467773,-3.989619731903076,-0.01,0.0,0.0,-99,-99,,,,
56,13960247,1705603253.899466,0.1000173687934875,0.0,0.1025152057409286,0.5,-4.1580891609191895,-4.152890205383301,-4.087750911712647,-0.01,0.0,0.0,-99,-99,,,,
57,14060207,1705603253.999426,0.1021147668361663,0.0,0.1017376855015754,0.5,-4.255676746368408,-4.250722885131836,-4.20557165145874,-0.01,0.0,0.0,-99,-98,,,,
58,14160167,1705603254.099386,0.1062453091144561,0.0,0.1024204716086387,0.5,-4.353271961212158,-4.349075794219971,-4.283872127532959,-0.01,0.0,0.0,-98,-98,,,,
59,14260127,1705603254.199346,0.1058415472507476,0.0,0.1034159064292907,0.5,-4.450872898101807,-4.448180198669434,-4.394071102142334,-0.01,0.0,0.0,-98,-98,,,,
60,14360087,1705603254.299306,0.1056327223777771,0.0,0.104680597782135,0.5,-4.548480033874512,-4.546313285827637,-4.499269008636475,-0.01,0.0,0.0,-98,-98,,,,
61,14460047,1705603254.399266,0.1074965596199035,0.0,0.1050910130143165,0.5,-4.646087646484375,-4.644811153411865,-4.592123031616211,-0.01,0.0,0.0,-98,-98,,,,
62,14560007,1705603254.499226,0.1043278872966766,0.0,0.1064919009804725,0.5,-4.743703365325928,-4.743407249450684,-4.681787967681885,-0.01,0.0,0.0,-97,-98,,,,
63,14660800,1705603254.6000187,0.1055365800857544,0.0,0.1068984419107437,0.5,-4.842136383056641,-4.842300891876221,-4.785147666931152,-0.01,0.0,0.0,-97,-97,,,,
64,14760760,1705603254.699979,0.1053425073623657,0.0,0.1067414581775665,0.5,-4.939755916595459,-4.940094947814941,-4.883162498474121,-0.01,0.0,0.0,-97,-97,,,,
65,14860720,1705603254.799939,0.1067702174186706,0.0,0.1067941039800643,0.5,-5.037375450134277,-5.03790807723999,-4.9814629554748535,-0.01,0.0,0.0,-97,-97,,,,
66,14960680,1705603254.899899,0.1079718470573425,0.0,0.1073997989296913,0.5,-5.1349968910217285,-5.135751724243164,-5.0814738273620605,-0.01,0.0,0.0,-97,-97,,,,
67,15060640,1705603254.999859,0.1088013052940368,0.0,0.1069856658577919,0.5,-5.23262882232666,-5.23367166519165,-5.175408840179443,-0.01,0.0,0.0,-97,-97,,,,
68,15160600,1705603255.0998187,0.1089479327201843,0.0,0.1083134859800338,0.5,-5.330260753631592,-5.33148717880249,-5.272867679595947,-0.01,0.0,0.0,-97,-97,,,,
69,15260560,1705603255.199779,0.1098354458808898,0.0,0.1084393635392189,0.5,-5.427892684936523,-5.429064750671387,-5.383591175079346,-0.01,0.0,0.0,-97,-97,,,,
70,15360520,1705603255.299739,0.1089960932731628,0.0,0.1090421304106712,0.5,-5.525524139404297,-5.527021884918213,-5.474399566650391,-0.01,0.0,0.0,-97,-97,,,,
71,15460480,1705603255.3996987,0.1101880967617034,0.0,0.1098031848669052,0.5,-5.6231560707092285,-5.625211238861084,-5.5678229331970215,-0.01,0.0,0.0,-97,-97,,,,
72,15560440,1705603255.499659,0.1114496290683746,0.0,0.1107231378555297,0.5,-5.72078800201416,-5.723132133483887,-5.656628608703613,-0.01,0.0,0.0,-96,-97,,,,
73,15660400,1705603255.599619,0.108490914106369,0.0,0.1104198694229126,0.5,-5.818419933319092,-5.820370197296143,-5.762465953826904,-0.01,0.0,0.0,-97,-97,,,,
74,15760360,1705603255.699579,0.107325941324234,0.0,0.1089739203453064,0.5,-5.916051864624023,-5.91737174987793,-5.867878437042236,-0.01,0.0,0.0,-97,-97,,,,
75,15860320,1705603255.799539,0.109859675168991,0.0,0.1090595051646232,0.5,-6.013683319091797,-6.01483678817749,-5.961246013641357,-0.01,0.0,0.0,-97,-97,,,,
76,15960280,1705603255.8994987,0.1079317033290863,0.0,0.1090156584978103,0.5,-6.1113152503967285,-6.111857891082764,-6.05959415435791,-0.01,0.0,0.0,-97,-97,,,,
77,16060240,1705603255.999459,0.1108912825584411,0.0,0.1096028685569763,0.5,-6.20894718170166,-6.209893226623535,-6.147886753082275,-0.01,0.0,0.0,-97,-97,,,,
78,16160200,1705603256.099419,0.111508160829544,0.0,0.1105111390352249,0.5,-6.306579113006592,-6.307645320892334,-6.242086410522461,-0.01,0.0,0.0,-97,-97,,,,
79,16260160,1705603256.1993787,0.1054212749004364,0.0,0.1098853126168251,0.5,-6.404211044311523,-6.404816627502441,-6.356381416320801,-0.01,0.0,0.0,-97,-97,,,,
80,16360120,1705603256.299339,0.1089319288730621,0.0,0.1101228669285774,0.5,-6.501842498779297,-6.503130912780762,-6.440117359161377,-0.01,0.0,0.0,-97,-97,,,,
81,16460080,1705603256.399299,0.1083123683929443,0.0,0.1093790978193283,0.5,-6.5994744300842285,-6.600560665130615,-6.533994674682617,-0.01,0.0,0.0,-97,-97,,,,
82,16560040,1705603256.499259,0.1100935637950897,0.0,0.1091735959053039,0.5,-6.69710636138916,-6.697635173797607,-6.643611907958984,-0.01,0.0,0.0,-97,-97,,,,
83,16660000,1705603256.599219,0.1091513335704803,0.0,0.1091430634260177,0.5,-6.794738292694092,-6.795088768005371,-6.738289833068848,-0.01,0.0,0.0,-97,-97,,,,
84,16760793,1705603256.700012,0.1066864132881164,0.0,0.1087071672081947,0.5,-6.893183708190918,-6.893703460693359,-6.833405017852783,-0.01,0.0,0.0,-97,-97,,,,
85,16860753,1705603256.799972,0.1119118928909301,0.0,0.1087881252169609,0.5,-6.99081563949585,-6.991653919219971,-6.930788516998291,-0.01,0.0,0.0,-97,-97,,,,
86,16960713,1705603256.899932,0.1103764176368713,0.0,0.1099934056401252,0.5,-7.088447093963623,-7.089628219604492,-7.017524719238281,-0.01,0.0,0.0,-97,-97,,,,
87,17060673,1705603256.999892,0.1090735495090484,0.0,0.109705850481987,0.5,-7.186079025268555,-7.187019348144531,-7.1090474128723145,-0.01,0.0,0.0,-97,-97,,,,
88,17160633,1705603257.099852,0.1113372147083282,0.0,0.1087522655725479,0.5,-7.283710956573486,-7.283627033233643,-7.226662158966064,-0.01,0.0,0.0,-97,-97,,,,
89,17260593,1705603257.199812,0.1082632541656494,0.0,0.1081751883029937,0.5,-7.381342887878418,-7.380691528320312,-7.3167195320129395,-0.01,0.0,0.0,-97,-97,,,,
90,17360553,1705603257.299772,0.1082442700862884,0.0,0.1075889840722084,0.5,-7.47897481918335,-7.477747440338135,-7.413198947906494,-0.01,0.0,0.0,-98,-97,,,,
91,17460513,1705603257.399732,0.1043903827667236,0.0,0.1065481454133987,0.5,-7.576606273651123,-7.574520111083984,-7.514726638793945,-0.01,0.0,0.0,-98,-97,,,,
92,17560473,1705603257.499692,0.1029461324214935,0.0,0.1053468585014343,0.5,-7.674238204956055,-7.671375751495361,-7.61168622970581,-0.01,0.0,0.0,-98,-98,,,,
93,17660433,1705603257.599652,0.1008336544036865,0.0,0.1038496121764183,0.5,-7.771870136260986,-7.768476009368896,-7.699623107910156,-0.01,0.0,0.0,-98,-98,,,,
94,17760393,1705603257.699612,0.1037272214889526,0.0,0.1029698699712753,0.5,-7.869502067565918,-7.865437507629394,-7.80769681930542,-0.01,0.0,0.0,-98,-98,,,,
95,17860353,1705603257.799572,0.1043167412281036,0.0,0.1025524362921714,0.5,-7.96713399887085,-7.962592601776123,-7.903621673583984,-0.01,0.0,0.0,-99,-98,,,,
96,17960313,1705603257.899532,0.1001117825508117,0.0,0.1013519242405891,0.5,-8.064765930175781,-8.06010913848877,-7.990933418273926,-0.01,0.0,0.0,-99,-98,,,,
97,18060273,1705603257.999492,0.10057133436203,0.0,0.100158005952835,0.5,-8.162397384643555,-8.156643867492676,-8.103160858154297,-0.01,0.0,0.0,-99,-98,,,,
98,18160233,1705603258.099452,0.024767518043518,0.0,0.0267198421061038,0.5,-8.255147933959961,-8.159396171569824,-8.19497013092041,-0.01,0.0,0.0,-126,-112,,,,
99,18260193,1705603258.199412,-0.0075606107711791,0.0,0.0280867349356412,0.5,-8.340575218200684,-8.274580955505371,-8.336893081665039,-0.01,0.0,0.0,-117,-117,,,,
100,18360153,1705603258.299372,0.0538204908370971,0.0,0.0428673215210437,0.5,-8.438207626342773,-8.391561508178711,-8.437049865722656,-0.01,0.0,0.0,-111,-114,,,,
101,18460113,1705603258.399332,0.0912744104862213,0.0,0.0645086392760276,0.5,-8.535839080810547,-8.506389617919922,-8.544078826904297,-0.01,0.0,0.0,-106,-110,,,,
102,18560073,1705603258.499292,0.0968451797962188,0.0,0.080812394618988,0.5,-8.633471488952637,-8.615784645080566,-8.661096572875977,-0.01,0.0,0.0,-102,-106,,,,
103,18660033,1705603258.599252,0.096732884645462,0.0,0.0906709283590316,0.5,-8.73110294342041,-8.721525192260742,-8.767154693603516,-0.01,0.0,0.0,-100,-103,,,,
104,18760826,1705603258.700045,0.0991694629192352,0.0,0.0968429818749427,0.5,-8.829547882080078,-8.825496673583984,-8.879712104797363,-0.01,0.0,0.0,-98,-101,,,,
105,18860786,1705603258.8000047,0.1037013828754425,0.0,0.1009709015488624,0.5,-8.927180290222168,-8.927042007446289,-8.975560188293457,-0.01,0.0,0.0,-97,-100,,,,
106,18960746,1705603258.899965,0.1081418097019195,0.0,0.1050224155187606,0.5,-9.02481174468994,-9.027485847473145,-9.070183753967283,-0.01,0.0,0.0,-96,-99,,,,
107,19060706,1705603258.999925,0.1103175580501556,0.0,0.1078598126769065,0.5,-9.122444152832031,-9.1267671585083,-9.168931007385254,-0.01,0.0,0.0,-96,-98,,,,
108,19160666,1705603259.0998847,0.1076450943946838,0.0,0.1090960577130317,0.5,-9.220075607299805,-9.225049018859863,-9.267234802246094,-0.01,0.0,0.0,-96,-97,,,,
109,19260626,1705603259.199845,0.1119489669799804,0.0,0.1103042438626289,0.5,-9.317707061767578,-9.322675704956056,-9.371256828308104,-0.01,0.0,0.0,-96,-97,,,,
110,19360586,1705603259.2998047,0.1085970997810363,0.0,0.1106223836541175,0.5,-9.415339469909668,-9.42013931274414,-9.455490112304688,-0.01,0.0,0.0,-96,-97,,,,
111,19460546,1705603259.399765,0.1088381111621856,0.0,0.1098703667521476,0.5,-9.51297092437744,-9.51710033416748,-9.557785987854004,-0.01,0.0,0.0,-96,-97,,,,
112,19560506,1705603259.499725,0.1101275384426117,0.0,0.1093553751707077,0.5,-9.610603332519531,-9.613739013671877,-9.665230751037598,-0.01,0.0,0.0,-96,-97,,,,
113,19660466,1705603259.5996847,0.1092194020748138,0.0,0.1092442572116851,0.5,-9.708234786987305,-9.71081829071045,-9.760101318359377,-0.01,0.0,0.0,-96,-97,,,,
114,19760426,1705603259.699645,0.1062278747558593,0.0,0.1086906790733337,0.5,-9.805866241455078,-9.808378219604492,-9.848241806030272,-0.01,0.0,0.0,-96,-97,,,,
115,19860386,1705603259.799605,0.1076736450195312,0.0,0.1087040528655052,0.5,-9.903498649597168,-9.905805587768556,-9.94572639465332,-0.01,0.0,0.0,-96,-97,,,,
116,19960346,1705603259.8995647,0.1116544008255004,0.0,0.1087627112865448,0.5,-10.00113010406494,-10.00291919708252,-10.05339813232422,-0.01,0.0,0.0,-97,-97,,,,
117,20060306,1705603259.999525,0.1097707748413086,0.0,0.1088608726859092,0.5,-10.098762512207031,-10.09947681427002,-10.131861686706545,-0.01,0.0,0.0,-97,-97,,,,
118,20160266,1705603260.0994847,0.1057501435279846,0.0,0.1077202409505844,0.5,-10.196393966674805,-10.196553230285645,-10.245153427124023,-0.01,0.0,0.0,-97,-97,,,,
119,20260226,1705603260.199445,0.1067675352096557,0.0,0.1065452098846435,0.5,-10.294039726257324,-10.293749809265137,-10.345972061157228,-0.01,0.0,0.0,-97,-97,,,,
120,20360186,1705603260.299405,0.1072236895561218,0.0,0.1073053851723671,0.5,-10.391695976257324,-10.391563415527344,-10.430949211120604,-0.01,0.0,0.0,-97,-97,,,,
121,20460146,1705603260.3993647,0.1665184497833252,0.0,0.1193712279200553,0.5,-10.489265441894531,-10.48927116394043,-10.540544509887695,-0.01,0.0,0.0,-97,-97,,,,
122,20560106,1705603260.499325,0.2376814484596252,0.0,0.1763102859258651,0.5,-10.583422660827637,-10.584664344787598,-10.623428344726562,-0.01,0.0,0.0,-89,-90,,,,
123,20660066,1705603260.599285,0.2625973224639892,0.0,0.2324264943599701,0.5,-10.66698932647705,-10.669174194335938,-10.711118698120115,-0.01,0.0,0.0,-76,-78,,,,
124,20760026,1705603260.6992447,0.3038399517536163,0.0,0.2732005715370178,0.5,-10.738234519958496,-10.742143630981444,-10.788384437561035,-0.01,0.0,0.0,-64,-68,,,,
125,20860819,1705603260.800038,0.3395407199859619,0.0,0.3107078969478607,0.5,-10.799398422241213,-10.805678367614746,-10.842023849487305,-0.01,0.0,0.0,-54,-59,,,,
126,20960779,1705603260.899998,0.3686001300811767,0.0,0.3438577055931091,0.5,-10.851038932800291,-10.859407424926758,-10.904227256774902,-0.01,0.0,0.0,-45,-51,,,,
127,21060739,1705603260.999958,0.3939941525459289,0.0,0.3724698722362518,0.5,-10.895030975341797,-10.905083656311035,-10.942859649658203,-0.01,0.0,0.0,-37,-44,,,,
128,21160699,1705603261.099918,0.4144665896892547,0.0,0.396982192993164,0.5,-10.932507514953612,-10.943361282348633,-10.99428653717041,-0.01,0.0,0.0,-31,-38,,,,
129,21260659,1705603261.199878,0.4311484694480896,0.0,0.4166028797626495,0.5,-10.964435577392578,-10.975622177124023,-11.017285346984863,-0.01,0.0,0.0,-26,-33,,,,
130,21360619,1705603261.299838,0.4434025883674621,0.0,0.4326498210430145,0.5,-10.99163818359375,-11.002323150634766,-11.045601844787598,-0.01,0.0,0.0,-21,-28,,,,
131,21460579,1705603261.399798,0.450398325920105,0.0,0.4437370300292969,0.5,-11.014810562133787,-11.024131774902344,-11.09035301208496,-0.01,0.0,0.0,-18,-24,,,,
132,21560539,1705603261.499758,0.4567514955997467,0.0,0.4509552717208862,0.5,-11.034555435180664,-11.042831420898438,-11.11497688293457,-0.01,0.0,0.0,-15,-21,,,,
133,21660499,1705603261.599718,0.466766208410263,0.0,0.4591896831989288,0.5,-11.051377296447754,-11.05929946899414,-11.118151664733888,-0.01,0.0,0.0,-13,-18,,,,
134,21760459,1705603261.699678,0.4732679426670074,0.0,0.4682765901088714,0.5,-11.065704345703123,-11.07303237915039,-11.150985717773438,-0.01,0.0,0.0,-11,-16,,,,
135,21860419,1705603261.799638,0.4688107669353485,0.0,0.4686236083507538,0.5,-11.07790756225586,-11.084731101989746,-11.166491508483888,-0.01,0.0,0.0,-9,-13,,,,
136,21960379,1705603261.899598,0.4702275097370147,0.0,0.4692780971527099,0.5,-11.088305473327637,-11.094822883605955,-11.18344497680664,-0.01,0.0,0.0,-7,-11,,,,
137,22060339,1705603261.999558,0.4739444255828857,0.0,0.471443772315979,0.5,-11.09716510772705,-11.103717803955078,-11.181366920471191,-0.01,0.0,0.0,-6,-10,,,,
138,22160299,1705603262.099518,0.4768390655517578,0.0,0.4747825860977173,0.5,-11.104711532592772,-11.110896110534668,-11.203627586364746,-0.01,0.0,0.0,-5,-8,,,,
139,22260259,1705603262.199478,0.4767957329750061,0.0,0.4762151837348938,0.5,-11.111144065856934,-11.117158889770508,-11.19862461090088,-0.01,0.0,0.0,-4,-7,,,,
140,22360219,1705603262.299438,0.4748779833316803,0.0,0.4763486683368683,0.5,-11.116621017456056,-11.1220703125,-11.221034049987791,-0.01,0.0,0.0,-3,-6,,,,
141,22460179,1705603262.399398,0.4699330031871795,0.0,0.4731297194957733,0.5,-11.121288299560549,-11.126348495483398,-11.222902297973633,-0.01,0.0,0.0,-2,-4,,,,
142,22560139,1705603262.499358,0.464756429195404,0.0,0.4687863886356354,0.5,-11.125263214111328,-11.13005256652832,-11.233192443847656,-0.01,0.0,0.0,-2,-3,,,,
143,22660099,1705603262.599318,0.4638973772525787,0.0,0.4676454067230224,0.5,-11.128650665283203,-11.133377075195312,-11.244965553283691,-0.01,0.0,0.0,-1,-3,,,,
144,22760059,1705603262.699278,0.4652321934700012,0.0,0.4674891829490661,0.5,-11.13153839111328,-11.136829376220703,-11.239789009094238,-0.01,0.0,0.0,-1,-2,,,,
145,22860019,1705603262.799238,0.4678677320480346,0.0,0.4684332311153412,0.5,-11.133996963500977,-11.139835357666016,-11.256714820861816,-0.01,0.0,0.0,0,-2,,,,
146,22960812,1705603262.900031,0.4677357673645019,0.0,0.4677543640136719,0.5,-11.1361083984375,-11.14276123046875,-11.253570556640623,-0.01,0.0,0.0,0,-1,,,,
147,23060772,1705603262.9999907,0.4688146114349365,0.0,0.4683579504489898,0.5,-11.137890815734863,-11.145312309265137,-11.24038028717041,-0.01,0.0,0.0,0,0,,,,
148,23160732,1705603263.099951,0.4670157730579376,0.0,0.4677563309669494,0.5,-11.139408111572266,-11.146674156188965,-11.25571060180664,-0.01,0.0,0.0,0,0,,,,
149,23260692,1705603263.1999109,0.4663038849830627,0.0,0.466714859008789,0.5,-11.140700340270996,-11.147415161132812,-11.249735832214355,-0.01,0.0,0.0,0,0,,,,
150,23360652,1705603263.2998707,0.463623583316803,0.0,0.4654628038406372,0.5,-11.141801834106444,-11.147855758666992,-11.249034881591797,-0.01,0.0,0.0,0,0,,,,
151,23460612,1705603263.399831,0.4597969055175781,0.0,0.4626368284225464,0.5,-11.142740249633787,-11.147883415222168,-11.260623931884766,-0.01,0.0,0.0,0,0,,,,
152,23560572,1705603263.499791,0.4576909244060516,0.0,0.4593496024608612,0.5,-11.14353847503662,-11.148072242736816,-11.249713897705078,-0.01,0.0,0.0,0,0,,,,
153,23660532,1705603263.599751,0.458261489868164,0.0,0.4585837125778198,0.5,-11.144220352172852,-11.1482515335083,-11.248899459838867,-0.01,0.0,0.0,0,0,,,,
154,23760492,1705603263.699711,0.457182228565216,0.0,0.4580167531967163,0.5,-11.144800186157228,-11.14818000793457,-11.264242172241213,-0.01,0.0,0.0,0,0,,,,
155,23860452,1705603263.7996707,0.4580628871917724,0.0,0.4574410617351532,0.5,-11.145297050476074,-11.148548126220703,-11.27083969116211,-0.01,0.0,0.0,0,0,,,,
156,23960412,1705603263.899631,0.4645622372627258,0.0,0.4602172076702118,0.5,-11.145715713500977,-11.14982795715332,-11.266826629638672,-0.01,0.0,0.0,0,0,,,,
157,24060372,1705603263.999591,0.4737381935119629,0.0,0.4671357572078705,0.5,-11.146075248718262,-11.151626586914062,-11.27363395690918,-0.01,0.0,0.0,1,0,,,,
158,24160332,1705603264.0995507,0.4712061285972595,0.0,0.4695388972759247,0.5,-11.146380424499512,-11.153562545776367,-11.261536598205566,-0.01,0.0,0.0,1,0,,,,
159,24260292,1705603264.199511,0.4719679355621338,0.0,0.4714338779449463,0.5,-11.146639823913574,-11.154837608337402,-11.269083976745604,-0.01,0.0,0.0,2,1,,,,
160,24360252,1705603264.299471,0.4663795828819275,0.0,0.4697179496288299,0.5,-11.146862030029297,-11.155423164367676,-11.268070220947266,-0.01,0.0,0.0,2,1,,,,
161,24460212,1705603264.3994308,0.4673710465431213,0.0,0.4667007625102997,0.5,-11.147056579589844,-11.155515670776367,-11.260283470153809,-0.01,0.0,0.0,2,1,,,,
162,24560172,1705603264.499391,0.4635551869869232,0.0,0.4657359421253204,0.5,-11.147209167480469,-11.155096054077148,-11.2614164352417,-0.01,0.0,0.0,2,2,,,,
163,24660132,1705603264.5993507,0.4582626223564148,0.0,0.4619353413581848,0.5,-11.147356033325195,-11.15422821044922,-11.268284797668455,-0.01,0.0,0.0,1,2,,,,
164,24760092,1705603264.699311,0.4550212919712066,0.0,0.4575726091861725,0.5,-11.147464752197266,-11.153488159179688,-11.27230167388916,-0.01,0.0,0.0,1,2,,,,
165,24860052,1705603264.799271,0.4566247165203094,0.0,0.4561032652854919,0.5,-11.14756202697754,-11.153318405151367,-11.260087013244627,-0.01,0.0,0.0,1,1,,,,
166,24960012,1705603264.8992307,0.4601829648017883,0.0,0.4580813944339752,0.5,-11.147660255432127,-11.153289794921877,-11.259933471679688,-0.01,0.0,0.0,1,1,,,,
167,25060805,1705603265.000024,0.4609275758266449,0.0,0.459948867559433,0.5,-11.147729873657228,-11.15310764312744,-11.259387016296388,-0.01,0.0,0.0,1,1,,,,
168,25160765,1705603265.099984,0.4607933163642883,0.0,0.4606378078460693,0.5,-11.147778511047363,-11.152824401855469,-11.278315544128418,-0.01,0.0,0.0,1,1,,,,
169,25260725,1705603265.199944,0.4629164338111877,0.0,0.4610951542854309,0.5,-11.1478271484375,-11.15322208404541,-11.26576328277588,-0.01,0.0,0.0,1,1,,,,
170,25360685,1705603265.299904,0.4686964154243469,0.0,0.4649344384670257,0.5,-11.147875785827637,-11.154010772705078,-11.264164924621582,-0.01,0.0,0.0,1,1,,,,
171,25460645,1705603265.399864,0.4654955565929413,0.0,0.4670734703540802,0.5,-11.147924423217772,-11.154607772827148,-11.26754379272461,-0.01,0.0,0.0,1,1,,,,
172,25560605,1705603265.499824,0.469206154346466,0.0,0.4668051600456238,0.5,-11.147974014282228,-11.155160903930664,-11.26638126373291,-0.01,0.0,0.0,2,1,,,,
173,25660565,1705603265.599784,0.4678357541561126,0.0,0.4667145311832428,0.5,-11.148022651672363,-11.155279159545898,-11.25814151763916,-0.01,0.0,0.0,2,1,,,,
174,25760525,1705603265.699744,0.4653436839580536,0.0,0.4666421413421631,0.5,-11.148035049438477,-11.15488338470459,-11.25650405883789,-0.01,0.0,0.0,2,1,,,,
175,25860485,1705603265.799704,0.4600940346717834,0.0,0.463648647069931,0.5,-11.148035049438477,-11.153971672058104,-11.25517749786377,-0.01,0.0,0.0,1,1,,,,
176,25960445,1705603265.899664,0.4544123113155365,0.0,0.4586608111858368,0.5,-11.148035049438477,-11.152710914611816,-11.25059413909912,-0.01,0.0,0.0,1,1,,,,
177,26060405,1705603265.999624,0.4495463371276855,0.0,0.4535403549671173,0.5,-11.148035049438477,-11.151189804077148,-11.255449295043944,-0.01,0.0,0.0,0,1,,,,
178,26160365,1705603266.099584,0.4480012655258178,0.0,0.449707955121994,0.5,-11.148035049438477,-11.149937629699709,-11.252368927001951,-0.01,0.0,0.0,0,1,,,,
179,26260325,1705603266.199544,0.4501509070396423,0.0,0.4492349326610565,0.5,-11.148035049438477,-11.149102210998535,-11.240614891052246,-0.01,0.0,0.0,0,0,,,,
180,26360285,1705603266.299504,0.4516211450099945,0.0,0.4504784941673279,0.5,-11.148035049438477,-11.148194313049316,-11.257298469543455,-0.01,0.0,0.0,0,0,,,,
181,26460245,1705603266.399464,0.4535207450389862,0.0,0.451515793800354,0.5,-11.148035049438477,-11.14795970916748,-11.25034999847412,-0.01,0.0,0.0,0,0,,,,
182,26560205,1705603266.499424,0.4588043391704559,0.0,0.4551434516906738,0.5,-11.148035049438477,-11.148212432861328,-11.249578475952148,-0.01,0.0,0.0,0,0,,,,
183,26660165,1705603266.599384,0.4630810618400574,0.0,0.4596684277057647,0.5,-11.148035049438477,-11.148653030395508,-11.250388145446776,-0.01,0.0,0.0,0,0,,,,
184,26760125,1705603266.699344,0.4659142792224884,0.0,0.4632686078548431,0.5,-11.148035049438477,-11.149152755737305,-11.243895530700684,-0.01,0.0,0.0,0,0,,,,
185,26860085,1705603266.799304,0.4658590853214264,0.0,0.465349406003952,0.5,-11.148035049438477,-11.149285316467283,-11.245142936706545,-0.01,0.0,0.0,0,0,,,,
186,26960045,1705603266.899264,0.4626413285732269,0.0,0.464633971452713,0.5,-11.148035049438477,-11.14903736114502,-11.257473945617676,-0.01,0.0,0.0,0,0,,,,
187,27060005,1705603266.999224,0.4608221054077148,0.0,0.4621532559394836,0.5,-11.148035049438477,-11.149088859558104,-11.23917007446289,-0.01,0.0,0.0,0,0,,,,
188,27160798,1705603267.100017,0.459764301776886,0.0,0.4610957503318786,0.5,-11.148035049438477,-11.148694038391112,-11.25438404083252,-0.01,0.0,0.0,0,0,,,,
189,27260758,1705603267.1999767,0.4577608704566955,0.0,0.4589283764362335,0.5,-11.148035049438477,-11.148477554321287,-11.24311637878418,-0.01,0.0,0.0,0,0,,,,
190,27360718,1705603267.299937,0.4570900797843933,0.0,0.4580910801887512,0.5,-11.148035049438477,-11.148137092590332,-11.24435329437256,-0.01,0.0,0.0,0,0,,,,
191,27460678,1705603267.399897,0.4560112357139587,0.0,0.4571623504161834,0.5,-11.148035049438477,-11.147671699523926,-11.254093170166016,-0.01,0.0,0.0,0,0,,,,
192,27560638,1705603267.4998567,0.4575745463371277,0.0,0.4566526412963867,0.5,-11.148035049438477,-11.147664070129396,-11.253975868225098,-0.01,0.0,0.0,0,0,,,,
193,27660598,1705603267.599817,0.4614872932434082,0.0,0.4586399495601654,0.5,-11.148035049438477,-11.148164749145508,-11.247454643249512,-0.01,0.0,0.0,0,0,,,,
194,27760558,1705603267.699777,0.4650413990020752,0.0,0.4623723030090332,0.5,-11.148035049438477,-11.14867877960205,-11.242850303649902,-0.01,0.0,0.0,0,0,,,,
195,27860518,1705603267.7997367,0.4650022089481354,0.0,0.4645522832870483,0.5,-11.148035049438477,-11.148783683776855,-11.251177787780762,-0.01,0.0,0.0,0,0,,,,
196,27960478,1705603267.899697,0.4630727469921112,0.0,0.4638958871364593,0.5,-11.148035049438477,-11.14882755279541,-11.242430686950684,-0.01,0.0,0.0,0,0,,,,
197,28060438,1705603267.999657,0.4606315195560455,0.0,0.4624351859092712,0.5,-11.148035049438477,-11.148513793945312,-11.240324020385742,-0.01,0.0,0.0,0,0,,,,
198,28160398,1705603268.099617,0.4557607173919678,0.0,0.4593210220336914,0.5,-11.148035049438477,-11.147748947143556,-11.256192207336426,-0.01,0.0,0.0,0,0,,,,
199,28260358,1705603268.199577,0.4546127617359161,0.0,0.455821543931961,0.5,-11.148035049438477,-11.147467613220217,-11.247003555297852,-0.01,0.0,0.0,0,0,,,,
200,28360318,1705603268.2995367,0.4570059776306152,0.0,0.4560569524765014,0.5,-11.148035049438477,-11.14745807647705,-11.245765686035156,-0.01,0.0,0.0,0,0,,,,
201,28460278,1705603268.399497,0.459307849407196,0.0,0.4578114748001098,0.5,-11.148035049438477,-11.147504806518556,-11.250577926635742,-0.01,0.0,0.0,0,0,,,,
202,28560238,1705603268.499457,0.4612357020378113,0.0,0.4596950113773346,0.5,-11.148035049438477,-11.147789001464844,-11.25304126739502,-0.01,0.0,0.0,0,0,,,,
203,28660198,1705603268.5994167,0.4643864333629608,0.0,0.4619337022304535,0.5,-11.148035049438477,-11.14836883544922,-11.242371559143066,-0.01,0.0,0.0,0,0,,,,
204,28760158,1705603268.699377,0.4653816223144531,0.0,0.4643374681472778,0.5,-11.148035049438477,-11.148613929748535,-11.24850082397461,-0.01,0.0,0.0,0,0,,,,
205,28860118,1705603268.799337,0.4635007977485657,0.0,0.4642267525196075,0.5,-11.148035049438477,-11.148656845092772,-11.254889488220217,-0.01,0.0,0.0,0,0,,,,
206,28960078,1705603268.899297,0.4629089832305908,0.0,0.4633208513259887,0.5,-11.148035049438477,-11.148895263671877,-11.248337745666504,-0.01,0.0,0.0,0,0,,,,
207,29060038,1705603268.999257,0.4633301198482513,0.0,0.4634656608104706,0.5,-11.148035049438477,-11.149044036865234,-11.251776695251465,-0.01,0.0,0.0,0,0,,,,
208,29159998,1705603269.0992167,0.4626326560974121,0.0,0.4630624949932098,0.5,-11.148035049438477,-11.149134635925291,-11.25193977355957,-0.01,0.0,0.0,0,0,,,,
209,29260791,1705603269.20001,0.4624837636947632,0.0,0.4626734554767608,0.5,-11.148035049438477,-11.149236679077148,-11.25610065460205,-0.01,0.0,0.0,0,0,,,,
210,29360751,1705603269.29997,0.463613212108612,0.0,0.4628243744373321,0.5,-11.148035049438477,-11.149505615234377,-11.24783706665039,-0.01,0.0,0.0,0,0,,,,
211,29460711,1705603269.39993,0.4637221992015838,0.0,0.4635492861270904,0.5,-11.148035049438477,-11.149628639221191,-11.254009246826172,-0.01,0.0,0.0,0,0,,,,
212,29560671,1705603269.49989,0.4627223014831543,0.0,0.4631503820419311,0.5,-11.148035049438477,-11.149664878845217,-11.24453830718994,-0.01,0.0,0.0,0,0,,,,
213,29660631,1705603269.59985,0.4611556529998779,0.0,0.4624587297439575,0.5,-11.148035049438477,-11.14939022064209,-11.246807098388672,-0.01,0.0,0.0,0,0,,,,
214,29760591,1705603269.69981,0.4574911296367645,0.0,0.4599487781524658,0.5,-11.148035049438477,-11.14880084991455,-11.247936248779297,-0.01,0.0,0.0,0,0,,,,
215,29860551,1705603269.79977,0.454683780670166,0.0,0.4569752812385559,0.5,-11.148035049438477,-11.14816951751709,-11.24513816833496,-0.01,0.0,0.0,0,0,,,,
216,29960511,1705603269.89973,0.4537330567836761,0.0,0.4549530744552612,0.5,-11.148035049438477,-11.14755630493164,-11.24002456665039,-0.01,0.0,0.0,0,0,,,,
217,30060471,1705603269.99969,0.452830046415329,0.0,0.4538038372993469,0.5,-11.148035049438477,-11.146835327148438,-11.245999336242676,-0.01,0.0,0.0,0,0,,,,
218,30160431,1705603270.09965,0.4529264569282532,0.0,0.4528400301933288,0.5,-11.148035049438477,-11.1462984085083,-11.238221168518066,-0.01,0.0,0.0,0,0,,,,
219,30260391,1705603270.19961,0.4535268247127533,0.0,0.4532365202903747,0.5,-11.148035049438477,-11.145845413208008,-11.239731788635254,-0.01,0.0,0.0,0,0,,,,
220,30360351,1705603270.29957,0.4533863663673401,0.0,0.4533185660839081,0.5,-11.148035049438477,-11.14542007446289,-11.243745803833008,-0.01,0.0,0.0,0,0,,,,
221,30460311,1705603270.39953,0.4549651145935058,0.0,0.4538678228855133,0.5,-11.148035049438477,-11.145277976989746,-11.235614776611328,-0.01,0.0,0.0,0,0,,,,
222,30560271,1705603270.49949,0.4566533267498016,0.0,0.4555551409721374,0.5,-11.148035049438477,-11.145156860351562,-11.238201141357422,-0.01,0.0,0.0,0,0,,,,
223,30660231,1705603270.59945,0.4564482867717743,0.0,0.4562366008758545,0.5,-11.148035049438477,-11.144993782043455,-11.253918647766112,-0.01,0.0,0.0,0,0,,,,
224,30760191,1705603270.69941,0.4595232605934143,0.0,0.4572029709815979,0.5,-11.148035049438477,-11.14547348022461,-11.242046356201172,-0.01,0.0,0.0,0,0,,,,
225,30860151,1705603270.79937,0.4643678367137909,0.0,0.4609954357147217,0.5,-11.148035049438477,-11.14625072479248,-11.245287895202637,-0.01,0.0,0.0,0,0,,,,
226,30960111,1705603270.89933,0.4669370949268341,0.0,0.4646067917346954,0.5,-11.148035049438477,-11.146986961364746,-11.25369930267334,-0.01,0.0,0.0,0,0,,,,
227,31060071,1705603270.99929,0.4668513834476471,0.0,0.466971755027771,0.5,-11.148035049438477,-11.14791202545166,-11.256112098693848,-0.01,0.0,0.0,0,0,,,,
228,31160031,1705603271.09925,0.4675164222717285,0.0,0.4679495990276336,0.5,-11.148035049438477,-11.149018287658691,-11.243278503417969,-0.01,0.0,0.0,0,0,,,,
229,31260824,1705603271.2000427,0.4620239436626434,0.0,0.4671657085418701,0.5,-11.148035049438477,-11.149550437927246,-11.239986419677734,-0.01,0.0,0.0,0,0,,,,
230,31360784,1705603271.300003,0.4633432626724243,0.0,0.4658859074115753,0.5,-11.148035049438477,-11.149088859558104,-11.250843048095703,-0.01,0.0,0.0,0,0,,,,
231,31460744,1705603271.399963,0.4574828743934631,0.0,0.4613089561462402,0.5,-11.148035049438477,-11.148504257202148,-11.246609687805176,-0.01,0.0,0.0,0,0,,,,
232,31560704,1705603271.4999228,0.4545659124851227,0.0,0.4572271406650543,0.5,-11.148035049438477,-11.1478853225708,-11.25589370727539,-0.01,0.0,0.0,0,0,,,,
233,31660664,1705603271.599883,0.4549632668495178,0.0,0.4551988244056701,0.5,-11.148035049438477,-11.147754669189451,-11.247034072875977,-0.01,0.0,0.0,0,0,,,,
234,31760624,1705603271.6998427,0.4585644006729126,0.0,0.4564523696899414,0.5,-11.148035049438477,-11.147797584533691,-11.24086856842041,-0.01,0.0,0.0,0,0,,,,
235,31860584,1705603271.799803,0.4586751461029053,0.0,0.4582336246967315,0.5,-11.148035049438477,-11.14758014678955,-11.245760917663574,-0.01,0.0,0.0,0,0,,,,
236,31960544,1705603271.899763,0.4577351212501526,0.0,0.4581615030765533,0.5,-11.148035049438477,-11.147308349609377,-11.245928764343262,-0.01,0.0,0.0,0,0,,,,
237,32060504,1705603271.9997227,0.457429438829422,0.0,0.4576470255851745,0.5,-11.148035049438477,-11.14710521697998,-11.2571439743042,-0.01,0.0,0.0,0,0,,,,
238,32160464,1705603272.099683,0.4597841501235962,0.0,0.4579827189445495,0.5,-11.148035049438477,-11.1475191116333,-11.24661922454834,-0.01,0.0,0.0,0,0,,,,
239,32260424,1705603272.199643,0.4636038839817047,0.0,0.4610538482666015,0.5,-11.148035049438477,-11.148029327392578,-11.247862815856934,-0.01,0.0,0.0,0,0,,,,
240,32360384,1705603272.2996027,0.4649932980537414,0.0,0.4636801183223724,0.5,-11.148035049438477,-11.148426055908203,-11.247443199157717,-0.01,0.0,0.0,0,0,,,,
241,32460344,1705603272.399563,0.4645082354545593,0.0,0.4646211564540863,0.5,-11.148035049438477,-11.148638725280762,-11.251832962036133,-0.01,0.0,0.0,0,0,,,,
242,32560304,1705603272.4995227,0.4638580679893493,0.0,0.464259535074234,0.5,-11.148035049438477,-11.148839950561523,-11.2557373046875,-0.01,0.0,0.0,0,0,,,,
243,32660264,1705603272.599483,0.4641520977020263,0.0,0.463914543390274,0.5,-11.148035049438477,-11.149231910705566,-11.254595756530762,-0.01,0.0,0.0,0,0,,,,
244,32760224,1705603272.699443,0.4660090506076813,0.0,0.4646842777729034,0.5,-11.148035049438477,-11.149715423583984,-11.25553035736084,-0.01,0.0,0.0,0,0,,,,
245,32860184,1705603272.7994027,0.4675028324127197,0.0,0.4660779535770416,0.5,-11.148035049438477,-11.150224685668944,-11.2495698928833,-0.01,0.0,0.0,0,0,,,,
246,32960144,1705603272.899363,0.4664070010185241,0.0,0.4663083851337433,0.5,-11.148035049438477,-11.150379180908203,-11.245760917663574,-0.01,0.0,0.0,0,0,,,,
247,33060104,1705603272.999323,0.4625304639339447,0.0,0.4650261998176574,0.5,-11.148035049438477,-11.149967193603516,-11.255644798278809,-0.01,0.0,0.0,0,0,,,,
248,33160064,1705603273.0992827,0.4586497247219085,0.0,0.4614049792289734,0.5,-11.148035049438477,-11.149576187133787,-11.240439414978027,-0.01,0.0,0.0,0,0,,,,
249,33260024,1705603273.199243,0.4551881849765777,0.0,0.4581941664218902,0.5,-11.148035049438477,-11.148714065551758,-11.251009941101074,-0.01,0.0,0.0,0,0,,,,
250,33360817,1705603273.300036,0.4519940018653869,0.0,0.4545327723026275,0.5,-11.148035049438477,-11.147931098937988,-11.248924255371094,-0.01,0.0,0.0,0,0,,,,
251,33460777,1705603273.399996,0.45281782746315,0.0,0.4529156982898712,0.5,-11.148035049438477,-11.147439002990724,-11.244253158569336,-0.01,0.0,0.0,0,0,,,,
252,33560737,1705603273.499956,0.4544918835163116,0.0,0.4535645544528961,0.5,-11.148035049438477,-11.14708137512207,-11.252939224243164,-0.01,0.0,0.0,0,0,,,,
253,33660697,1705603273.599916,0.4569128155708313,0.0,0.4550499320030212,0.5,-11.148035049438477,-11.147153854370115,-11.246767044067385,-0.01,0.0,0.0,0,0,,,,
254,33760657,1705603273.699876,0.4609806537628174,0.0,0.4581945240497589,0.5,-11.148035049438477,-11.147497177124023,-11.243735313415527,-0.01,0.0,0.0,0,0,,,,
255,33860617,1705603273.799836,0.4628737270832062,0.0,0.4611294567584991,0.5,-11.148035049438477,-11.147723197937012,-11.241573333740234,-0.01,0.0,0.0,0,0,,,,
256,33960577,1705603273.899796,0.4614462554454803,0.0,0.4619263410568237,0.5,-11.148035049438477,-11.14763641357422,-11.240591049194336,-0.01,0.0,0.0,0,0,,,,
257,34060537,1705603273.999756,0.4582977294921875,0.0,0.4603348672389984,0.5,-11.148035049438477,-11.147201538085938,-11.256671905517578,-0.01,0.0,0.0,0,0,,,,
258,34160497,1705603274.099716,0.457219123840332,0.0,0.4578804671764374,0.5,-11.148035049438477,-11.147170066833496,-11.25636386871338,-0.01,0.0,0.0,0,0,,,,
259,34260457,1705603274.199676,0.4619539380073547,0.0,0.4588784575462341,0.5,-11.148035049438477,-11.147811889648438,-11.244132041931152,-0.01,0.0,0.0,0,0,,,,
260,34360417,1705603274.299636,0.4659637212753296,0.0,0.4629880487918854,0.5,-11.148035049438477,-11.148419380187988,-11.242573738098145,-0.01,0.0,0.0,0,0,,,,
261,34460377,1705603274.399596,0.4656140506267547,0.0,0.4651671350002289,0.5,-11.148035049438477,-11.148552894592283,-11.241512298583984,-0.01,0.0,0.0,0,0,,,,
262,34560337,1705603274.499556,0.4612217843532562,0.0,0.4638211131095886,0.5,-11.148035049438477,-11.148178100585938,-11.239482879638672,-0.01,0.0,0.0,0,0,,,,
263,34660297,1705603274.599516,0.4553442299365997,0.0,0.4596801996231079,0.5,-11.148035049438477,-11.147344589233398,-11.244348526000977,-0.01,0.0,0.0,0,0,,,,
264,34760257,1705603274.699476,0.4510876536369324,0.0,0.4546824991703033,0.5,-11.148035049438477,-11.146442413330078,-11.248517990112305,-0.01,0.0,0.0,0,0,,,,
265,34860217,1705603274.799436,0.4515996277332306,0.0,0.4519884288311004,0.5,-11.148035049438477,-11.145966529846191,-11.25099277496338,-0.01,0.0,0.0,0,0,,,,
266,34960177,1705603274.899396,0.4557810723781585,0.0,0.4532498121261596,0.5,-11.148035049438477,-11.14614486694336,-11.25776195526123,-0.01,0.0,0.0,0,0,,,,
267,35060137,1705603274.999356,0.4632072150707245,0.0,0.457945168018341,0.5,-11.148035049438477,-11.147150993347168,-11.252158164978027,-0.01,0.0,0.0,0,0,,,,
268,35160097,1705603275.099316,0.4711564183235168,0.0,0.4651146829128265,0.5,-11.148035049438477,-11.148534774780272,-11.266945838928224,-0.01,0.0,0.0,0,0,,,,
269,35260057,1705603275.199276,0.4689338207244873,0.0,0.4685629904270172,0.5,-11.148035049438477,-11.150321006774902,-11.260613441467283,-0.01,0.0,0.0,0,0,,,,
270,35360017,1705603275.299236,0.4714625775814056,0.0,0.4699877500534057,0.5,-11.148035049438477,-11.151952743530272,-11.26498031616211,-0.01,0.0,0.0,1,0,,,,
271,35460810,1705603275.4000287,0.471420556306839,0.0,0.4710405170917511,0.5,-11.148035049438477,-11.15322208404541,-11.267400741577148,-0.01,0.0,0.0,1,0,,,,
272,35560770,1705603275.499989,0.469814270734787,0.0,0.4706932008266449,0.5,-11.148035049438477,-11.154189109802246,-11.254372596740724,-0.01,0.0,0.0,1,1,,,,
273,35660730,1705603275.599949,0.4662605226039886,0.0,0.4692101776599884,0.5,-11.148035049438477,-11.154306411743164,-11.248621940612791,-0.01,0.0,0.0,1,1,,,,
274,35760690,1705603275.6999087,0.4615392088890075,0.0,0.4647881090641022,0.5,-11.148035049438477,-11.15330696105957,-11.24516773223877,-0.01,0.0,0.0,1,1,,,,
275,35860650,1705603275.799869,0.4514798820018768,0.0,0.4584719836711883,0.5,-11.148035049438477,-11.151460647583008,-11.245434761047363,-0.01,0.0,0.0,1,1,,,,
276,35960610,1705603275.899829,0.4431335926055908,0.0,0.4498556852340698,0.5,-11.148035049438477,-11.149250030517578,-11.247689247131348,-0.01,0.0,0.0,0,1,,,,
277,36060570,1705603275.999789,0.4409528076648712,0.0,0.4437390267848968,0.5,-11.148035049438477,-11.147321701049805,-11.250609397888184,-0.01,0.0,0.0,0,1,,,,
278,36160530,1705603276.099749,0.4448031485080719,0.0,0.4430005550384521,0.5,-11.148035049438477,-11.146232604980469,-11.2433443069458,-0.01,0.0,0.0,0,0,,,,
279,36260490,1705603276.1997087,0.4506110250949859,0.0,0.4466765522956848,0.5,-11.148035049438477,-11.145822525024414,-11.243745803833008,-0.01,0.0,0.0,0,0,,,,
280,36360450,1705603276.299669,0.4556903839111328,0.0,0.451594591140747,0.5,-11.148035049438477,-11.145845413208008,-11.24420166015625,-0.01,0.0,0.0,0,0,,,,
281,36460410,1705603276.399629,0.4599710702896118,0.0,0.4562574326992035,0.5,-11.148035049438477,-11.1461763381958,-11.23656940460205,-0.01,0.0,0.0,0,0,,,,
282,36560370,1705603276.4995887,0.4620080292224884,0.0,0.4600087106227875,0.5,-11.148035049438477,-11.146354675292969,-11.243913650512695,-0.01,0.0,0.0,0,0,,,,
283,36660330,1705603276.599549,0.4613785743713379,0.0,0.4611188769340515,0.5,-11.148035049438477,-11.14645767211914,-11.246698379516602,-0.01,0.0,0.0,0,0,,,,
284,36760290,1705603276.699509,0.4616552293300628,0.0,0.4613828659057617,0.5,-11.148035049438477,-11.146708488464355,-11.24801254272461,-0.01,0.0,0.0,0,0,,,,
285,36860250,1705603276.7994688,0.4635568857192993,0.0,0.462245374917984,0.5,-11.148035049438477,-11.147143363952637,-11.251235008239746,-0.01,0.0,0.0,0,0,,,,
286,36960210,1705603276.899429,0.466345727443695,0.0,0.4641315937042236,0.5,-11.148035049438477,-11.147797584533691,-11.24864387512207,-0.01,0.0,0.0,0,0,,,,
287,37060170,1705603276.9993887,0.4681098759174347,0.0,0.4664939045906067,0.5,-11.148035049438477,-11.14846897125244,-11.247899055480955,-0.01,0.0,0.0,0,0,,,,
288,37160130,1705603277.099349,0.4654388427734375,0.0,0.4665286839008331,0.5,-11.148035049438477,-11.148900985717772,-11.254085540771484,-0.01,0.0,0.0,0,0,,,,
289,37260090,1705603277.199309,0.4662742018699646,0.0,0.4668003916740417,0.5,-11.148035049438477,-11.149310111999512,-11.248000144958496,-0.01,0.0,0.0,0,0,,,,
290,37360050,1705603277.2992687,0.4659239053726196,0.0,0.4664508998394012,0.5,-11.148035049438477,-11.149459838867188,-11.257180213928224,-0.01,0.0,0.0,0,0,,,,
291,37460010,1705603277.399229,0.4650664627552032,0.0,0.4654850363731384,0.5,-11.148035049438477,-11.149724960327148,-11.239720344543455,-0.01,0.0,0.0,0,0,,,,
292,37560803,1705603277.500022,0.4623899757862091,0.0,0.4644644856452942,0.5,-11.148035049438477,-11.1493501663208,-11.239775657653809,-0.01,0.0,0.0,0,0,,,,
293,37660763,1705603277.599982,0.4556414484977722,0.0,0.4604503810405731,0.5,-11.148035049438477,-11.14829444885254,-11.230982780456545,-0.01,0.0,0.0,0,0,,,,
294,37760723,1705603277.699942,0.4472522735595703,0.0,0.4536824822425842,0.5,-11.148035049438477,-11.146471977233888,-11.245990753173828,-0.01,0.0,0.0,0,0,,,,
295,37860683,1705603277.799902,0.4429867565631866,0.0,0.4467100501060486,0.5,-11.148035049438477,-11.144972801208496,-11.239824295043944,-0.01,0.0,0.0,0,0,,,,
296,37960643,1705603277.899862,0.4456014037132263,0.0,0.4449156820774078,0.5,-11.148035049438477,-11.144021034240724,-11.238006591796877,-0.01,0.0,0.0,-1,0,,,,
297,38060603,1705603277.999822,0.4494689106941223,0.0,0.4469302296638489,0.5,-11.148035049438477,-11.14356517791748,-11.24630355834961,-0.01,0.0,0.0,-1,0,,,,
298,38160563,1705603278.099782,0.4552291929721832,0.0,0.4509661197662353,0.5,-11.148035049438477,-11.14389991760254,-11.232107162475586,-0.01,0.0,0.0,-1,-1,,,,
299,38260523,1705603278.199742,0.4603480696678161,0.0,0.4565492570400238,0.5,-11.148035049438477,-11.144353866577148,-11.242615699768066,-0.01,0.0,0.0,-1,-1,,,,
300,38360483,1705603278.299702,0.4622620642185211,0.0,0.460038810968399,0.5,-11.148035049438477,-11.144867897033691,-11.257320404052734,-0.01,0.0,0.0,0,-1,,,,
301,38460443,1705603278.399662,0.4667823314666748,0.0,0.4630851447582245,0.5,-11.148035049438477,-11.146093368530272,-11.254941940307615,-0.01,0.0,0.0,0,-1,,,,
302,38560403,1705603278.499622,0.4700727760791778,0.0,0.4678537845611572,0.5,-11.148035049438477,-11.14786148071289,-11.254638671875,-0.01,0.0,0.0,0,-1,,,,
303,38660363,1705603278.599582,0.4692409634590149,0.0,0.4690134823322296,0.5,-11.148035049438477,-11.149497032165527,-11.248924255371094,-0.01,0.0,0.0,0,0,,,,
304,38760323,1705603278.699542,0.4694531261920929,0.0,0.4688129723072052,0.5,-11.148035049438477,-11.150419235229492,-11.245083808898926,-0.01,0.0,0.0,0,0,,,,
305,38860283,1705603278.799502,0.4637562930583954,0.0,0.4670152962207794,0.5,-11.148035049438477,-11.150416374206545,-11.251826286315918,-0.01,0.0,0.0,0,0,,,,
306,38960243,1705603278.899462,0.4614892601966858,0.0,0.4644098877906799,0.5,-11.148035049438477,-11.149982452392578,-11.243577003479004,-0.01,0.0,0.0,0,0,,,,
307,39060203,1705603278.999422,0.4567125141620636,0.0,0.4604288339614868,0.5,-11.148035049438477,-11.14916706085205,-11.248907089233398,-0.01,0.0,0.0,0,0,,,,
308,39160163,1705603279.099382,0.4520965814590454,0.0,0.4556788504123688,0.5,-11.148035049438477,-11.148233413696287,-11.242838859558104,-0.01,0.0,0.0,0,0,,,,
309,39260123,1705603279.199342,0.4506552517414093,0.0,0.4525696039199829,0.5,-11.148035049438477,-11.147286415100098,-11.254254341125488,-0.01,0.0,0.0,0,0,,,,
310,39360083,1705603279.299302,0.4516642987728119,0.0,0.4511893093585968,0.5,-11.148035049438477,-11.146860122680664,-11.255939483642578,-0.01,0.0,0.0,0,0,,,,
311,39460043,1705603279.399262,0.4577269554138183,0.0,0.4538844525814056,0.5,-11.148035049438477,-11.147269248962402,-11.247544288635254,-0.01,0.0,0.0,0,0,,,,
312,39560003,1705603279.499222,0.4639983177185058,0.0,0.45940101146698,0.5,-11.148035049438477,-11.14797592163086,-11.254982948303224,-0.01,0.0,0.0,0,0,,,,
313,39660796,1705603279.6000147,0.4685068726539612,0.0,0.4645440578460693,0.5,-11.148035049438477,-11.148870468139648,-11.247215270996094,-0.01,0.0,0.0,0,0,,,,
314,39760756,1705603279.699975,0.4688674509525299,0.0,0.4668471217155456,0.5,-11.148035049438477,-11.149532318115234,-11.239184379577637,-0.01,0.0,0.0,0,0,,,,
315,39860716,1705603279.799935,0.4656857550144195,0.0,0.4669143557548523,0.5,-11.148035049438477,-11.149348258972168,-11.25497055053711,-0.01,0.0,0.0,0,0,,,,
316,39960676,1705603279.8998947,0.4603551924228668,0.0,0.4634954035282135,0.5,-11.148035049438477,-11.14901065826416,-11.239521026611328,-0.01,0.0,0.0,0,0,,,,
317,40060636,1705603279.999855,0.4568899869918823,0.0,0.459990918636322,0.5,-11.148035049438477,-11.148343086242676,-11.25766372680664,-0.01,0.0,0.0,0,0,,,,
318,40160596,1705603280.099815,0.4547364711761474,0.0,0.4563495516777038,0.5,-11.148035049438477,-11.147931098937988,-11.2406005859375,-0.01,0.0,0.0,0,0,,,,
319,40260556,1705603280.1997747,0.4554004669189453,0.0,0.4555773735046386,0.5,-11.148035049438477,-11.147550582885742,-11.25768756866455,-0.01,0.0,0.0,0,0,,,,
320,40360516,1705603280.299735,0.457145094871521,0.0,0.4559299945831299,0.5,-11.148035049438477,-11.147595405578612,-11.250810623168944,-0.01,0.0,0.0,0,0,,,,
321,40460476,1705603280.3996947,0.4619240462779999,0.0,0.4587097465991974,0.5,-11.148035049438477,-11.148073196411133,-11.24228858947754,-0.01,0.0,0.0,0,0,,,,
322,40560436,1705603280.499655,0.4640226066112518,0.0,0.4621627926826477,0.5,-11.148035049438477,-11.14832878112793,-11.244750022888184,-0.01,0.0,0.0,0,0,,,,
323,40660396,1705603280.599615,0.4622958302497864,0.0,0.4629467725753784,0.5,-11.148035049438477,-11.14824104309082,-11.249656677246094,-0.01,0.0,0.0,0,0,,,,
324,40760356,1705603280.6995747,0.4601472318172455,0.0,0.461550623178482,0.5,-11.148035049438477,-11.148117065429688,-11.245264053344728,-0.01,0.0,0.0,0,0,,,,
325,40860316,1705603280.799535,0.4590421020984649,0.0,0.4601811170578003,0.5,-11.148035049438477,-11.14791202545166,-11.251794815063477,-0.01,0.0,0.0,0,0,,,,
326,40960276,1705603280.899495,0.458815187215805,0.0,0.4591565132141113,0.5,-11.148035049438477,-11.147855758666992,-11.257576942443848,-0.01,0.0,0.0,0,0,,,,
327,41060236,1705603280.9994547,0.4615388214588165,0.0,0.4597029983997345,0.5,-11.148035049438477,-11.14830207824707,-11.243083000183104,-0.01,0.0,0.0,0,0,,,,
328,41160196,1705603281.099415,0.4643571972846985,0.0,0.4625044763088226,0.5,-11.148035049438477,-11.148637771606444,-11.25737476348877,-0.01,0.0,0.0,0,0,,,,
329,41260156,1705603281.199375,0.4651037454605102,0.0,0.4638732969760895,0.5,-11.148035049438477,-11.149062156677246,-11.251169204711914,-0.01,0.0,0.0,0,0,,,,
330,41360116,1705603281.299335,0.4667596220970154,0.0,0.4654875993728637,0.5,-11.148035049438477,-11.149532318115234,-11.244844436645508,-0.01,0.0,0.0,0,0,,,,
331,41460076,1705603281.399295,0.4651148915290832,0.0,0.4655616879463196,0.5,-11.148035049438477,-11.149540901184082,-11.250333786010742,-0.01,0.0,0.0,0,0,,,,
332,41560036,1705603281.4992547,0.4616411328315735,0.0,0.4636682868003845,0.5,-11.148035049438477,-11.149271965026855,-11.243963241577148,-0.01,0.0,0.0,0,0,,,,
333,41659996,1705603281.599215,0.4577839374542236,0.0,0.4606584906578064,0.5,-11.148035049438477,-11.148690223693848,-11.251100540161133,-0.01,0.0,0.0,0,0,,,,
334,41760789,1705603281.700008,0.4550097584724426,0.0,0.4571626782417297,0.5,-11.148035049438477,-11.14810848236084,-11.243481636047363,-0.01,0.0,0.0,0,0,,,,
335,41860749,1705603281.799968,0.4541014730930328,0.0,0.4552176594734192,0.5,-11.148035049438477,-11.147504806518556,-11.24998950958252,-0.01,0.0,0.0,0,0,,,,
336,41960709,1705603281.899928,0.4542371332645416,0.0,0.4542389512062073,0.5,-11.148035049438477,-11.147174835205078,-11.240888595581056,-0.01,0.0,0.0,0,0,,,,
337,42060669,1705603281.999888,0.4555051922798157,0.0,0.455003023147583,0.5,-11.148035049438477,-11.146821022033691,-11.240703582763672,-0.01,0.0,0.0,0,0,,,,
338,42160629,1705603282.099848,0.45526123046875,0.0,0.4554256796836853,0.5,-11.148035049438477,-11.14637279510498,-11.251714706420898,-0.01,0.0,0.0,0,0,,,,
339,42260589,1705603282.199808,0.456731766462326,0.0,0.4557631015777588,0.5,-11.148035049438477,-11.14643383026123,-11.24453830718994,-0.01,0.0,0.0,0,0,,,,
340,42360549,1705603282.299768,0.4600176513195038,0.0,0.4578615725040436,0.5,-11.148035049438477,-11.146699905395508,-11.246820449829102,-0.01,0.0,0.0,0,0,,,,
341,42460509,1705603282.399728,0.4623818397521972,0.0,0.4604017436504364,0.5,-11.148035049438477,-11.147088050842283,-11.243861198425291,-0.01,0.0,0.0,0,0,,,,
342,42560469,1705603282.499688,0.4632628858089447,0.0,0.4623760879039764,0.5,-11.148035049438477,-11.14737319946289,-11.245777130126951,-0.01,0.0,0.0,0,0,,,,
343,42660429,1705603282.599648,0.4631199538707733,0.0,0.4630614519119262,0.5,-11.148035049438477,-11.147550582885742,-11.25661563873291,-0.01,0.0,0.0,0,0,,,,
344,42760389,1705603282.699608,0.4643540382385254,0.0,0.4632790982723236,0.5,-11.148035049438477,-11.14812183380127,-11.23939609527588,-0.01,0.0,0.0,0,0,,,,
345,42860349,1705603282.799568,0.4648784399032593,0.0,0.4646220207214355,0.5,-11.148035049438477,-11.14826774597168,-11.250536918640137,-0.01,0.0,0.0,0,0,,,,
346,42960309,1705603282.899528,0.4627862572669983,0.0,0.4637778103351593,0.5,-11.148035049438477,-11.148307800292969,-11.258340835571287,-0.01,0.0,0.0,0,0,,,,
347,43060269,1705603282.999488,0.4636887907981872,0.0,0.4630864262580871,0.5,-11.148035049438477,-11.14876651763916,-11.240854263305664,-0.01,0.0,0.0,0,0,,,,
348,43160229,1705603283.099448,0.4636945426464081,0.0,0.4638544619083404,0.5,-11.148035049438477,-11.14879035949707,-11.252180099487305,-0.01,0.0,0.0,0,0,,,,
349,43260189,1705603283.199408,0.461620032787323,0.0,0.4626928269863128,0.5,-11.148035049438477,-11.148737907409668,-11.239734649658203,-0.01,0.0,0.0,0,0,,,,
350,43360149,1705603283.299368,0.4589272141456604,0.0,0.4610313773155212,0.5,-11.148035049438477,-11.148212432861328,-11.245522499084473,-0.01,0.0,0.0,0,0,,,,
351,43460109,1705603283.399328,0.4545234441757202,0.0,0.4576188027858734,0.5,-11.148035049438477,-11.147500038146973,-11.25454807281494,-0.01,0.0,0.0,0,0,,,,
352,43560069,1705603283.499288,0.4547078907489776,0.0,0.4550807178020477,0.5,-11.148035049438477,-11.147279739379885,-11.255823135375977,-0.01,0.0,0.0,0,0,,,,
353,43660029,1705603283.599248,0.4592156410217285,0.0,0.4565610587596893,0.5,-11.148035049438477,-11.147720336914062,-11.257664680480955,-0.01,0.0,0.0,0,0,,,,
354,43760822,1705603283.700041,0.4662874639034271,0.0,0.4613131582736969,0.5,-11.148035049438477,-11.148734092712402,-11.24812126159668,-0.01,0.0,0.0,0,0,,,,
355,43860782,1705603283.800001,0.4673750102519989,0.0,0.4665757119655609,0.5,-11.148035049438477,-11.14958381652832,-11.24221897125244,-0.01,0.0,0.0,0,0,,,,
356,43960742,1705603283.8999608,0.4650258719921112,0.0,0.4664724767208099,0.5,-11.148035049438477,-11.149670600891112,-11.257013320922852,-0.01,0.0,0.0,0,0,,,,
357,44060702,1705603283.999921,0.4633793830871582,0.0,0.4650937914848327,0.5,-11.148035049438477,-11.149616241455078,-11.257832527160645,-0.01,0.0,0.0,0,0,,,,
358,44160662,1705603284.0998807,0.4631482362747192,0.0,0.4634640514850616,0.5,-11.148035049438477,-11.149832725524902,-11.255356788635254,-0.01,0.0,0.0,0,0,,,,
359,44260622,1705603284.199841,0.4642919301986694,0.0,0.4637558162212372,0.5,-11.148035049438477,-11.150160789489746,-11.240501403808594,-0.01,0.0,0.0,0,0,,,,
360,44360582,1705603284.299801,0.4633107483386993,0.0,0.4643100798130035,0.5,-11.148035049438477,-11.149898529052734,-11.252293586730955,-0.01,0.0,0.0,0,0,,,,
361,44460542,1705603284.3997607,0.4587539434432983,0.0,0.4614786505699157,0.5,-11.148035049438477,-11.14933967590332,-11.258331298828123,-0.01,0.0,0.0,0,0,,,,
362,44560502,1705603284.499721,0.4574953019618988,0.0,0.4586570858955383,0.5,-11.148035049438477,-11.149137496948242,-11.247231483459473,-0.01,0.0,0.0,0,0,,,,
363,44660462,1705603284.599681,0.4589515030384063,0.0,0.45852792263031,0.5,-11.148035049438477,-11.148980140686035,-11.242100715637209,-0.01,0.0,0.0,0,0,,,,
364,44760422,1705603284.6996408,0.4574308693408966,0.0,0.4583761394023895,0.5,-11.148035049438477,-11.148465156555176,-11.234984397888184,-0.01,0.0,0.0,0,0,,,,
365,44860382,1705603284.799601,0.4532094001770019,0.0,0.4560882151126861,0.5,-11.148035049438477,-11.14736270904541,-11.237733840942385,-0.01,0.0,0.0,0,0,,,,
366,44960342,1705603284.8995607,0.4476796686649322,0.0,0.4516188204288482,0.5,-11.148035049438477,-11.145949363708496,-11.239192008972168,-0.01,0.0,0.0,0,0,,,,
367,45060302,1705603284.999521,0.4457920789718628,0.0,0.4477918744087219,0.5,-11.148035049438477,-11.144694328308104,-11.244359970092772,-0.01,0.0,0.0,-1,0,,,,
368,45160262,1705603285.099481,0.4479545056819916,0.0,0.4469722807407379,0.5,-11.148035049438477,-11.144078254699709,-11.23582649230957,-0.01,0.0,0.0,-1,0,,,,
369,45260222,1705603285.1994407,0.4526817202568054,0.0,0.4497765600681305,0.5,-11.148035049438477,-11.143888473510742,-11.230109214782717,-0.01,0.0,0.0,-1,0,,,,
370,45360182,1705603285.299401,0.4543111026287079,0.0,0.4528358280658722,0.5,-11.148035049438477,-11.143646240234377,-11.240769386291504,-0.01,0.0,0.0,-1,-1,,,,
371,45460142,1705603285.399361,0.4555803835391998,0.0,0.4542734920978546,0.5,-11.148035049438477,-11.143644332885742,-11.25225067138672,-0.01,0.0,0.0,-1,-1,,,,
372,45560102,1705603285.4993207,0.4603597819805145,0.0,0.4567546248435974,0.5,-11.148035049438477,-11.144500732421877,-11.250691413879396,-0.01,0.0,0.0,-1,-1,,,,
373,45660062,1705603285.599281,0.4688326120376587,0.0,0.4627979099750519,0.5,-11.148035049438477,-11.146037101745604,-11.244543075561523,-0.01,0.0,0.0,0,-1,,,,
374,45760022,1705603285.6992407,0.470632940530777,0.0,0.4682916104793548,0.5,-11.148035049438477,-11.14752197265625,-11.24502658843994,-0.01,0.0,0.0,0,-1,,,,
375,45860815,1705603285.800034,0.4656717777252197,0.0,0.468145340681076,0.5,-11.148035049438477,-11.148402214050291,-11.25678825378418,-0.01,0.0,0.0,0,0,,,,
