,TimeUS,timestamp,ThI,ABst,ThO,ThH,DAlt,Alt,BAlt,DSAlt,SAlt,TAlt,DCRt,CRt,terrain_z,sub_z,rf
0,8439956,1697465345.380008,0.0,0.0,0.5,0.5,0.0,-0.0653246268630027,-0.0870639383792877,0.0,0.0,-0.2299999892711639,0,-1,,,
1,8539916,1697465345.479968,0.0,0.0,0.5,0.5,0.0,-0.0712883993983268,-0.094513714313507,0.0,0.0,-0.2299999892711639,0,-1,,,
2,8639876,1697465345.579928,0.0,0.0,0.5,0.5,0.0,-0.0772147327661514,-0.0964309647679328,0.0,0.0,-0.2299999892711639,0,-1,,,
3,8739836,1697465345.679888,0.0,0.0,0.5,0.5,0.0,-0.0829471349716186,-0.1017522290349006,0.0,0.0,-0.2399999946355819,0,-1,,,
4,8839796,1697465345.779848,0.0,0.0,0.5,0.5,0.0,-0.0884787142276763,-0.1185100451111793,0.0,0.0,-0.2399999946355819,0,-1,,,
5,8939756,1697465345.879808,0.0,0.0,0.5,0.5,0.0,-0.0945194065570831,-0.1195416152477264,0.0,0.0,-0.25,0,-1,,,
6,9039716,1697465345.979768,0.0,0.0,0.5,0.5,0.0,-0.1008674129843711,-0.109929047524929,0.0,0.0,-0.25,0,-1,,,
7,9139676,1697465346.079728,0.0,0.0,0.5,0.5,0.0,-0.1065086051821708,-0.1246843114495277,0.0,0.0,-0.2599999904632568,0,-1,,,
8,9239636,1697465346.179688,0.0,0.0,0.25,0.5,0.0,-0.1182122975587844,-0.1219124644994735,0.0,0.0,-0.2599999904632568,0,-19,,,
9,9339596,1697465346.279648,0.0,0.0,0.25,0.5,0.0,-0.1501199305057525,-0.1531640589237213,0.0,0.0,-0.2699999809265136,0,-37,,,
10,9439556,1697465346.379608,0.0,0.0,0.25,0.5,0.0,-0.1971862763166427,-0.2031329721212387,0.0,0.0,-0.2699999809265136,0,-48,,,
11,9539516,1697465346.479568,0.0,0.0,0.25,0.5,0.0,-0.2536330819129944,-0.2616039514541626,0.0,0.0,-0.3199999928474426,0,-54,,,
12,9639476,1697465346.579528,0.0,0.0,0.25,0.5,0.0,-0.3156099319458008,-0.3140959739685058,0.0,0.0,-0.3199999928474426,0,-58,,,
13,9739436,1697465346.679488,0.0,0.0,0.25,0.5,0.0,-0.3799163401126861,-0.3663113713264465,0.0,0.0,-0.4099999964237213,0,-59,,,
14,9839396,1697465346.779448,0.0,0.0,0.25,0.5,0.0,-0.4457016289234161,-0.4426514804363251,0.0,0.0,-0.4099999964237213,0,-60,,,
15,9939356,1697465346.879408,0.0,0.0,0.25,0.5,0.0,-0.5124972462654114,-0.4934199750423431,0.0,0.0,-0.5299999713897705,0,-61,,,
16,10039316,1697465346.979368,0.0,0.0,0.25,0.5,0.0,-0.5794276595115662,-0.5587946176528931,0.0,0.0,-0.5299999713897705,0,-62,,,
17,10139276,1697465347.079328,0.0,0.0,0.25,0.5,0.0,-0.6467624306678772,-0.629875659942627,0.0,0.0,-0.6499999761581421,0,-62,,,
18,10239236,1697465347.179288,0.0,0.0,0.25,0.5,0.0,-0.7137811779975891,-0.6871356964111328,0.0,0.0,-0.6499999761581421,0,-62,,,
19,10339196,1697465347.279248,0.0,0.0,0.25,0.5,0.0,-0.7806443572044373,-0.7510164380073547,0.0,0.0,-0.7699999809265137,0,-63,,,
20,10439156,1697465347.379208,0.0,0.0,0.25,0.5,0.0,-0.8472285270690918,-0.8016182780265808,0.0,0.0,-0.7699999809265137,0,-63,,,
21,10539949,1697465347.4800007,0.0,0.0,0.25,0.5,0.0,-0.9134257435798644,-0.8621882796287537,0.0,0.0,-0.8899999856948853,0,-63,,,
22,10639909,1697465347.579961,0.0,0.0,0.25,0.5,0.0,-0.9778342843055724,-0.9293566942214966,0.0,0.0,-0.8899999856948853,0,-63,,,
23,10739869,1697465347.6799212,0.0,0.0,0.25,0.5,0.0,-1.0412366390228271,-1.0004113912582395,0.0,0.0,-1.0099999904632568,0,-63,,,
24,10839829,1697465347.779881,0.0,0.0,0.25,0.5,0.0,-1.1043579578399658,-1.0600669384002686,0.0,0.0,-1.0099999904632568,0,-63,,,
25,10939789,1697465347.879841,0.0,0.0,0.25,0.5,0.0,-1.1673343181610107,-1.1147018671035769,0.0,0.0,-1.1299999952316284,0,-63,,,
26,11039749,1697465347.9798007,0.0,0.0,0.25,0.5,0.0,-1.2298061847686768,-1.1785163879394531,0.0,0.0,-1.1299999952316284,0,-63,,,
27,11139709,1697465348.079761,0.0,0.0,0.25,0.5,0.0,-1.291791319847107,-1.2364604473114014,0.0,0.0,-1.25,0,-63,,,
28,11239669,1697465348.179721,0.0,0.0,0.25,0.5,0.0,-1.353291392326355,-1.2997488975524902,0.0,0.0,-1.25,0,-63,,,
29,11339629,1697465348.2796807,0.0,0.0,0.25,0.5,0.0,-1.4144071340560913,-1.355054259300232,0.0,0.0,-1.3600000143051147,0,-63,,,
30,11439589,1697465348.379641,0.0,0.0,0.25,0.5,0.0,-1.475029706954956,-1.4254815578460691,0.0,0.0,-1.3600000143051147,0,-63,,,
31,11539549,1697465348.4796011,0.0,0.0,0.25,0.5,0.0,-1.5355236530303955,-1.4919475317001345,0.0,0.0,-1.4900000095367432,0,-63,,,
32,11639509,1697465348.579561,0.0,0.0,0.25,0.5,0.0,-1.5963207483291626,-1.5393534898757937,0.0,0.0,-1.4900000095367432,0,-62,,,
33,11739469,1697465348.679521,0.0,0.0,0.25,0.5,0.0,-1.656353235244751,-1.5966215133666992,0.0,0.0,-1.5999999046325684,0,-62,,,
34,11839429,1697465348.7794807,0.0,0.0,0.25,0.5,0.0,-1.7162729501724243,-1.6721205711364746,0.0,0.0,-1.5999999046325684,0,-62,,,
35,11939389,1697465348.879441,0.0,0.0,0.25,0.5,0.0,-1.7762458324432373,-1.7338991165161133,0.0,0.0,-1.7300000190734863,0,-62,,,
36,12039349,1697465348.979401,0.0,0.0,0.25,0.5,0.0,-1.8366080522537231,-1.7931417226791382,0.0,0.0,-1.7300000190734863,0,-62,,,
37,12139309,1697465349.0793607,0.0,0.0,0.25,0.5,0.0,-1.897188186645508,-1.8448604345321653,0.0,0.0,-1.8499999046325684,0,-62,,,
38,12239269,1697465349.179321,0.0,0.0,0.25,0.5,0.0,-1.958020091056824,-1.909907579421997,0.0,0.0,-1.8499999046325684,0,-62,,,
39,12339229,1697465349.2792811,0.0,0.0,0.25,0.5,0.0,-2.018132448196411,-1.9782254695892332,0.0,0.0,-1.9799998998641968,0,-62,,,
40,12439189,1697465349.3792408,0.0,0.0,0.25,0.5,0.0,-2.078495979309082,-2.029225826263428,0.0,0.0,-1.9799998998641968,0,-61,,,
41,12539982,1697465349.480034,0.0,0.0,0.25,0.5,0.0,-2.1393167972564697,-2.1074953079223637,0.0,0.0,-2.0999999046325684,0,-61,,,
42,12639942,1697465349.579994,0.0,0.0,0.25,0.5,0.0,-2.200040817260742,-2.1641557216644287,0.0,0.0,-2.0999999046325684,0,-61,,,
43,12739902,1697465349.679954,0.0,0.0,0.25,0.5,0.0,-2.2612881660461426,-2.225231170654297,0.0,0.0,-2.220000028610229,0,-61,,,
44,12839862,1697465349.779914,0.0,0.0,0.25,0.5,0.0,-2.322804927825928,-2.2869443893432617,0.0,0.0,-2.220000028610229,0,-61,,,
45,12939822,1697465349.879874,0.0,0.0,0.25,0.5,0.0,-2.384499311447144,-2.3474442958831787,0.0,0.0,-2.3399999141693115,0,-61,,,
46,13039782,1697465349.979834,0.0,0.0,0.25,0.5,0.0,-2.4462640285491943,-2.40957260131836,0.0,0.0,-2.3399999141693115,0,-61,,,
47,13139742,1697465350.079794,0.0,0.0,0.25,0.5,0.0,-2.508143901824951,-2.4791693687438965,0.0,0.0,-2.4600000381469727,0,-61,,,
48,13239702,1697465350.179754,0.0,0.0,0.25,0.5,0.0,-2.570479393005371,-2.5385308265686035,0.0,0.0,-2.4600000381469727,0,-61,,,
49,13339662,1697465350.279714,0.0,0.0,0.25,0.5,0.0,-2.6331160068511963,-2.5944037437438965,0.0,0.0,-2.5799999237060547,0,-61,,,
50,13439622,1697465350.379674,0.0,0.0,0.25,0.5,0.0,-2.695631980895996,-2.659052848815918,0.0,0.0,-2.5799999237060547,0,-62,,,
51,13539582,1697465350.479634,0.0,0.0,0.25,0.5,0.0,-2.7580740451812744,-2.725436925888061,0.0,0.0,-2.700000047683716,0,-62,,,
52,13639542,1697465350.579594,0.0,0.0,0.25,0.5,0.0,-2.82068943977356,-2.774759292602539,0.0,0.0,-2.700000047683716,0,-62,,,
53,13739502,1697465350.679554,0.0,0.0,0.25,0.5,0.0,-2.8828930854797363,-2.8553826808929443,0.0,0.0,-2.819999933242798,0,-62,,,
54,13839462,1697465350.779514,0.0,0.0,0.25,0.5,0.0,-2.944954872131348,-2.899151086807251,0.0,0.0,-2.819999933242798,0,-62,,,
55,13939422,1697465350.879474,0.0,0.0,0.25,0.5,0.0,-3.0072078704833984,-2.9739229679107666,0.0,0.0,-2.93999981880188,0,-62,,,
56,14039382,1697465350.979434,0.0,0.0,0.25,0.5,0.0,-3.0695512294769287,-3.022739887237549,0.0,0.0,-2.93999981880188,0,-62,,,
57,14139342,1697465351.079394,0.0,0.0,0.25,0.5,0.0,-3.13151478767395,-3.089780807495117,0.0,0.0,-3.059999942779541,0,-62,,,
58,14239302,1697465351.179354,0.0,0.0,0.25,0.5,0.0,-3.193782091140747,-3.1457581520080566,0.0,0.0,-3.059999942779541,0,-62,,,
59,14339262,1697465351.279314,0.0,0.0,0.25,0.5,0.0,-3.255177497863769,-3.211770534515381,0.0,0.0,-3.169999837875366,0,-62,,,
60,14439222,1697465351.379274,0.0,0.0,0.25,0.5,0.0,-3.316441774368286,-3.2781050205230717,0.0,0.0,-3.169999837875366,0,-62,,,
61,14539182,1697465351.479234,0.0,0.0,0.25,0.5,0.0,-3.377901792526245,-3.338101863861084,0.0,0.0,-3.299999952316284,0,-62,,,
62,14639975,1697465351.580027,0.0,0.0,0.25,0.5,0.0,-3.4400084018707275,-3.3967084884643555,0.0,0.0,-3.299999952316284,0,-62,,,
63,14739935,1697465351.6799867,0.0,0.0,0.25,0.5,0.0,-3.5015292167663574,-3.4561662673950195,0.0,0.0,-3.419999837875366,0,-61,,,
64,14839895,1697465351.779947,0.0,0.0,0.25,0.5,0.0,-3.562899351119995,-3.5306880474090576,0.0,0.0,-3.419999837875366,0,-61,,,
65,14939855,1697465351.8799071,0.0,0.0,0.25,0.5,0.0,-3.6247406005859375,-3.583061933517456,0.0,0.0,-3.539999961853028,0,-61,,,
66,15039815,1697465351.9798667,0.0,0.0,0.25,0.5,0.0,-3.6866631507873535,-3.6415743827819824,0.0,0.0,-3.539999961853028,0,-61,,,
67,15139775,1697465352.079827,0.0,0.0,0.25,0.5,0.0,-3.7483510971069336,-3.7068023681640634,0.0,0.0,-3.669999837875366,0,-61,,,
68,15239735,1697465352.1797867,0.0,0.0,0.25,0.5,0.0,-3.8099782466888423,-3.768221378326416,0.0,0.0,-3.669999837875366,0,-61,,,
69,15339695,1697465352.279747,0.0,0.0,0.25,0.5,0.0,-3.871596574783325,-3.831775426864624,0.0,0.0,-3.7899999618530273,0,-61,,,
70,15439655,1697465352.379707,0.0,0.0,0.25,0.5,0.0,-3.933290719985962,-3.899192333221436,0.0,0.0,-3.7899999618530273,0,-61,,,
71,15539615,1697465352.4796667,0.0,0.0,0.25,0.5,0.0,-3.9953246116638175,-3.947776556015015,0.0,0.0,-3.899999856948853,0,-61,,,
72,15639575,1697465352.579627,0.0,0.0,0.25,0.5,0.0,-4.057061195373535,-4.0223493576049805,0.0,0.0,-3.899999856948853,0,-61,,,
73,15739535,1697465352.6795871,0.0,0.0,0.25,0.5,0.0,-4.118983745574951,-4.066145420074463,0.0,0.0,-4.029999732971191,0,-61,,,
74,15839495,1697465352.7795467,0.0,0.0,0.25,0.5,0.0,-4.180383205413818,-4.150936603546143,0.0,0.0,-4.029999732971191,0,-61,,,
75,15939455,1697465352.879507,0.0,0.0,0.25,0.5,0.0,-4.241717338562012,-4.214568614959717,0.0,0.0,-4.150000095367432,0,-61,,,
76,16039415,1697465352.979467,0.0,0.0,0.25,0.5,0.0,-4.304290771484375,-4.265670299530029,0.0,0.0,-4.150000095367432,0,-61,,,
77,16139375,1697465353.079427,0.0,0.0,0.25,0.5,0.0,-4.366909027099609,-4.333420753479004,0.0,0.0,-4.269999980926514,0,-62,,,
78,16239335,1697465353.179387,0.0,0.0,0.25,0.5,0.0,-4.429652690887451,-4.40083646774292,0.0,0.0,-4.269999980926514,0,-62,,,
79,16339295,1697465353.2793467,0.0,0.0,0.25,0.5,0.0,-4.493305683135986,-4.4607930183410645,0.0,0.0,-4.389999866485596,0,-62,,,
80,16439255,1697465353.379307,0.0,0.0,0.25,0.5,0.0,-4.556661605834961,-4.518305778503418,0.0,0.0,-4.389999866485596,0,-62,,,
81,16539215,1697465353.4792671,0.0,0.0,0.25,0.5,0.0,-4.619628429412842,-4.58429765701294,0.0,0.0,-4.509999752044678,0,-62,,,
82,16639175,1697465353.5792267,0.0,0.0,0.25,0.5,0.0,-4.682234764099121,-4.646317958831787,0.0,0.0,-4.509999752044678,0,-62,,,
83,16739968,1697465353.68002,0.0,0.0,0.25,0.5,0.0,-4.745164394378662,-4.6938910484313965,0.0,0.0,-4.630000114440918,0,-62,,,
84,16839928,1697465353.77998,0.0,0.0,0.25,0.5,0.0,-4.806857585906982,-4.76655387878418,0.0,0.0,-4.630000114440918,0,-62,,,
85,16939888,1697465353.87994,0.0,0.0,0.25,0.5,0.0,-4.868216514587402,-4.817378044128418,0.0,0.0,-4.75,0,-62,,,
86,17039848,1697465353.9799,0.0,0.0,0.25,0.5,0.0,-4.929182052612305,-4.878407955169678,0.0,0.0,-4.75,0,-62,,,
87,17139808,1697465354.07986,0.0,0.0,0.25,0.5,0.0,-4.9896321296691895,-4.949667453765869,0.0,0.0,-4.869999885559082,0,-61,,,
88,17239768,1697465354.17982,0.0,0.0,0.25,0.5,0.0,-5.050118923187256,-5.008543491363525,0.0,0.0,-4.869999885559082,0,-61,,,
89,17339728,1697465354.27978,0.0,0.0,0.25,0.5,0.0,-5.110804080963135,-5.062537670135498,0.0,0.0,-4.989999771118164,0,-61,,,
90,17439688,1697465354.37974,0.0,0.0,0.25,0.5,0.0,-5.171319961547852,-5.1341047286987305,0.0,0.0,-4.989999771118164,0,-61,,,
91,17539648,1697465354.4797,0.0,0.0,0.25,0.5,0.0,-5.231973648071289,-5.200295925140381,0.0,0.0,-5.109999656677246,0,-61,,,
92,17639608,1697465354.57966,0.0,0.0,0.25,0.5,0.0,-5.293144226074219,-5.260621070861816,0.0,0.0,-5.109999656677246,0,-61,,,
93,17739568,1697465354.67962,0.0,0.0,0.25,0.5,0.0,-5.354743480682373,-5.324297904968262,0.0,0.0,-5.230000019073486,0,-61,,,
94,17839528,1697465354.77958,0.0,0.0,0.25,0.5,0.0,-5.416695594787598,-5.370021343231201,0.0,0.0,-5.230000019073486,0,-61,,,
95,17939488,1697465354.87954,0.0,0.0,0.25,0.5,0.0,-5.47830057144165,-5.439997673034668,0.0,0.0,-5.349999904632568,0,-61,,,
96,18039448,1697465354.9795,0.0,0.0,0.25,0.5,0.0,-5.539128303527832,-5.4930925369262695,0.0,0.0,-5.349999904632568,0,-61,,,
97,18139408,1697465355.07946,0.0,0.0,0.25,0.5,0.0,-5.600152492523193,-5.556949138641357,0.0,0.0,-5.480000019073486,0,-61,,,
98,18239368,1697465355.17942,0.0,0.0,0.25,0.5,0.0,-5.660884380340576,-5.632425785064697,0.0,0.0,-5.480000019073486,0,-61,,,
99,18339328,1697465355.27938,0.0,0.0,0.25,0.5,0.0,-5.66202974319458,-5.685513973236084,0.0,0.0,-5.599999904632568,0,-61,,,
100,18439288,1697465355.37934,0.0,0.0,0.25,0.5,0.0,-5.723969459533691,-5.73725700378418,0.0,0.0,-5.599999904632568,0,-61,,,
101,18539248,1697465355.4793,0.0,0.0,0.25,0.5,0.0,-5.785038948059082,-5.798395156860352,0.0,0.0,-5.71999979019165,0,-61,,,
102,18639208,1697465355.57926,0.0,0.0,0.25,0.5,0.0,-5.845618724822998,-5.874516010284424,0.0,0.0,-5.71999979019165,0,-61,,,
103,18739168,1697465355.67922,0.0,0.0,0.25,0.5,0.0,-5.90643310546875,-5.939071178436279,0.0,0.0,-5.839999675750732,0,-61,,,
104,18839961,1697465355.780013,0.0,0.0,0.25,0.5,0.0,-5.968428611755371,-5.999445915222168,0.0,0.0,-5.839999675750732,0,-61,,,
105,18939921,1697465355.8799727,0.0,0.0,0.25,0.5,0.0,-6.030430793762207,-6.061111927032471,0.0,0.0,-5.960000038146973,0,-61,,,
106,19039881,1697465355.979933,0.0,0.0,0.25,0.5,0.0,-6.092789173126221,-6.120753288269043,0.0,0.0,-5.960000038146973,0,-61,,,
107,19139841,1697465356.079893,0.0,0.0,0.25,0.5,0.0,-6.15529727935791,-6.192175388336182,0.0,0.0,-6.079999923706055,0,-61,,,
108,19239801,1697465356.1798527,0.0,0.0,0.25,0.5,0.0,-6.218299388885498,-6.255082130432129,0.0,0.0,-6.079999923706055,0,-61,,,
109,19339761,1697465356.279813,0.0,0.0,0.25,0.5,0.0,-6.281802177429199,-6.315732479095459,0.0,0.0,-6.199999809265137,0,-61,,,
110,19439721,1697465356.3797731,0.0,0.0,0.25,0.5,0.0,-6.345541954040527,-6.363940715789795,0.0,0.0,-6.199999809265137,0,-61,,,
111,19539681,1697465356.4797328,0.0,0.0,0.25,0.5,0.0,-6.40873384475708,-6.430043697357178,0.0,0.0,-6.319999694824219,0,-62,,,
112,19639641,1697465356.579693,0.0,0.0,0.25,0.5,0.0,-6.471484184265137,-6.4900102615356445,0.0,0.0,-6.319999694824219,0,-62,,,
113,19739601,1697465356.6796527,0.0,0.0,0.25,0.5,0.0,-6.533868312835693,-6.557097434997559,0.0,0.0,-6.440000057220459,0,-62,,,
114,19839561,1697465356.779613,0.0,0.0,0.25,0.5,0.0,-6.596187114715576,-6.622368335723877,0.0,0.0,-6.440000057220459,0,-62,,,
115,19939521,1697465356.879573,0.0,0.0,0.25,0.5,0.0,-6.6586785316467285,-6.686301708221436,0.0,0.0,-6.559999942779541,0,-62,,,
116,20039481,1697465356.9795327,0.0,0.0,0.25,0.5,0.0,-6.7214202880859375,-6.745941638946533,0.0,0.0,-6.559999942779541,0,-62,,,
117,20139441,1697465357.079493,0.0,0.0,0.25,0.5,0.0,-6.783711910247803,-6.801043510437012,0.0,0.0,-6.679999828338623,0,-62,,,
118,20239401,1697465357.1794531,0.0,0.0,0.25,0.5,0.0,-6.846192359924316,-6.867502212524414,0.0,0.0,-6.679999828338623,0,-62,,,
119,20339361,1697465357.2794127,0.0,0.0,0.25,0.5,0.0,-6.908527851104736,-6.932500839233398,0.0,0.0,-6.799999713897705,0,-62,,,
120,20439321,1697465357.379373,0.0,0.0,0.25,0.5,0.0,-6.970945358276367,-6.98931360244751,0.0,0.0,-6.799999713897705,0,-62,,,
121,20539281,1697465357.4793327,0.0,0.0,0.25,0.5,0.0,-7.03372859954834,-7.0371832847595215,0.0,0.0,-6.920000076293945,0,-62,,,
122,20639241,1697465357.579293,0.0,0.0,0.25,0.5,0.0,-7.09522008895874,-7.102776527404785,0.0,0.0,-6.920000076293945,0,-62,,,
123,20739201,1697465357.679253,0.0,0.0,0.25,0.5,0.0,-7.156169414520264,-7.16621732711792,0.0,0.0,-7.039999961853027,0,-62,,,
124,20839161,1697465357.7792127,0.0,0.0,0.25,0.5,0.0,-7.21688175201416,-7.231622219085693,0.0,0.0,-7.039999961853027,0,-62,,,
125,20939954,1697465357.880006,0.0,0.0,0.25,0.5,0.0,-7.278166770935059,-7.301037311553955,0.0,0.0,-7.159999847412109,0,-61,,,
126,21039914,1697465357.979966,0.0,0.0,0.25,0.5,0.0,-7.339108943939209,-7.363575458526611,0.0,0.0,-7.159999847412109,0,-61,,,
127,21139874,1697465358.079926,0.0,0.0,0.25,0.5,0.0,-7.400241374969482,-7.4230875968933105,0.0,0.0,-7.289999961853027,0,-61,,,
128,21239834,1697465358.179886,0.0,0.0,0.25,0.5,0.0,-7.46145486831665,-7.467463970184326,0.0,0.0,-7.289999961853027,0,-61,,,
129,21339794,1697465358.279846,0.0,0.0,0.25,0.5,0.0,-7.522010326385498,-7.542272567749023,0.0,0.0,-7.409999847412109,0,-61,,,
130,21439754,1697465358.379806,0.0,0.0,0.25,0.5,0.0,-7.58228063583374,-7.598607540130615,0.0,0.0,-7.409999847412109,0,-61,,,
131,21539714,1697465358.479766,0.0,0.0,0.25,0.5,0.0,-7.642526149749756,-7.665582656860352,0.0,0.0,-7.519999980926514,0,-61,,,
132,21639674,1697465358.579726,0.0,0.0,0.25,0.5,0.0,-7.702931880950928,-7.737244129180908,0.0,0.0,-7.519999980926514,0,-61,,,
133,21739634,1697465358.679686,0.0,0.0,0.25,0.5,0.0,-7.764004230499268,-7.797891616821289,0.0,0.0,-7.649999618530273,0,-61,,,
134,21839594,1697465358.779646,0.0,0.0,0.25,0.5,0.0,-7.825748920440674,-7.860745429992676,0.0,0.0,-7.649999618530273,0,-61,,,
135,21939554,1697465358.879606,0.0,0.0,0.25,0.5,0.0,-7.887997150421143,-7.921354293823242,0.0,0.0,-7.769999980926514,0,-61,,,
136,22039514,1697465358.979566,0.0,0.0,0.25,0.5,0.0,-7.950565814971924,-7.981941223144531,0.0,0.0,-7.769999980926514,0,-61,,,
137,22139474,1697465359.079526,0.0,0.0,0.25,0.5,0.0,-8.012744903564453,-8.03101634979248,0.0,0.0,-7.889999866485596,0,-61,,,
138,22239434,1697465359.179486,0.0,0.0,0.25,0.5,0.0,-8.074970245361328,-8.096905708312988,0.0,0.0,-7.889999866485596,0,-61,,,
139,22339394,1697465359.279446,0.0,0.0,0.25,0.5,0.0,-8.136734962463379,-8.162952423095703,0.0,0.0,-8.010000228881836,0,-61,,,
140,22439354,1697465359.379406,0.0,0.0,0.25,0.5,0.0,-8.1984281539917,-8.221810340881348,0.0,0.0,-8.010000228881836,0,-61,,,
141,22539314,1697465359.479366,0.0,0.0,0.25,0.5,0.0,-8.260052680969238,-8.293339729309082,0.0,0.0,-8.119999885559082,0,-61,,,
142,22639274,1697465359.579326,0.0,0.0,0.25,0.5,0.0,-8.322478294372559,-8.349494934082031,0.0,0.0,-8.119999885559082,0,-61,,,
143,22739234,1697465359.679286,0.0,0.0,0.25,0.5,0.0,-8.3845853805542,-8.404433250427246,0.0,0.0,-8.25,0,-61,,,
144,22839194,1697465359.779246,0.0,0.0,0.25,0.5,0.0,-8.44643497467041,-8.462020874023438,0.0,0.0,-8.25,0,-61,,,
145,22939987,1697465359.8800387,0.0,0.0,0.25,0.5,0.0,-8.508302688598633,-8.541520118713379,0.0,0.0,-8.369999885559082,0,-61,,,
146,23039947,1697465359.979999,0.0,0.0,0.25,0.5,0.0,-8.56991958618164,-8.597776412963867,0.0,0.0,-8.369999885559082,0,-61,,,
147,23139907,1697465360.079959,0.0,0.0,0.25,0.5,0.0,-8.631939888000488,-8.650469779968262,0.0,0.0,-8.489999771118164,0,-61,,,
148,23239867,1697465360.179919,0.0,0.0,0.25,0.5,0.0,-8.693791389465332,-8.709763526916504,0.0,0.0,-8.489999771118164,0,-61,,,
149,23339827,1697465360.279879,0.0,0.0,0.25,0.5,0.0,-8.755227088928223,-8.768701553344727,0.0,0.0,-8.609999656677246,0,-61,,,
150,23439787,1697465360.3798387,0.0,0.0,0.25,0.5,0.0,-8.816213607788086,-8.847323417663574,0.0,0.0,-8.609999656677246,0,-61,,,
151,23539747,1697465360.479799,0.0,0.0,0.25,0.5,0.0,-8.877509117126465,-8.909595489501953,0.0,0.0,-8.729999542236328,0,-61,,,
152,23639707,1697465360.5797591,0.0,0.0,0.25,0.5,0.0,-8.939428329467773,-8.968133926391602,0.0,0.0,-8.729999542236328,0,-61,,,
153,23739667,1697465360.6797187,0.0,0.0,0.25,0.5,0.0,-9.001676559448242,-9.022679328918455,0.0,0.0,-8.84999942779541,0,-61,,,
154,23839627,1697465360.779679,0.0,0.0,0.25,0.5,0.0,-9.063790321350098,-9.088091850280762,0.0,0.0,-8.84999942779541,0,-61,,,
155,23939587,1697465360.8796391,0.0,0.0,0.25,0.5,0.0,-9.125777244567873,-9.14907169342041,0.0,0.0,-8.970000267028809,0,-61,,,
156,24039547,1697465360.979599,0.0,0.0,0.25,0.5,0.0,-9.187714576721191,-9.210227012634276,0.0,0.0,-8.970000267028809,0,-61,,,
157,24139507,1697465361.079559,0.0,0.0,0.25,0.5,0.0,-9.249567031860352,-9.26447582244873,0.0,0.0,-9.09999942779541,0,-61,,,
158,24239467,1697465361.1795187,0.0,0.0,0.25,0.5,0.0,-9.310534477233888,-9.328856468200684,0.0,0.0,-9.09999942779541,0,-61,,,
159,24339427,1697465361.279479,0.0,0.0,0.25,0.5,0.0,-9.371705055236816,-9.403468132019045,0.0,0.0,-9.210000038146973,0,-61,,,
160,24439387,1697465361.379439,0.0,0.0,0.25,0.5,0.0,-9.433258056640623,-9.449345588684082,0.0,0.0,-9.210000038146973,0,-61,,,
161,24539347,1697465361.4793987,0.0,0.0,0.25,0.5,0.0,-9.494760513305664,-9.51706886291504,0.0,0.0,-9.34000015258789,0,-61,,,
162,24639307,1697465361.579359,0.0,0.0,0.25,0.5,0.0,-9.556618690490724,-9.571568489074709,0.0,0.0,-9.34000015258789,0,-61,,,
163,24739267,1697465361.6793191,0.0,0.0,0.25,0.5,0.0,-9.61771297454834,-9.65410614013672,0.0,0.0,-9.460000038146973,0,-61,,,
164,24839227,1697465361.7792788,0.0,0.0,0.25,0.5,0.0,-9.679529190063477,-9.709275245666504,0.0,0.0,-9.460000038146973,0,-61,,,
165,24939187,1697465361.879239,0.0,0.0,0.25,0.5,0.0,-9.741869926452637,-9.767382621765137,0.0,0.0,-9.579999923706056,0,-61,,,
166,25039980,1697465361.980032,0.0,0.0,0.25,0.5,0.0,-9.804816246032717,-9.843777656555176,0.0,0.0,-9.579999923706056,0,-61,,,
167,25139940,1697465362.079992,0.0,0.0,0.25,0.5,0.0,-9.867915153503418,-9.902088165283203,0.0,0.0,-9.699999809265137,0,-61,,,
168,25239900,1697465362.179952,0.0,0.0,0.25,0.5,0.0,-9.93153190612793,-9.952913284301758,0.0,0.0,-9.699999809265137,0,-61,,,
169,25339860,1697465362.279912,0.0,0.0,0.25,0.5,0.0,-9.994914054870604,-10.023988723754885,0.0,0.0,-9.81999969482422,0,-62,,,
170,25439820,1697465362.379872,0.0,0.0,0.25,0.5,0.0,-10.05833625793457,-10.081839561462402,0.0,0.0,-9.81999969482422,0,-62,,,
171,25539780,1697465362.479832,0.0,0.0,0.25,0.5,0.0,-10.121674537658691,-10.14696216583252,0.0,0.0,-9.9399995803833,0,-62,,,
172,25639740,1697465362.579792,0.0,0.0,0.25,0.5,0.0,-10.184720039367676,-10.210466384887695,0.0,0.0,-9.9399995803833,0,-62,,,
173,25739700,1697465362.679752,0.1497519016265869,0.0,0.2572724223136902,0.5,-10.247563362121582,-10.246918678283691,-10.25652027130127,0.0,0.0,-10.050000190734863,-64,-60,,,
174,25839660,1697465362.779712,0.2523010075092315,0.0,0.244522750377655,0.5,-10.314004898071287,-10.308783531188965,-10.319425582885742,0.0,0.0,-10.050000190734863,-69,-63,,,
175,25939620,1697465362.879672,0.3257336616516113,0.0,0.2810033857822418,0.5,-10.381120681762695,-10.37063217163086,-10.396855354309082,0.0,0.0,-10.179999351501465,-67,-61,,,
176,26039580,1697465362.979632,0.4554687142372131,0.0,0.3624211251735687,0.5,-10.44094944000244,-10.427583694458008,-10.452411651611328,0.0,0.0,-10.179999351501465,-57,-53,,,
177,26139540,1697465363.079592,0.5295847654342651,0.0,0.4772345721721649,0.5,-10.486000061035156,-10.47441864013672,-10.49030876159668,0.0,0.0,-10.289999961853027,-40,-41,,,
178,26239500,1697465363.179552,0.6011781692504883,0.0,0.5436787605285645,0.5,-10.516273498535156,-10.50999355316162,-10.527458190917969,0.0,0.0,-10.289999961853027,-26,-32,,,
179,26339460,1697465363.279512,0.6116426587104797,0.0,0.5914996862411499,0.5,-10.536528587341309,-10.536527633666992,-10.553272247314451,0.0,0.0,-10.399999618530272,-16,-25,,,
180,26439420,1697465363.379472,0.5988795757293701,0.0,0.6011079549789429,0.5,-10.55008029937744,-10.554953575134276,-10.584890365600586,0.0,0.0,-10.399999618530272,-9,-17,,,
181,26539380,1697465363.479432,0.5816347599029541,0.0,0.5924069881439209,0.5,-10.559147834777832,-10.566508293151855,-10.584847450256348,0.0,0.0,-10.449999809265137,-5,-11,,,
182,26639340,1697465363.579392,0.5604402422904968,0.0,0.5764472484588623,0.5,-10.565216064453123,-10.572476387023926,-10.610062599182127,0.0,0.0,-10.449999809265137,-2,-7,,,
183,26739300,1697465363.679352,0.5386440753936768,0.0,0.5558543801307678,0.5,-10.569275856018066,-10.57490062713623,-10.61298370361328,0.0,0.0,-10.489999771118164,-1,-4,,,
184,26767000,1697465363.679352,0.5386440753936768,0.0,0.5558543801307678,0.5,-10.569275856018066,-10.57490062713623,-10.61298370361328,0.0,0.0,-10.489999771118164,-1,-4,-20.0,-10.179542165374755,9.725457834625244
185,26839260,1697465363.779312,0.5179488062858582,0.0,0.5351353287696838,0.5,-10.571991920471191,-10.575260162353516,-10.614255905151367,0.0,9.65,-10.489999771118164,-1,-2,-20.0,-10.179542165374755,9.725457834625244
186,26874000,1697465363.779312,0.5179488062858582,0.0,0.5351353287696838,0.5,-10.571991920471191,-10.575260162353516,-10.614255905151367,0.0,9.65,-10.489999771118164,-1,-2,-20.0,-10.238629067611692,9.666370932388308
187,26939220,1697465363.879272,0.5018419027328491,0.0,0.5174983143806458,0.5,-10.573809623718262,-10.574405670166016,-10.606507301330566,9.65,9.65,-10.5,-1,-1,-20.0,-10.238629067611692,9.666370932388308
188,26968000,1697465363.879272,0.5018419027328491,0.0,0.5174983143806458,0.5,-10.573809623718262,-10.574405670166016,-10.606507301330566,9.65,9.65,-10.5,-1,-1,-20.0,-10.290348674064903,9.614651325935096
189,27039180,1697465363.979232,0.4709753394126892,0.0,0.4943015277385711,0.5,-10.575024604797363,-10.572455406188965,-10.607318878173828,9.65,9.54,-10.5,-1,-1,-20.0,-10.290348674064903,9.614651325935096
190,27074000,1697465363.979232,0.4709753394126892,0.0,0.4943015277385711,0.5,-10.575024604797363,-10.572455406188965,-10.607318878173828,9.65,9.54,-10.5,-1,-1,-20.0,-10.348014340808044,9.556985659191955
191,27139973,1697465364.0800247,0.4446005523204803,0.0,0.4764774143695831,0.5,-10.575512886047363,-10.569414138793944,-10.606462478637695,9.65,9.54,-10.510000228881836,-1,0,-20.0,-10.348014340808044,9.556985659191955
192,27169000,1697465364.0800247,0.4446005523204803,0.0,0.4764774143695831,0.5,-10.575512886047363,-10.569414138793944,-10.606462478637695,9.65,9.54,-10.510000228881836,-1,0,-20.0,-10.40070895576477,9.504291044235227
193,27239933,1697465364.179985,0.4267498850822449,0.0,0.451992392539978,0.5,-10.575177192687988,-10.565557479858398,-10.616650581359863,9.65,9.49,-10.510000228881836,-2,0,-20.0,-10.40070895576477,9.504291044235227
194,27273000,1697465364.179985,0.4267498850822449,0.0,0.451992392539978,0.5,-10.575177192687988,-10.565557479858398,-10.616650581359863,9.65,9.49,-10.510000228881836,-2,0,-20.0,-10.426620286941528,9.478379713058471
195,27339893,1697465364.2799451,0.4301483631134033,0.0,0.4451192617416382,0.5,-10.574134826660156,-10.562152862548828,-10.631824493408203,9.65,9.45,-10.510000228881836,-2,0,-20.0,-10.426620286941528,9.478379713058471
196,27369000,1697465364.2799451,0.4301483631134033,0.0,0.4451192617416382,0.5,-10.574134826660156,-10.562152862548828,-10.631824493408203,9.65,9.45,-10.510000228881836,-2,0,-20.0,-10.45052329559326,9.45447670440674
197,27439853,1697465364.3799047,0.4412027597427368,0.0,0.4479723274707794,0.5,-10.572331428527832,-10.560372352600098,-10.620332717895508,9.65,9.44,-10.510000228881836,-1,0,-20.0,-10.45052329559326,9.45447670440674
198,27474000,1697465364.3799047,0.4412027597427368,0.0,0.4479723274707794,0.5,-10.572331428527832,-10.560372352600098,-10.620332717895508,9.65,9.44,-10.510000228881836,-1,0,-20.0,-10.471445002746584,9.433554997253417
199,27539813,1697465364.479865,0.4608114063739776,0.0,0.4612496793270111,0.5,-10.569867134094238,-10.559711456298828,-10.615873336791992,9.65,9.41,-10.519999504089355,0,0,-20.0,-10.471445002746584,9.433554997253417
200,27577000,1697465364.479865,0.4608114063739776,0.0,0.4612496793270111,0.5,-10.569867134094238,-10.559711456298828,-10.615873336791992,9.65,9.41,-10.519999504089355,0,0,-20.0,-10.490366381454468,9.414633618545531
201,27639773,1697465364.5798247,0.4690306484699249,0.0,0.4738509058952331,0.5,-10.566776275634766,-10.559057235717772,-10.627357482910156,9.65,9.4,-10.519999504089355,1,0,-20.0,-10.490366381454468,9.414633618545531
202,27690000,1697465364.5798247,0.4690306484699249,0.0,0.4738509058952331,0.5,-10.566776275634766,-10.559057235717772,-10.627357482910156,9.65,9.4,-10.519999504089355,1,0,-20.0,-10.49598876838684,9.409011231613158
203,27739733,1697465364.679785,0.4869153797626495,0.0,0.4870581924915313,0.5,-10.563133239746094,-10.55823802947998,-10.62375831604004,9.65,9.38,-10.519999504089355,2,0,-20.0,-10.49598876838684,9.409011231613158
204,27777000,1697465364.679785,0.4869153797626495,0.0,0.4870581924915313,0.5,-10.563133239746094,-10.55823802947998,-10.62375831604004,9.65,9.38,-10.519999504089355,2,0,-20.0,-10.500366456520496,9.404633543479502
205,27805000,1697465364.679785,0.4869153797626495,0.0,0.4870581924915313,0.5,-10.563133239746094,-10.55823802947998,-10.62375831604004,9.65,9.38,-10.519999504089355,2,0,-20.0,-10.50174856309274,9.40325143690726
206,27839693,1697465364.779745,0.5087229013442993,0.0,0.5050069093704224,0.5,-10.55896282196045,-10.557196617126465,-10.62004566192627,9.65,9.37,-10.519999504089355,3,1,-20.0,-10.50174856309274,9.40325143690726
207,27887000,1697465364.779745,0.5087229013442993,0.0,0.5050069093704224,0.5,-10.55896282196045,-10.557196617126465,-10.62004566192627,9.65,9.37,-10.519999504089355,3,1,-20.0,-10.505856963579928,9.399143036420073
208,27920000,1697465364.779745,0.5087229013442993,0.0,0.5050069093704224,0.5,-10.55896282196045,-10.557196617126465,-10.62004566192627,9.65,9.37,-10.519999504089355,3,1,-20.0,-10.507293159143249,9.39770684085675
209,27939653,1697465364.8797047,0.5310734510421753,0.0,0.5254387259483337,0.5,-10.554313659667969,-10.555615425109863,-10.61634349822998,9.65,9.38,-10.519999504089355,5,2,-20.0,-10.507293159143249,9.39770684085675
210,27980000,1697465364.8797047,0.5310734510421753,0.0,0.5254387259483337,0.5,-10.554313659667969,-10.555615425109863,-10.61634349822998,9.65,9.38,-10.519999504089355,5,2,-20.0,-10.51,9.395
211,28039613,1697465364.979665,0.5344191193580627,0.0,0.5400201678276062,0.5,-10.549291610717772,-10.553163528442385,-10.61738395690918,9.65,9.37,-10.519999504089355,6,3,-20.0,-10.51,9.395
212,28139573,1697465365.0796251,0.5302152633666992,0.0,0.5422685146331787,0.5,-10.543946266174316,-10.549466133117676,-10.614686965942385,9.65,9.37,-10.519999504089355,7,4,-20.0,-10.51,9.395
213,28173000,1697465365.0796251,0.5302152633666992,0.0,0.5422685146331787,0.5,-10.543946266174316,-10.549466133117676,-10.614686965942385,9.65,9.37,-10.519999504089355,7,4,-20.0,-10.510193119049072,9.394806880950927
214,28239533,1697465365.1795847,0.5221033096313477,0.0,0.5374024510383606,0.5,-10.538311958312988,-10.54453468322754,-10.615169525146484,9.65,9.37,-10.519999504089355,7,5,-20.0,-10.510193119049072,9.394806880950927
215,28339493,1697465365.279545,0.5154599547386169,0.0,0.5291968584060669,0.5,-10.53244400024414,-10.538728713989258,-10.603618621826172,9.65,9.37,-10.510000228881836,7,6,-20.0,-10.510193119049072,9.394806880950927
216,28371000,1697465365.279545,0.5154599547386169,0.0,0.5291968584060669,0.5,-10.53244400024414,-10.538728713989258,-10.603618621826172,9.65,9.37,-10.510000228881836,7,6,-20.0,-10.52,9.385
217,28439453,1697465365.379505,0.5147987008094788,0.0,0.5260204076766968,0.5,-10.526394844055176,-10.532341003417969,-10.605446815490724,9.65,9.37,-10.510000228881836,7,7,-20.0,-10.52,9.385
218,28539413,1697465365.479465,0.5070390701293945,0.0,0.5197791457176208,0.5,-10.520197868347168,-10.525640487670898,-10.597821235656738,9.65,9.37,-10.5,7,7,-20.0,-10.52,9.385
219,28571000,1697465365.479465,0.5070390701293945,0.0,0.5197791457176208,0.5,-10.520197868347168,-10.525640487670898,-10.597821235656738,9.65,9.37,-10.5,7,7,-20.0,-10.52,9.385
220,28639373,1697465365.579425,0.4987705051898956,0.0,0.5117776989936829,0.5,-10.513888359069824,-10.518789291381836,-10.587601661682127,9.65,9.37,-10.5,7,7,-20.0,-10.52,9.385
221,28676000,1697465365.579425,0.4987705051898956,0.0,0.5117776989936829,0.5,-10.513888359069824,-10.518789291381836,-10.587601661682127,9.65,9.37,-10.5,7,7,-20.0,-10.52,9.385
222,28739333,1697465365.6793847,0.488111674785614,0.0,0.5022470951080322,0.5,-10.50748062133789,-10.511585235595703,-10.601346015930176,9.65,9.37,-10.489999771118164,7,8,-20.0,-10.52,9.385
223,28772000,1697465365.6793847,0.488111674785614,0.0,0.5022470951080322,0.5,-10.50748062133789,-10.511585235595703,-10.601346015930176,9.65,9.37,-10.489999771118164,7,8,-20.0,-10.52,9.385
224,28839293,1697465365.779345,0.4779071509838104,0.0,0.4909105896949768,0.5,-10.500999450683594,-10.50472354888916,-10.577478408813477,9.65,9.37,-10.489999771118164,7,8,-20.0,-10.52,9.385
225,28939253,1697465365.8793051,0.4705228805541992,0.0,0.481882244348526,0.5,-10.494466781616213,-10.49793529510498,-10.583358764648438,9.65,9.37,-10.479999542236328,7,8,-20.0,-10.52,9.385
226,28968000,1697465365.8793051,0.4705228805541992,0.0,0.481882244348526,0.5,-10.494466781616213,-10.49793529510498,-10.583358764648438,9.65,9.37,-10.479999542236328,7,8,-20.0,-10.519968541974398,9.3850314580256
227,29039213,1697465365.9792647,0.4626927971839905,0.0,0.472910076379776,0.5,-10.487889289855955,-10.491217613220217,-10.57777500152588,9.65,9.37,-10.479999542236328,7,8,-20.0,-10.519968541974398,9.3850314580256
228,29076000,1697465365.9792647,0.4626927971839905,0.0,0.472910076379776,0.5,-10.487889289855955,-10.491217613220217,-10.57777500152588,9.65,9.37,-10.479999542236328,7,8,-20.0,-10.5145879498199,9.3904120501801
229,29139173,1697465366.079225,0.463022381067276,0.0,0.4670895040035248,0.5,-10.48128890991211,-10.484856605529783,-10.55409049987793,9.65,9.37,-10.469999313354492,7,8,-20.0,-10.5145879498199,9.3904120501801
230,29168000,1697465366.079225,0.463022381067276,0.0,0.4670895040035248,0.5,-10.48128890991211,-10.484856605529783,-10.55409049987793,9.65,9.37,-10.469999313354492,7,8,-20.0,-10.5099258518219,9.3950741481781
231,29239966,1697465366.180018,0.4611421227455139,0.0,0.4672596454620361,0.5,-10.474604606628418,-10.47839069366455,-10.560365676879885,9.65,9.37,-10.469999313354492,7,8,-20.0,-10.5099258518219,9.3950741481781
232,29274000,1697465366.180018,0.4611421227455139,0.0,0.4672596454620361,0.5,-10.474604606628418,-10.47839069366455,-10.560365676879885,9.65,9.37,-10.469999313354492,7,8,-20.0,-10.504646310806274,9.400353689193723
233,29339926,1697465366.279978,0.4639369547367096,0.0,0.466701865196228,0.5,-10.46796417236328,-10.471834182739258,-10.545523643493652,9.65,9.38,-10.460000038146973,7,8,-20.0,-10.504646310806274,9.400353689193723
234,29369000,1697465366.279978,0.4639369547367096,0.0,0.466701865196228,0.5,-10.46796417236328,-10.471834182739258,-10.545523643493652,9.65,9.38,-10.460000038146973,7,8,-20.0,-10.499873467636109,9.40512653236389
235,29439886,1697465366.379938,0.4633565545082092,0.0,0.4665937423706054,0.5,-10.461356163024902,-10.465264320373535,-10.545865058898926,9.65,9.38,-10.460000038146973,7,8,-20.0,-10.499873467636109,9.40512653236389
236,29475000,1697465366.379938,0.4633565545082092,0.0,0.4665937423706054,0.5,-10.461356163024902,-10.465264320373535,-10.545865058898926,9.65,9.38,-10.460000038146973,7,8,-20.0,-10.494620152664185,9.410379847335816
237,29539846,1697465366.479898,0.4660089910030365,0.0,0.4667486250400543,0.5,-10.45480728149414,-10.458929061889648,-10.522382736206056,9.65,9.38,-10.4399995803833,7,8,-20.0,-10.494620152664185,9.410379847335816
238,29569000,1697465366.479898,0.4660089910030365,0.0,0.4667486250400543,0.5,-10.45480728149414,-10.458929061889648,-10.522382736206056,9.65,9.38,-10.4399995803833,7,8,-20.0,-10.489872752380371,9.415127247619628
239,29639806,1697465366.579858,0.4683311581611633,0.0,0.4653441905975342,0.5,-10.448312759399414,-10.452094078063965,-10.52894687652588,9.65,9.4,-10.4399995803833,7,8,-20.0,-10.489872752380371,9.415127247619628
240,29675000,1697465366.579858,0.4683311581611633,0.0,0.4653441905975342,0.5,-10.448312759399414,-10.452094078063965,-10.52894687652588,9.65,9.4,-10.4399995803833,7,8,-20.0,-10.484603940200806,9.420396059799192
241,29739766,1697465366.679818,0.4672142565250397,0.0,0.4650601744651794,0.5,-10.441974639892578,-10.445449829101562,-10.522199630737305,9.65,9.4,-10.429999351501465,7,7,-20.0,-10.484603940200806,9.420396059799192
242,29769000,1697465366.679818,0.4672142565250397,0.0,0.4650601744651794,0.5,-10.441974639892578,-10.445449829101562,-10.522199630737305,9.65,9.4,-10.429999351501465,7,7,-20.0,-10.47987561340332,9.42512438659668
243,29839726,1697465366.779778,0.4685384333133697,0.0,0.4646530747413635,0.5,-10.43577003479004,-10.439254760742188,-10.517396926879885,9.65,9.41,-10.429999351501465,7,7,-20.0,-10.47987561340332,9.42512438659668
244,29939686,1697465366.879738,0.4719248116016388,0.0,0.4663309156894684,0.5,-10.429715156555176,-10.433534622192385,-10.496009826660156,9.65,9.41,-10.40999984741211,7,7,-20.0,-10.47987561340332,9.42512438659668
245,29973000,1697465366.879738,0.4719248116016388,0.0,0.4663309156894684,0.5,-10.429715156555176,-10.433534622192385,-10.496009826660156,9.65,9.41,-10.40999984741211,7,7,-20.0,-10.469740535299575,9.435259464700422
246,30039646,1697465366.979698,0.4710970520973205,0.0,0.4672589898109436,0.5,-10.4237642288208,-10.42743968963623,-10.502830505371094,9.65,9.42,-10.40999984741211,7,7,-20.0,-10.469740535299575,9.435259464700422
247,30080000,1697465366.979698,0.4710970520973205,0.0,0.4672589898109436,0.5,-10.4237642288208,-10.42743968963623,-10.502830505371094,9.65,9.42,-10.40999984741211,7,7,-20.0,-10.464344921206957,9.440655078793045
248,30139606,1697465367.079658,0.4707521796226501,0.0,0.4665120542049408,0.5,-10.417917251586914,-10.421478271484377,-10.489227294921877,9.65,9.42,-10.399999618530272,6,7,-20.0,-10.464344921206957,9.440655078793045
249,30170000,1697465367.079658,0.4707521796226501,0.0,0.4665120542049408,0.5,-10.417917251586914,-10.421478271484377,-10.489227294921877,9.65,9.42,-10.399999618530272,6,7,-20.0,-10.459768733978272,9.445231266021729
250,30239566,1697465367.179618,0.470483124256134,0.0,0.4669952392578125,0.5,-10.4121732711792,-10.415555000305176,-10.47836971282959,9.65,9.42,-10.399999618530272,6,6,-20.0,-10.459768733978272,9.445231266021729
251,30274000,1697465367.179618,0.470483124256134,0.0,0.4669952392578125,0.5,-10.4121732711792,-10.415555000305176,-10.47836971282959,9.65,9.42,-10.399999618530272,6,6,-20.0,-10.449450931549071,9.455549068450926
252,30339526,1697465367.279578,0.4673627614974975,0.0,0.4646761119365692,0.5,-10.406537055969238,-10.409364700317385,-10.470914840698242,9.65,9.44,-10.380000114440918,6,6,-20.0,-10.449450931549071,9.455549068450926
253,30369000,1697465367.279578,0.4673627614974975,0.0,0.4646761119365692,0.5,-10.406537055969238,-10.409364700317385,-10.470914840698242,9.65,9.44,-10.380000114440918,6,6,-20.0,-10.43991464614868,9.465085353851318
254,30439486,1697465367.379538,0.4632781147956848,0.0,0.4612854719161987,0.5,-10.401070594787598,-10.402952194213867,-10.474586486816406,9.65,9.44,-10.380000114440918,5,6,-20.0,-10.43991464614868,9.465085353851318
255,30477000,1697465367.379538,0.4632781147956848,0.0,0.4612854719161987,0.5,-10.401070594787598,-10.402952194213867,-10.474586486816406,9.65,9.44,-10.380000114440918,5,6,-20.0,-10.434641304016113,9.470358695983888
256,30539446,1697465367.479498,0.4608192145824432,0.0,0.4573662877082824,0.5,-10.395748138427734,-10.397037506103516,-10.45448875427246,9.65,9.45,-10.369999885559082,5,6,-20.0,-10.434641304016113,9.470358695983888
257,30568000,1697465367.479498,0.4608192145824432,0.0,0.4573662877082824,0.5,-10.395748138427734,-10.397037506103516,-10.45448875427246,9.65,9.45,-10.369999885559082,5,6,-20.0,-10.429946935272216,9.475053064727785
258,30639406,1697465367.579458,0.460699051618576,0.0,0.4561502635478973,0.5,-10.39057731628418,-10.39104461669922,-10.462980270385742,9.65,9.45,-10.369999885559082,5,5,-20.0,-10.429946935272216,9.475053064727785
259,30674000,1697465367.579458,0.460699051618576,0.0,0.4561502635478973,0.5,-10.39057731628418,-10.39104461669922,-10.462980270385742,9.65,9.45,-10.369999885559082,5,5,-20.0,-10.419414556121826,9.485585443878174
260,30739366,1697465367.679418,0.461088091135025,0.0,0.4557007551193237,0.5,-10.38551425933838,-10.385650634765623,-10.439838409423828,9.65,9.46,-10.359999656677246,5,5,-20.0,-10.419414556121826,9.485585443878174
261,30768000,1697465367.679418,0.461088091135025,0.0,0.4557007551193237,0.5,-10.38551425933838,-10.385650634765623,-10.439838409423828,9.65,9.46,-10.359999656677246,5,5,-20.0,-10.40996774559021,9.49503225440979
262,30839326,1697465367.779378,0.4614165425300598,0.0,0.4560896754264831,0.5,-10.38058376312256,-10.380181312561035,-10.457148551940918,9.65,9.46,-10.359999656677246,4,5,-20.0,-10.40996774559021,9.49503225440979
263,30875000,1697465367.779378,0.4614165425300598,0.0,0.4560896754264831,0.5,-10.38058376312256,-10.380181312561035,-10.457148551940918,9.65,9.46,-10.359999656677246,4,5,-20.0,-10.404696787643433,9.500303212356568
264,30939286,1697465367.879338,0.4623775482177734,0.0,0.4552593529224396,0.5,-10.375777244567873,-10.375502586364746,-10.443260192871094,9.65,9.48,-10.34999942779541,4,4,-20.0,-10.404696787643433,9.500303212356568
265,30970000,1697465367.879338,0.4623775482177734,0.0,0.4552593529224396,0.5,-10.375777244567873,-10.375502586364746,-10.443260192871094,9.65,9.48,-10.34999942779541,4,4,-20.0,-10.399734265899658,9.50526573410034
266,31039246,1697465367.979298,0.4669185876846313,0.0,0.4571771025657654,0.5,-10.371170997619627,-10.371448516845703,-10.44485092163086,9.65,9.49,-10.34999942779541,4,4,-20.0,-10.399734265899658,9.50526573410034
267,31139206,1697465368.079258,0.472225934267044,0.0,0.4613276124000549,0.5,-10.36676788330078,-10.36798095703125,-10.422063827514648,9.65,9.49,-10.34000015258789,4,4,-20.0,-10.399734265899658,9.50526573410034
268,31170000,1697465368.079258,0.472225934267044,0.0,0.4613276124000549,0.5,-10.36676788330078,-10.36798095703125,-10.422063827514648,9.65,9.49,-10.34000015258789,4,4,-20.0,-10.379904803942198,9.5250951960578
269,31239166,1697465368.179218,0.4733348488807678,0.0,0.4650923907756805,0.5,-10.362536430358888,-10.364070892333984,-10.436229705810549,9.65,9.5,-10.34000015258789,4,4,-20.0,-10.379904803942198,9.5250951960578
270,31279000,1697465368.179218,0.4733348488807678,0.0,0.4650923907756805,0.5,-10.362536430358888,-10.364070892333984,-10.436229705810549,9.65,9.5,-10.34000015258789,4,4,-20.0,-10.374445377905763,9.530554622094236
271,31339959,1697465368.2800107,0.4706434905529022,0.0,0.4641094207763672,0.5,-10.35845184326172,-10.360321998596191,-10.42338752746582,9.65,9.52,-10.329999923706056,4,4,-20.0,-10.374445377905763,9.530554622094236
272,31372000,1697465368.2800107,0.4706434905529022,0.0,0.4641094207763672,0.5,-10.35845184326172,-10.360321998596191,-10.42338752746582,9.65,9.52,-10.329999923706056,4,4,-20.0,-10.369789067459106,9.535210932540894
273,31439919,1697465368.379971,0.4700750410556793,0.0,0.4632248878479004,0.5,-10.354619026184082,-10.356619834899902,-10.4263277053833,9.65,9.52,-10.329999923706056,4,4,-20.0,-10.369789067459106,9.535210932540894
274,31477000,1697465368.379971,0.4700750410556793,0.0,0.4632248878479004,0.5,-10.354619026184082,-10.356619834899902,-10.4263277053833,9.65,9.52,-10.329999923706056,4,4,-20.0,-10.364479008865356,9.540520991134644
275,31539879,1697465368.479931,0.469107985496521,0.0,0.4625490605831146,0.5,-10.350977897644045,-10.35311222076416,-10.419588088989258,9.65,9.53,-10.31999969482422,4,4,-20.0,-10.364479008865356,9.540520991134644
276,31571000,1697465368.479931,0.469107985496521,0.0,0.4625490605831146,0.5,-10.350977897644045,-10.35311222076416,-10.419588088989258,9.65,9.53,-10.31999969482422,4,4,-20.0,-10.35980384941101,9.545196150588987
277,31639839,1697465368.5798907,0.4690662324428558,0.0,0.4618636965751648,0.5,-10.347512245178224,-10.349802017211914,-10.40857219696045,9.65,9.53,-10.31999969482422,4,3,-20.0,-10.35980384941101,9.545196150588987
278,31678000,1697465368.5798907,0.4690662324428558,0.0,0.4618636965751648,0.5,-10.347512245178224,-10.349802017211914,-10.40857219696045,9.65,9.53,-10.31999969482422,4,3,-20.0,-10.354432517242431,9.550567482757568
279,31739799,1697465368.679851,0.4679178893566131,0.0,0.4620782732963562,0.5,-10.344195365905762,-10.346305847167969,-10.414535522460938,9.65,9.54,-10.309999465942385,3,3,-20.0,-10.354432517242431,9.550567482757568
280,31771000,1697465368.679851,0.4679178893566131,0.0,0.4620782732963562,0.5,-10.344195365905762,-10.346305847167969,-10.414535522460938,9.65,9.54,-10.309999465942385,3,3,-20.0,-10.349800273132324,9.555199726867675
281,31839759,1697465368.7798111,0.4655202627182007,0.0,0.4599539339542389,0.5,-10.341036796569824,-10.34292697906494,-10.41623306274414,9.65,9.54,-10.309999465942385,3,3,-20.0,-10.349800273132324,9.555199726867675
282,31878000,1697465368.7798111,0.4655202627182007,0.0,0.4599539339542389,0.5,-10.341036796569824,-10.34292697906494,-10.41623306274414,9.65,9.54,-10.309999465942385,3,3,-20.0,-10.34443823928833,9.56056176071167
283,31939719,1697465368.8797708,0.4668253362178802,0.0,0.4596460461616516,0.5,-10.338013648986816,-10.340109825134276,-10.402024269104004,9.65,9.54,-10.300000190734863,3,3,-20.0,-10.34443823928833,9.56056176071167
284,31975000,1697465368.8797708,0.4668253362178802,0.0,0.4596460461616516,0.5,-10.338013648986816,-10.340109825134276,-10.402024269104004,9.65,9.54,-10.300000190734863,3,3,-20.0,-10.339614090421309,9.565385909578692
285,32039679,1697465368.979731,0.4690115451812744,0.0,0.461923211812973,0.5,-10.33509635925293,-10.337408065795898,-10.401355743408203,9.65,9.54,-10.300000190734863,3,3,-20.0,-10.339614090421309,9.565385909578692
286,32081000,1697465368.979731,0.4690115451812744,0.0,0.461923211812973,0.5,-10.33509635925293,-10.337408065795898,-10.401355743408203,9.65,9.54,-10.300000190734863,3,3,-20.0,-10.334329263867431,9.570670736132568
287,32139639,1697465369.0796907,0.4693709313869476,0.0,0.4637074470520019,0.5,-10.332265853881836,-10.334620475769045,-10.39092254638672,9.65,9.56,-10.300000190734863,3,3,-20.0,-10.334329263867431,9.570670736132568
288,32170000,1697465369.0796907,0.4693709313869476,0.0,0.4637074470520019,0.5,-10.332265853881836,-10.334620475769045,-10.39092254638672,9.65,9.56,-10.300000190734863,3,3,-20.0,-10.32986219406128,9.57513780593872
289,32239599,1697465369.179651,0.4655300676822662,0.0,0.4613431692123413,0.5,-10.329551696777344,-10.331514358520508,-10.378812789916992,9.65,9.56,-10.300000190734863,3,3,-20.0,-10.32986219406128,9.57513780593872
290,32275000,1697465369.179651,0.4655300676822662,0.0,0.4613431692123413,0.5,-10.329551696777344,-10.331514358520508,-10.378812789916992,9.65,9.56,-10.300000190734863,3,3,-20.0,-10.32467635154724,9.580323648452758
291,32339559,1697465369.279611,0.4592559337615967,0.0,0.4577266871929168,0.5,-10.32699966430664,-10.327733039855955,-10.39087963104248,9.65,9.57,-10.289999961853027,2,3,-20.0,-10.32467635154724,9.580323648452758
292,32370000,1697465369.279611,0.4592559337615967,0.0,0.4577266871929168,0.5,-10.32699966430664,-10.327733039855955,-10.39087963104248,9.65,9.57,-10.289999961853027,2,3,-20.0,-10.319865770339966,9.585134229660031
293,32439519,1697465369.3795707,0.452822208404541,0.0,0.4509608745574951,0.5,-10.32458782196045,-10.32404613494873,-10.380293846130373,9.65,9.57,-10.289999961853027,2,3,-20.0,-10.319865770339966,9.585134229660031
294,32476000,1697465369.3795707,0.452822208404541,0.0,0.4509608745574951,0.5,-10.32458782196045,-10.32404613494873,-10.380293846130373,9.65,9.57,-10.289999961853027,2,3,-20.0,-10.314652509689331,9.590347490310668
295,32539479,1697465369.479531,0.4526605308055877,0.0,0.4480343163013458,0.5,-10.322308540344238,-10.320745468139648,-10.384769439697266,9.65,9.57,-10.279999732971191,1,2,-20.0,-10.314652509689331,9.590347490310668
296,32570000,1697465369.479531,0.4526605308055877,0.0,0.4480343163013458,0.5,-10.322308540344238,-10.320745468139648,-10.384769439697266,9.65,9.57,-10.279999732971191,1,2,-20.0,-10.309887160110474,9.595112839889524
297,32639439,1697465369.5794911,0.4546601772308349,0.0,0.447544515132904,0.5,-10.320141792297363,-10.318117141723633,-10.373394966125488,9.65,9.58,-10.279999732971191,1,2,-20.0,-10.309887160110474,9.595112839889524
298,32739399,1697465369.6794508,0.4582114219665527,0.0,0.4501873850822449,0.5,-10.31810188293457,-10.31590461730957,-10.370615005493164,9.65,9.58,-10.279999732971191,1,1,-20.0,-10.309887160110474,9.595112839889524
299,32771000,1697465369.6794508,0.4582114219665527,0.0,0.4501873850822449,0.5,-10.31810188293457,-10.31590461730957,-10.370615005493164,9.65,9.58,-10.279999732971191,1,1,-20.0,-10.3,9.605
300,32839359,1697465369.779411,0.4600207507610321,0.0,0.4532214701175689,0.5,-10.316162109375,-10.313843727111816,-10.360280990600586,9.65,9.58,-10.279999732971191,1,1,-20.0,-10.3,9.605
301,32878000,1697465369.779411,0.4600207507610321,0.0,0.4532214701175689,0.5,-10.316162109375,-10.313843727111816,-10.360280990600586,9.65,9.58,-10.279999732971191,1,1,-20.0,-10.3,9.605
302,32939319,1697465369.8793707,0.4592057168483734,0.0,0.4549527764320373,0.5,-10.314308166503906,-10.311551094055176,-10.36625862121582,9.65,9.58,-10.269999504089355,1,1,-20.0,-10.3,9.605
303,32972000,1697465369.8793707,0.4592057168483734,0.0,0.4549527764320373,0.5,-10.314308166503906,-10.311551094055176,-10.36625862121582,9.65,9.58,-10.269999504089355,1,1,-20.0,-10.299799660491944,9.605200339508055
304,33039279,1697465369.979331,0.4568802416324615,0.0,0.4540992677211761,0.5,-10.3125,-10.30923843383789,-10.372886657714844,9.65,9.58,-10.269999504089355,0,1,-20.0,-10.299799660491944,9.605200339508055
305,33080000,1697465369.979331,0.4568802416324615,0.0,0.4540992677211761,0.5,-10.3125,-10.30923843383789,-10.372886657714844,9.65,9.58,-10.269999504089355,0,1,-20.0,-10.294375399398804,9.610624600601197
306,33139239,1697465370.079291,0.4583224952220917,0.0,0.4539321064949035,0.5,-10.310735702514648,-10.307510375976562,-10.3654203414917,9.65,9.58,-10.269999504089355,0,0,-20.0,-10.294375399398804,9.610624600601197
307,33172000,1697465370.079291,0.4583224952220917,0.0,0.4539321064949035,0.5,-10.310735702514648,-10.307510375976562,-10.3654203414917,9.65,9.58,-10.269999504089355,0,0,-20.0,-10.289804164943982,9.615195835056015
308,33239199,1697465370.1792507,0.4618010520935058,0.0,0.4557237327098846,0.5,-10.308998107910156,-10.306201934814451,-10.376688957214355,9.65,9.59,-10.269999504089355,0,0,-20.0,-10.289804164943982,9.615195835056015
309,33339159,1697465370.279211,0.4667648673057556,0.0,0.4590692520141601,0.5,-10.307351112365724,-10.305550575256348,-10.375200271606444,9.65,9.59,-10.269999504089355,1,0,-20.0,-10.289804164943982,9.615195835056015
310,33370000,1697465370.279211,0.4667648673057556,0.0,0.4590692520141601,0.5,-10.307351112365724,-10.305550575256348,-10.375200271606444,9.65,9.59,-10.269999504089355,1,0,-20.0,-10.28,9.625
311,33439952,1697465370.380004,0.4731663167476654,0.0,0.4634677171707153,0.5,-10.305776596069336,-10.305523872375488,-10.374798774719238,9.65,9.61,-10.269999504089355,1,0,-20.0,-10.28,9.625
312,33478000,1697465370.380004,0.4731663167476654,0.0,0.4634677171707153,0.5,-10.305776596069336,-10.305523872375488,-10.374798774719238,9.65,9.61,-10.269999504089355,1,0,-20.0,-10.28,9.625
313,33539912,1697465370.479964,0.4749573767185211,0.0,0.4680391550064087,0.5,-10.3043794631958,-10.30578327178955,-10.35738468170166,9.65,9.61,-10.269999504089355,1,0,-20.0,-10.28,9.625
314,33570000,1697465370.479964,0.4749573767185211,0.0,0.4680391550064087,0.5,-10.3043794631958,-10.30578327178955,-10.35738468170166,9.65,9.61,-10.269999504089355,1,0,-20.0,-10.279851056289672,9.625148943710329
315,33639872,1697465370.579924,0.4737834632396698,0.0,0.4676409363746643,0.5,-10.30311679840088,-10.305221557617188,-10.369016647338867,9.65,9.61,-10.269999504089355,1,1,-20.0,-10.279851056289672,9.625148943710329
316,33677000,1697465370.579924,0.4737834632396698,0.0,0.4676409363746643,0.5,-10.30311679840088,-10.305221557617188,-10.369016647338867,9.65,9.61,-10.269999504089355,1,1,-20.0,-10.27453622932434,9.63046377067566
317,33739832,1697465370.679884,0.4698357880115509,0.0,0.4667942225933075,0.5,-10.301945686340332,-10.30410861968994,-10.369248390197754,9.65,9.61,-10.269999504089355,1,1,-20.0,-10.27453622932434,9.63046377067566
318,33769000,1697465370.679884,0.4698357880115509,0.0,0.4667942225933075,0.5,-10.301945686340332,-10.30410861968994,-10.369248390197754,9.65,9.61,-10.269999504089355,1,1,-20.0,-10.27,9.635
319,33839792,1697465370.779844,0.4662323296070099,0.0,0.4639623761177063,0.5,-10.300837516784668,-10.303041458129885,-10.364675521850586,9.65,9.62,-10.269999504089355,1,1,-20.0,-10.27,9.635
320,33939752,1697465370.879804,0.463823914527893,0.0,0.4613739848136902,0.5,-10.29983901977539,-10.301840782165527,-10.348207473754885,9.65,9.62,-10.260000228881836,1,1,-20.0,-10.27,9.635
321,33969000,1697465370.879804,0.463823914527893,0.0,0.4613739848136902,0.5,-10.29983901977539,-10.301840782165527,-10.348207473754885,9.65,9.62,-10.260000228881836,1,1,-20.0,-10.27,9.635
322,34039712,1697465370.979764,0.458663672208786,0.0,0.4585047960281372,0.5,-10.298924446105955,-10.299874305725098,-10.362110137939451,9.65,9.62,-10.260000228881836,1,1,-20.0,-10.27,9.635
323,34073000,1697465370.979764,0.458663672208786,0.0,0.4585047960281372,0.5,-10.298924446105955,-10.299874305725098,-10.362110137939451,9.65,9.62,-10.260000228881836,1,1,-20.0,-10.27,9.635
324,34139672,1697465371.079724,0.4534325003623962,0.0,0.4536072909832001,0.5,-10.298069953918455,-10.297965049743652,-10.355545997619627,9.65,9.62,-10.260000228881836,0,1,-20.0,-10.27,9.635
325,34169000,1697465371.079724,0.4534325003623962,0.0,0.4536072909832001,0.5,-10.298069953918455,-10.297965049743652,-10.355545997619627,9.65,9.62,-10.260000228881836,0,1,-20.0,-10.27,9.635
326,34239632,1697465371.179684,0.4526050090789795,0.0,0.4508399665355682,0.5,-10.297255516052246,-10.29627513885498,-10.351760864257812,9.65,9.62,-10.260000228881836,0,1,-20.0,-10.27,9.635
327,34273000,1697465371.179684,0.4526050090789795,0.0,0.4508399665355682,0.5,-10.297255516052246,-10.29627513885498,-10.351760864257812,9.65,9.62,-10.260000228881836,0,1,-20.0,-10.27,9.635
328,34339592,1697465371.279644,0.4531092345714569,0.0,0.4502998292446136,0.5,-10.296470642089844,-10.29474925994873,-10.3567533493042,9.65,9.62,-10.260000228881836,0,0,-20.0,-10.27,9.635
329,34369000,1697465371.279644,0.4531092345714569,0.0,0.4502998292446136,0.5,-10.296470642089844,-10.29474925994873,-10.3567533493042,9.65,9.62,-10.260000228881836,0,0,-20.0,-10.27,9.635
330,34439552,1697465371.379604,0.4550494849681854,0.0,0.4512249231338501,0.5,-10.295692443847656,-10.29372215270996,-10.347497940063477,9.65,9.62,-10.260000228881836,0,0,-20.0,-10.27,9.635
331,34474000,1697465371.379604,0.4550494849681854,0.0,0.4512249231338501,0.5,-10.295692443847656,-10.29372215270996,-10.347497940063477,9.65,9.62,-10.260000228881836,0,0,-20.0,-10.27,9.635
332,34539512,1697465371.479564,0.4577319324016571,0.0,0.4539093673229217,0.5,-10.294944763183594,-10.292829513549805,-10.357876777648926,9.65,9.62,-10.260000228881836,0,0,-20.0,-10.27,9.635
333,34569000,1697465371.479564,0.4577319324016571,0.0,0.4539093673229217,0.5,-10.294944763183594,-10.292829513549805,-10.357876777648926,9.65,9.62,-10.260000228881836,0,0,-20.0,-10.269922037124632,9.635077962875366
334,34639472,1697465371.579524,0.460551381111145,0.0,0.4564278125762939,0.5,-10.294212341308594,-10.292438507080078,-10.347317695617676,9.65,9.62,-10.260000228881836,0,0,-20.0,-10.269922037124632,9.635077962875366
335,34675000,1697465371.579524,0.460551381111145,0.0,0.4564278125762939,0.5,-10.294212341308594,-10.292438507080078,-10.347317695617676,9.65,9.62,-10.260000228881836,0,0,-20.0,-10.264659900665285,9.640340099334717
336,34739432,1697465371.679484,0.4637362062931061,0.0,0.4598644077777862,0.5,-10.293479919433594,-10.29206371307373,-10.355501174926758,9.65,9.62,-10.260000228881836,0,0,-20.0,-10.264659900665285,9.640340099334717
337,34769000,1697465371.679484,0.4637362062931061,0.0,0.4598644077777862,0.5,-10.293479919433594,-10.29206371307373,-10.355501174926758,9.65,9.62,-10.260000228881836,0,0,-20.0,-10.26,9.645
338,34839392,1697465371.779444,0.4652184545993805,0.0,0.462251603603363,0.5,-10.292747497558594,-10.29188060760498,-10.351890563964844,9.65,9.62,-10.260000228881836,0,0,-20.0,-10.26,9.645
339,34877000,1697465371.779444,0.4652184545993805,0.0,0.462251603603363,0.5,-10.292747497558594,-10.29188060760498,-10.351890563964844,9.65,9.62,-10.260000228881836,0,0,-20.0,-10.26,9.645
340,34939352,1697465371.879404,0.4669100642204284,0.0,0.4644027352333069,0.5,-10.292015075683594,-10.291718482971191,-10.349587440490724,9.65,9.62,-10.260000228881836,0,0,-20.0,-10.26,9.645
341,34968000,1697465371.879404,0.4669100642204284,0.0,0.4644027352333069,0.5,-10.292015075683594,-10.291718482971191,-10.349587440490724,9.65,9.62,-10.260000228881836,0,0,-20.0,-10.26,9.645
342,35039312,1697465371.979364,0.4670132994651794,0.0,0.4657682776451111,0.5,-10.291282653808594,-10.291346549987791,-10.363887786865234,9.65,9.62,-10.260000228881836,0,0,-20.0,-10.26,9.645
343,35139272,1697465372.079324,0.4679724276065826,0.0,0.466238260269165,0.5,-10.290550231933594,-10.291391372680664,-10.359559059143066,9.65,9.62,-10.260000228881836,0,0,-20.0,-10.26,9.645
344,35171000,1697465372.079324,0.4679724276065826,0.0,0.466238260269165,0.5,-10.290550231933594,-10.291391372680664,-10.359559059143066,9.65,9.62,-10.260000228881836,0,0,-20.0,-10.26,9.645
345,35239232,1697465372.179284,0.4693785905838012,0.0,0.4668915867805481,0.5,-10.289817810058594,-10.291632652282717,-10.360820770263672,9.65,9.62,-10.260000228881836,1,0,-20.0,-10.26,9.645
346,35276000,1697465372.179284,0.4693785905838012,0.0,0.4668915867805481,0.5,-10.289817810058594,-10.291632652282717,-10.360820770263672,9.65,9.62,-10.260000228881836,1,0,-20.0,-10.26,9.645
347,35339192,1697465372.279244,0.4641799330711365,0.0,0.4671811461448669,0.5,-10.289085388183594,-10.291857719421388,-10.364251136779783,9.65,9.62,-10.260000228881836,1,0,-20.0,-10.26,9.645
348,35371000,1697465372.279244,0.4641799330711365,0.0,0.4671811461448669,0.5,-10.289085388183594,-10.291857719421388,-10.364251136779783,9.65,9.62,-10.260000228881836,1,0,-20.0,-10.26,9.645
349,35439985,1697465372.380037,0.4686925411224365,0.0,0.4669405221939087,0.5,-10.288347244262695,-10.29206371307373,-10.347057342529297,9.65,9.62,-10.260000228881836,1,1,-20.0,-10.26,9.645
350,35477000,1697465372.380037,0.4686925411224365,0.0,0.4669405221939087,0.5,-10.288347244262695,-10.29206371307373,-10.347057342529297,9.65,9.62,-10.260000228881836,1,1,-20.0,-10.26,9.645
351,35539945,1697465372.4799967,0.4688230454921722,0.0,0.4668433964252472,0.5,-10.287614822387695,-10.291409492492676,-10.33653736114502,9.65,9.62,-10.25,1,1,-20.0,-10.26,9.645
352,35569000,1697465372.4799967,0.4688230454921722,0.0,0.4668433964252472,0.5,-10.287614822387695,-10.291409492492676,-10.33653736114502,9.65,9.62,-10.25,1,1,-20.0,-10.26,9.645
353,35639905,1697465372.579957,0.460158497095108,0.0,0.4646856188774109,0.5,-10.286882400512695,-10.289463996887209,-10.341952323913574,9.65,9.62,-10.25,1,1,-20.0,-10.26,9.645
354,35675000,1697465372.579957,0.460158497095108,0.0,0.4646856188774109,0.5,-10.286882400512695,-10.289463996887209,-10.341952323913574,9.65,9.62,-10.25,1,1,-20.0,-10.26,9.645
355,35739865,1697465372.679917,0.4491106867790222,0.0,0.4565134942531585,0.5,-10.286149978637695,-10.28687858581543,-10.353196144104004,9.65,9.62,-10.25,0,1,-20.0,-10.26,9.645
356,35770000,1697465372.679917,0.4491106867790222,0.0,0.4565134942531585,0.5,-10.286149978637695,-10.28687858581543,-10.353196144104004,9.65,9.62,-10.25,0,1,-20.0,-10.26,9.645
357,35839825,1697465372.7798767,0.4453738629817962,0.0,0.4489213526248932,0.5,-10.285417556762695,-10.284782409667969,-10.339715003967283,9.65,9.62,-10.25,0,1,-20.0,-10.26,9.645
358,35876000,1697465372.7798767,0.4453738629817962,0.0,0.4489213526248932,0.5,-10.285417556762695,-10.284782409667969,-10.339715003967283,9.65,9.62,-10.25,0,1,-20.0,-10.26,9.645
359,35939785,1697465372.879837,0.4473646283149719,0.0,0.4470586776733398,0.5,-10.284685134887695,-10.28299617767334,-10.338726997375488,9.65,9.62,-10.25,0,1,-20.0,-10.26,9.645
360,35970000,1697465372.879837,0.4473646283149719,0.0,0.4470586776733398,0.5,-10.284685134887695,-10.28299617767334,-10.338726997375488,9.65,9.62,-10.25,0,1,-20.0,-10.26,9.645
361,36039745,1697465372.9797971,0.4494361877441406,0.0,0.4479745328426361,0.5,-10.283952713012695,-10.281512260437012,-10.352232933044434,9.65,9.62,-10.25,0,0,-20.0,-10.26,9.645
