TimeUS,terrain_z,sub_z,rf
26767000,-20.0,-10.179542165374755,9.725457834625244
26874000,-20.0,-10.238629067611692,9.666370932388308
26968000,-20.0,-10.290348674064903,9.614651325935096
27074000,-20.0,-10.348014340808044,9.556985659191955
27169000,-20.0,-10.40070895576477,9.504291044235229
27273000,-20.0,-10.426620286941528,9.478379713058471
27369000,-20.0,-10.45052329559326,9.454476704406739
27474000,-20.0,-10.471445002746583,9.433554997253417
27577000,-20.0,-10.490366381454468,9.414633618545531
27690000,-20.0,-10.495988768386841,9.409011231613158
27805000,-20.0,-10.50174856309274,9.40325143690726
27920000,-20.0,-10.507293159143249,9.39770684085675
27777000,-20.0,-10.500366456520497,9.404633543479502
27887000,-20.0,-10.505856963579927,9.399143036420073
27980000,-20.0,-10.51,9.395
28173000,-20.0,-10.510193119049072,9.394806880950927
28371000,-20.0,-10.52,9.385
28571000,-20.0,-10.52,9.385
28676000,-20.0,-10.52,9.385
28772000,-20.0,-10.52,9.385
28968000,-20.0,-10.519968541974398,9.385031458025601
29076000,-20.0,-10.5145879498199,9.3904120501801
29168000,-20.0,-10.5099258518219,9.3950741481781
29274000,-20.0,-10.504646310806274,9.400353689193725
29369000,-20.0,-10.499873467636109,9.40512653236389
29475000,-20.0,-10.494620152664185,9.410379847335815
29569000,-20.0,-10.489872752380371,9.415127247619628
29675000,-20.0,-10.484603940200806,9.420396059799193
29769000,-20.0,-10.47987561340332,9.425124386596679
29973000,-20.0,-10.469740535299577,9.435259464700422
30080000,-20.0,-10.464344921206955,9.440655078793045
30170000,-20.0,-10.459768733978272,9.445231266021727
30274000,-20.0,-10.449450931549073,9.455549068450926
30369000,-20.0,-10.439914646148681,9.465085353851318
30477000,-20.0,-10.434641304016113,9.470358695983887
30568000,-20.0,-10.429946935272216,9.475053064727783
30674000,-20.0,-10.419414556121826,9.485585443878174
30768000,-20.0,-10.40996774559021,9.49503225440979
30875000,-20.0,-10.404696787643433,9.500303212356567
30970000,-20.0,-10.399734265899658,9.505265734100341
31170000,-20.0,-10.379904803942198,9.525095196057801
31279000,-20.0,-10.374445377905763,9.530554622094236
31372000,-20.0,-10.369789067459106,9.535210932540894
31477000,-20.0,-10.364479008865356,9.540520991134644
31571000,-20.0,-10.35980384941101,9.545196150588989
31678000,-20.0,-10.354432517242431,9.550567482757568
31771000,-20.0,-10.349800273132324,9.555199726867675
31878000,-20.0,-10.34443823928833,9.56056176071167
31975000,-20.0,-10.339614090421307,9.565385909578692
32081000,-20.0,-10.334329263867431,9.570670736132568
32170000,-20.0,-10.32986219406128,9.57513780593872
32275000,-20.0,-10.324676351547241,9.580323648452758
32370000,-20.0,-10.319865770339966,9.585134229660033
32476000,-20.0,-10.314652509689331,9.590347490310668
32570000,-20.0,-10.309887160110474,9.595112839889525
32771000,-20.0,-10.3,9.604999999999999
32878000,-20.0,-10.3,9.604999999999999
32972000,-20.0,-10.299799660491944,9.605200339508055
33080000,-20.0,-10.294375399398803,9.610624600601197
33172000,-20.0,-10.289804164943982,9.615195835056017
33370000,-20.0,-10.28,9.625
33478000,-20.0,-10.28,9.625
33570000,-20.0,-10.279851056289672,9.625148943710327
33677000,-20.0,-10.27453622932434,9.630463770675659
33769000,-20.0,-10.27,9.635
33969000,-20.0,-10.27,9.635
34073000,-20.0,-10.27,9.635
34169000,-20.0,-10.27,9.635
34273000,-20.0,-10.27,9.635
34369000,-20.0,-10.27,9.635
34474000,-20.0,-10.27,9.635
34569000,-20.0,-10.269922037124633,9.635077962875366
34675000,-20.0,-10.264659900665283,9.640340099334717
34769000,-20.0,-10.26,9.645
34877000,-20.0,-10.26,9.645
34968000,-20.0,-10.26,9.645
35171000,-20.0,-10.26,9.645
35276000,-20.0,-10.26,9.645
35371000,-20.0,-10.26,9.645
35477000,-20.0,-10.26,9.645
35569000,-20.0,-10.26,9.645
35675000,-20.0,-10.26,9.645
35770000,-20.0,-10.26,9.645
35876000,-20.0,-10.26,9.645
35970000,-20.0,-10.26,9.645
36076000,-20.0,-10.26,9.645
36169000,-20.0,-10.259876706706944,9.645123293293056
36277000,-20.0,-10.254577883440463,9.650422116559536
36371000,-20.0,-10.25,9.655
36572000,-20.0,-10.25,9.655
36682000,-20.0,-10.25,9.655
36771000,-20.0,-10.25,9.655
36878000,-20.0,-10.25,9.655
36974000,-20.0,-10.25,9.655
37080000,-20.0,-10.25,9.655
37170000,-20.0,-10.25,9.655
37277000,-20.0,-10.25,9.655
37369000,-20.0,-10.249909117042119,9.65509088295788
37474000,-20.0,-10.244716863584278,9.660283136415721
37570000,-20.0,-10.24,9.665
37676000,-16.0,-10.24,5.665
37770000,-16.0,-10.24,5.665
37972000,-16.0,-10.24,5.665
38084000,-16.0,-10.24,5.665
38172000,-16.0,-10.24,5.665
38278000,-16.0,-10.24,5.665
38371000,-16.0,-10.24,5.665
38570000,-16.0,-10.24,5.665
38676000,-16.0,-10.24,5.665
38768000,-16.0,-10.239970845031738,5.665029154968262
38873000,-16.0,-10.23472921257019,5.67027078742981
38969000,-16.0,-10.22975885772705,5.67524114227295
39078000,-16.0,-10.202543376922605,5.702456623077395
39168000,-16.0,-10.179641693115233,5.725358306884767
39368000,-16.0,-10.079442175476993,5.825557824523007
39473000,-16.0,-10.006603023203171,5.898396976796829
39569000,-16.0,-9.938439788818354,5.966560211181647
39674000,-16.0,-9.853906097412104,6.051093902587897
39771000,-16.0,-9.777576301574703,6.127423698425297
39876000,-16.0,-9.69846186447143,6.206538135528571
39971000,-16.0,-9.626823443603513,6.278176556396487
40078000,-16.0,-9.541034716796872,6.363965283203128
40170000,-16.0,-9.467880285263059,6.437119714736942
40278000,-16.0,-9.387063539505004,6.5179364604949965
40370000,-16.0,-9.317837453813697,6.5871625461863035
40570000,-16.0,-9.16850845336914,6.73649154663086
40673000,-16.0,-9.085790557861326,6.819209442138674
40770000,-16.0,-9.008623132705683,6.896376867294317
40873000,-16.0,-8.93081761360168,6.9741823863983194
40969000,-16.0,-8.858893911361692,7.046106088638308
41077000,-16.0,-8.778445522308346,7.126554477691655
41169000,-16.0,-8.709014380645751,7.195985619354249
41279000,-16.0,-8.632897818756103,7.2721021812438975
41368000,-16.0,-8.56947326850891,7.335526731491091
41473000,-16.0,-8.490691425323487,7.414308574676514
41570000,-16.0,-8.418781312722055,7.486218687277945
41675000,-16.0,-8.34498273533193,7.56001726466807
41775000,-16.0,-8.266399778747548,7.638600221252452
41881000,-16.0,-8.070412792587266,7.834587207412734
41972000,-16.0,-7.906839452362058,7.998160547637943
42077000,-16.0,-7.838856301879881,8.066143698120118
42171000,-16.0,-7.777689108276364,8.127310891723635
42277000,-16.0,-7.714992651367186,8.190007348632813
42570000,-16.0,-7.538887062072754,8.366112937927246
42677000,-16.0,-7.475180664062498,8.4298193359375
42770000,-16.0,-7.419027252197262,8.485972747802737
42877000,-16.0,-7.366000576019284,8.538999423980714
42969000,-16.0,-7.319458110809325,8.585541889190674
43080000,-16.0,-7.264421566009519,8.64057843399048
43169000,-16.0,-7.219486550521849,8.68551344947815
43279000,-16.0,-7.170170382690429,8.73482961730957
43369000,-16.0,-7.129587401580809,8.775412598419189
43477000,-16.0,-7.080938567352295,8.824061432647705
43569000,-16.0,-7.039674122872663,8.865325877127336
43680000,-16.0,-7.00079224591279,8.904207754087208
43770000,-16.0,-6.968959062957762,8.936040937042238
43970000,-16.0,-6.898994757843017,9.006005242156983
44078000,-16.0,-6.8667109748840325,9.038289025115967
44169000,-16.0,-6.839314886093138,9.065685113906861
44277000,-16.0,-6.812612005233764,9.092387994766236
44373000,-16.0,-6.788759205376925,9.116240794623074
44573000,-16.0,-6.729200820922852,9.175799179077147
44680000,-16.0,-6.707977752685546,9.197022247314452
44771000,-16.0,-6.689479293823241,9.21552070617676
44875000,-16.0,-6.668717803955078,9.236282196044922
44971000,-16.0,-6.649485015869141,9.255514984130858
45076000,-16.0,-6.628376388549804,9.276623611450196
45169000,-16.0,-6.60973556060791,9.29526443939209
45277000,-16.0,-6.588493418884277,9.316506581115723
45371000,-16.0,-6.569733005905151,9.335266994094848
45476000,-16.0,-6.553731304550171,9.351268695449829
45570000,-16.0,-6.539743019485473,9.365256980514525
45676000,-16.0,-6.52413184776306,9.380868152236939
45770000,-16.0,-6.50967487507729,9.395325124922708
45875000,-16.0,-6.493903306357225,9.411096693642774
45976000,-16.0,-6.479166624450683,9.425833375549315
46171000,-16.0,-6.459636785888671,9.445363214111328
46277000,-16.0,-6.449019052886963,9.455980947113035
46376000,-16.0,-6.439356405639649,9.46564359436035
46485000,-16.0,-6.42846258392334,9.47653741607666
46596000,-16.0,-6.41729095990385,9.48770904009615
46571000,-16.0,-6.419631001486707,9.485368998513293
46678000,-16.0,-6.408984485075841,9.496015514924158
46771000,-16.0,-6.399658584594726,9.505341415405274
46972000,-16.0,-6.37980354309082,9.52519645690918
47175000,-16.0,-6.369588353729248,9.53541164627075
47283000,-16.0,-6.358682611083984,9.546317388916014
47393000,-16.0,-6.35,9.555
47372000,-16.0,-6.35,9.555
47569000,-16.0,-6.349945811080932,9.555054188919067
47769000,-16.0,-6.339951768808029,9.565048231191971
47873000,-16.0,-6.334708237384432,9.570291762615566
47969000,-16.0,-6.329863215637207,9.575136784362792
48075000,-16.0,-6.324607516479492,9.580392483520507
48171000,-16.0,-6.319799557876587,9.585200442123412
48277000,-16.0,-6.314559832763671,9.590440167236329
48370000,-16.0,-6.31,9.595
48475000,-16.0,-6.31,9.595
48571000,-16.0,-6.309820245391693,9.595179754608306
48675000,-16.0,-6.304630311804623,9.600369688195377
48771000,-16.0,-6.299833345413208,9.60516665458679
48880000,-16.02,-6.294558811187744,9.630441188812254
48989000,-16.05,-6.29,9.665000000000001
48976000,-16.08,-6.29,9.694999999999999
49085000,-16.1,-6.29,9.715000000000002
49170000,-16.12,-6.289919346618652,9.735080653381347
49370000,-16.15,-6.28,9.774999999999997
49476000,-16.17,-6.28,9.795
49571000,-16.2,-6.279839237976074,9.825160762023925
49769000,-16.23,-6.27,9.865
49971000,-16.25,-6.27,9.885
50079000,-16.27,-6.27,9.905
50169000,-16.3,-6.270135353851318,9.934864646148682
50274000,-16.33,-6.275377224731446,9.959622775268551
50369000,-16.35,-6.28,9.975
50475000,-16.38,-6.28,10.004999999999997
50917000,-16.4,-6.287392312804265,10.017607687195733
50572000,-16.42,-6.28,10.045
50681000,-16.45,-6.28,10.074999999999998
50776000,-16.48,-6.280354832132065,10.104645167867934
50976000,-16.5,-6.29,10.115
51172000,-16.52,-6.290147581100464,10.134852418899536
51371000,-16.55,-6.300118323516846,10.154881676483155
51480000,-16.58,-6.305558320236206,10.179441679763793
51571000,-16.6,-6.310188486480713,10.194811513519289
51771000,-16.62,-6.330206129455567,10.194793870544434
51971000,-16.65,-6.350217708415123,10.204782291584875
52170000,-16.67,-6.3701663482666016,10.2048336517334
52275000,-16.7,-6.375385092544556,10.229614907455444
52370000,-16.73,-6.380451837921142,10.254548162078857
52477000,-16.75,-6.396193901443482,10.258806098556517
52573000,-16.77,-6.410459058380128,10.264540941619872
52681000,-16.8,-6.421326654052734,10.283673345947266
52774000,-16.83,-6.430597690563297,10.304402309436702
52881000,-16.85,-6.4411550075853645,10.313844992414635
52974000,-16.88,-6.450763177871704,10.334236822128295
53173000,-16.9,-6.48035858154297,10.324641418457029
53282000,-16.92,-6.491255741119385,10.333744258880616
53389000,-16.95,-6.502890319824219,10.35210968017578
53372000,-16.98,-6.500530923461914,10.384469076538085
53571000,-17.0,-6.530256197357178,10.37474380264282
53677000,-17.03,-6.540752336883545,10.394247663116454
53770000,-17.05,-6.550352824783325,10.404647175216676
53877000,-17.08,-6.566122068023682,10.418877931976317
53971000,-17.1,-6.5804954923696855,10.424504507630315
54077000,-17.12,-6.596328163338667,10.428671836661334
54170000,-17.15,-6.610423431396485,10.444576568603514
54372000,-17.17,-6.640642811203002,10.434357188797
54572000,-17.2,-6.6710411407470716,10.433958859252927
54677000,-17.23,-6.69195521850586,10.44304478149414
54770000,-17.25,-6.710434671783448,10.444565328216552
54875000,-17.28,-6.726120945358278,10.458879054641722
54970000,-17.3,-6.7405871172093645,10.464412882790635
55078000,-17.33,-6.761963655841885,10.473036344158112
55170000,-17.35,-6.78034809112549,10.474651908874511
55277000,-17.38,-6.801558761596681,10.483441238403318
55370000,-17.4,-6.820266790390015,10.484733209609983
55479000,-17.42,-6.836368627548217,10.488631372451783
55569000,-17.45,-6.850154766845703,10.504845233154295
55769000,-17.48,-6.890133241271973,10.494866758728028
55873000,-17.5,-6.905683616256714,10.499316383743286
55969000,-17.53,-6.920198635864258,10.514801364135742
56074000,-17.55,-6.941095547485353,10.513904452514646
56169000,-17.58,-6.960187173967985,10.524812826032013
56274000,-17.6,-6.9811440472626805,10.52385595273732
56371000,-17.62,-7.000640597534179,10.524359402465821
56479000,-17.65,-7.0222479965209965,10.532752003479002
56570000,-17.67,-7.040535693359376,10.534464306640624
56675000,-17.7,-7.061553721618653,10.543446278381346
56769000,-17.73,-7.080478472900392,10.554521527099608
56874000,-17.75,-7.101441188049318,10.553558811950682
56970000,-17.78,-7.120566240756667,10.564433759243334
57170000,-17.8,-7.160375747680666,10.544624252319334
57275000,-17.83,-7.181514892578126,10.553485107421873
57369000,-17.85,-7.2003318786621096,10.554668121337892
57473000,-17.88,-7.221075248718262,10.563924751281737
57569000,-17.9,-7.240242504882813,10.564757495117185
57676000,-17.92,-7.261622929382326,10.563377070617674
57768000,-17.95,-7.280124249267579,10.574875750732419
57875000,-17.98,-7.301341595458985,10.583658404541014
57972000,-18.0,-7.320785145568848,10.584214854431151
58078000,-18.02,-7.34201202850342,10.58298797149658
58169000,-18.05,-7.360200421127243,10.594799578872758
58370000,-18.08,-7.410596728515625,10.574403271484373
58475000,-18.1,-7.431479335021973,10.573520664978028
58570000,-18.12,-7.450578608703615,10.574421391296385
58675000,-18.15,-7.471515574645997,10.583484425354001
58772000,-18.18,-7.490854220581056,10.594145779418943
58877000,-18.2,-7.5120553543090836,10.592944645690915
58971000,-18.23,-7.531139563944804,10.603860436055195
59076000,-18.25,-7.557016875992962,10.597983124007039
59171000,-18.27,-7.580602722167971,10.594397277832028
59276000,-18.3,-7.60146339416504,10.60353660583496
59370000,-18.33,-7.620643730163574,10.614356269836422
59475000,-18.35,-7.646687383651733,10.608312616348268
59571000,-18.38,-7.670517163085938,10.61448283691406
59675000,-18.4,-7.691264347839357,10.61373565216064
59769000,-18.43,-7.710292095947266,10.624707904052732
59968000,-18.45,-7.750130277633668,10.604869722366331
60077000,-18.48,-7.777296882629396,10.607703117370603
60169000,-18.5,-7.800154586101897,10.604845413898103
60278000,-18.53,-7.821966411648084,10.613033588351916
60369000,-18.55,-7.840427961349487,10.614572038650513
60477000,-18.58,-7.867326345443726,10.617673654556272
60571000,-18.6,-7.8907388259887705,10.614261174011231
60678000,-18.62,-7.912045817565918,10.612954182434082
60771000,-18.65,-7.930909227371217,10.624090772628781
60880000,-18.68,-7.958177160263063,10.626822839736937
60972000,-18.7,-7.9813038101196305,10.623696189880368
61169000,-18.73,-8.030506458187578,10.604493541812422
61276000,-18.75,-8.051755840244578,10.603244159755421
61370000,-18.78,-8.070475645065308,10.614524354934693
61569000,-18.8,-8.120317573547362,10.584682426452638
61674000,-18.83,-8.141174430847169,10.593825569152829
61769000,-18.85,-8.160175577163697,10.594824422836304
61874000,-18.88,-8.186607852935792,10.598392147064207
61969000,-18.9,-8.210138554382326,10.594861445617672
62076000,-18.93,-8.231598133850099,10.6034018661499
62168000,-18.95,-8.250114780426026,10.604885219573973
62275000,-18.98,-8.276752096176148,10.608247903823852
62372000,-19.0,-8.300541806628358,10.604458193371642
62570000,-19.03,-8.34081028366089,10.59418971633911
62676000,-19.05,-8.36711619758606,10.58788380241394
62770000,-19.08,-8.390648226928713,10.594351773071285
62876000,-19.1,-8.4116900970459,10.5933099029541
62970000,-19.12,-8.430554766845704,10.594445233154296
63080000,-19.15,-8.452472109985353,10.602527890014645
63170000,-19.18,-8.470699497811239,10.61430050218876
63277000,-19.2,-8.497252922247892,10.607747077752107
63369000,-19.23,-8.520331878662109,10.61466812133789
63569000,-19.25,-8.560418424606324,10.594581575393676
63673000,-19.28,-8.586329755783082,10.598670244216919
63769000,-19.3,-8.610172886657715,10.594827113342285
63874000,-19.33,-8.63131870727539,10.603681292724607
63969000,-19.35,-8.650177655029298,10.604822344970703
64079000,-19.38,-8.672116932678225,10.612883067321773
64169000,-19.4,-8.690233989715576,10.614766010284422
64275000,-19.43,-8.716487451553345,10.618512548446654
64369000,-19.45,-8.740309446708642,10.614690553291357
64478000,-19.48,-8.767313046479346,10.617686953520654
64570000,-19.5,-8.790549316406251,10.614450683593748
64673000,-19.53,-8.811272659301759,10.623727340698242
64770000,-19.55,-8.830863927841186,10.624136072158814
64874000,-19.58,-8.856800292968751,10.628199707031246
64971000,-19.6,-8.880871386718752,10.624128613281249
65075000,-19.62,-8.90161284942627,10.62338715057373
65170000,-19.65,-8.920825780868531,10.634174219131467
65370000,-19.68,-8.970517845343597,10.614482154656402
65476000,-19.7,-8.991769125259932,10.613230874740067
65570000,-19.73,-9.010441074371338,10.624558925628662
65676000,-19.75,-9.037168989181518,10.617831010818481
65769000,-19.78,-9.060296592712403,10.624703407287598
65874000,-19.8,-9.081331787109375,10.623668212890625
65970000,-19.83,-9.1005987701416,10.634401229858398
66076000,-19.85,-9.127017932891844,10.627982067108157
66169000,-19.88,-9.1502825592041,10.634717440795898
66273000,-19.9,-9.171031651306153,10.633968348693845
66369000,-19.93,-9.190360351562502,10.644639648437497
66569000,-19.95,-9.240188440294125,10.614811559705874
66674000,-19.98,-9.266757135822548,10.618242864177452
66769000,-20.0,-9.29050517578125,10.614494824218749
66876000,-20.0,-9.311803584289551,10.593196415710448
66970000,-20.0,-9.33090326690674,10.57409673309326
67086000,-20.0,-9.35858127975464,10.54641872024536
67198000,-20.0,-9.386558507919313,10.518441492080687
67186000,-20.0,-9.382953666687014,10.522046333312986
67298000,-20.0,-9.412251733779907,10.492748266220092
67372000,-20.0,-9.430774056353973,10.474225943646026
67479000,-20.0,-9.45217811394687,10.45282188605313
67570000,-20.0,-9.470524520874024,10.434475479125975
67770000,-20.0,-9.520398635864257,10.384601364135742
67969000,-20.0,-9.560210147857665,10.344789852142334
68169000,-20.0,-9.610116619873045,10.294883380126954
68273000,-20.0,-9.6309763381958,10.274023661804199
68369000,-20.0,-9.650237736511233,10.254762263488766
68476000,-20.0,-9.671621022033692,10.233378977966307
68569000,-20.0,-9.690113783026462,10.214886216973538
68677000,-20.0,-9.706392140987532,10.198607859012467
68769000,-20.0,-9.720508036804201,10.184491963195798
68874000,-20.0,-9.741482196044922,10.163517803955077
68970000,-20.0,-9.760557627868653,10.144442372131346
69170000,-20.0,-9.800421797180178,10.104578202819821
69277000,-20.0,-9.816194616699219,10.08880538330078
69370000,-20.0,-9.830444608090529,10.07455539190947
69479000,-20.0,-9.846383068027782,10.058616931972217
69572000,-20.0,-9.860385522842407,10.044614477157593
69677000,-20.0,-9.876372203826904,10.028627796173096
69769000,-20.0,-9.890217437744141,10.014782562255858
69874000,-20.0,-9.905961647033692,9.999038352966307
69972000,-20.0,-9.920513553619385,9.984486446380615
70077000,-20.0,-9.936382932662964,9.968617067337036
70168000,-20.0,-9.950044481658935,9.954955518341064
70371000,-20.0,-9.970206129455567,9.934793870544432
70476000,-20.0,-9.980756151580811,9.924243848419188
70569000,-20.0,-9.990126497650147,9.914873502349852
70675000,-20.0,-10.000559217834473,9.904440782165526
70769000,-20.0,-10.010088794650745,9.894911205349255
70875000,-20.0,-10.020750777661501,9.884249222338498
70970000,-20.0,-10.030263555145263,9.874736444854737
71077000,-20.0,-10.041002881622315,9.863997118377684
71170000,-20.0,-10.050136545944214,9.854863454055785
71278000,-20.0,-10.055525997924805,9.849474002075194
71371000,-20.0,-10.060378949737549,9.84462105026245
71476000,-20.0,-10.070801179504395,9.834198820495605
71571000,-20.0,-10.080189955602238,9.824810044397761
71676000,-20.0,-10.085391750810158,9.81960824918984
71771000,-20.0,-10.090134229660034,9.814865770339965
71877000,-20.0,-10.095430221557617,9.809569778442382
71971000,-20.0,-10.100173807144165,9.804826192855835
72075000,-20.0,-10.105339860916137,9.799660139083862
72368000,-20.0,-10.13,9.774999999999999
72472000,-20.0,-10.13,9.774999999999999
72581000,-20.0,-10.130552474212648,9.774447525787352
72569000,-20.0,-10.130035830688477,9.774964169311522
72770000,-20.0,-10.14004511617536,9.76495488382464
72877000,-20.0,-10.145451107696074,9.759548892303926
72970000,-20.0,-10.150138691711426,9.754861308288573
73077000,-20.0,-10.15550620918274,9.74949379081726
73170000,-20.0,-10.16,9.745
73277000,-20.0,-10.16,9.745
73370000,-20.0,-10.160127247619629,9.74487275238037
73474000,-20.0,-10.165372933197022,9.739627066802978
73570000,-20.0,-10.170129698568315,9.734870301431684
73677000,-20.0,-10.175439434525979,9.72956056547402
73771000,-20.0,-10.18,9.725
73875000,-20.0,-10.18,9.725
73975000,-20.0,-10.18,9.725
74079000,-20.0,-10.18,9.725
74169000,-20.0,-10.180073500823974,9.724926499176025
74370000,-20.0,-10.19,9.715
74477000,-20.0,-10.19,9.715
74569000,-20.0,-10.190035830688476,9.714964169311523
74677000,-20.0,-10.195366631698608,9.709633368301391
74769000,-20.0,-10.2,9.705
74875000,-20.0,-10.2,9.705
74970000,-20.0,-10.2,9.705
75076000,-20.0,-10.2,9.705
75171000,-20.0,-10.2,9.705
75370000,-20.0,-10.2,9.705
75479000,-20.0,-10.2,9.705
75570000,-20.0,-10.200133208084106,9.704866791915894
75674000,-20.0,-10.20535433654785,9.699645663452149
75769000,-20.0,-10.21,9.694999999999999
75874000,-20.0,-10.21,9.694999999999999
75969000,-20.0,-10.21,9.694999999999999
76170000,-20.0,-10.21,9.694999999999999
76275000,-20.0,-10.21,9.694999999999999
76369000,-20.0,-10.210043698501588,9.694956301498411
76473000,-20.0,-10.21524193878174,9.68975806121826
76569000,-20.0,-10.22,9.684999999999999
76673000,-20.0,-10.22,9.684999999999999
76768000,-20.0,-10.22,9.684999999999999
76874000,-20.0,-10.22,9.684999999999999
76969000,-20.0,-10.22,9.684999999999999
77076000,-20.0,-10.22,9.684999999999999
77170000,-20.0,-10.22,9.684999999999999
77370000,-20.0,-10.22,9.684999999999999
77475000,-20.0,-10.22,9.684999999999999
77571000,-20.0,-10.22,9.684999999999999
77677000,-20.0,-10.22,9.684999999999999
77773000,-16.0,-10.22,5.685
77878000,-16.0,-10.22,5.685
77970000,-16.0,-10.22,5.685
78077000,-16.0,-10.22,5.685
78171000,-16.0,-10.22,5.685
78278000,-16.0,-10.22,5.685
78369000,-16.0,-10.22,5.685
78476000,-16.0,-10.22,5.685
78569000,-16.0,-10.22,5.685
78770000,-16.0,-10.219904973602295,5.685095026397705
78875000,-16.0,-10.209374501800536,5.6956254981994645
78969000,-16.0,-10.199510499580423,5.705489500419577
79076000,-16.0,-10.146059210695814,5.758940789304186
79170000,-16.0,-10.09774438667297,5.8072556133270306
79275000,-16.0,-10.019574087142942,5.885425912857058
79371000,-16.0,-9.947208557510372,5.957791442489628
79480000,-16.0,-9.855490599060055,6.049509400939946
79573000,-16.0,-9.775145521545417,6.129854478454583
79679000,-16.0,-9.68660520591736,6.2183947940826405
79771000,-16.0,-9.606911908050078,6.298088091949922
79970000,-16.0,-9.438600006103515,6.466399993896485
80080000,-16.0,-9.350259246826173,6.554740753173827
80170000,-16.0,-9.278565673828124,6.626434326171876
80277000,-16.0,-9.193269042968744,6.711730957031256
80370000,-16.0,-9.118649597167957,6.786350402832043
80475000,-16.0,-9.03418457031249,6.87081542968751
80570000,-16.0,-8.958732978820795,6.946267021179206
80675000,-16.0,-8.88014783096313,7.02485216903687
80770000,-16.0,-8.808636419296258,7.096363580703742
80875000,-16.0,-8.729886762619014,7.1751132373809865
80971000,-16.0,-8.657613603591923,7.247386396408078
81169000,-16.0,-8.509408629144259,7.395591370855741
81275000,-16.0,-8.434858613900804,7.470141386099196
81373000,-16.0,-8.36690007858276,7.538099921417241
81480000,-16.0,-8.290816895294187,7.6141831047058135
81573000,-16.0,-8.226886727142341,7.678113272857659
81679000,-16.0,-8.151718117523195,7.753281882476805
81778000,-16.0,-8.084759727096554,7.820240272903447
81883000,-16.0,-8.014892116165159,7.890107883834841
81972000,-16.0,-7.956929192993768,7.948070807006231
82078000,-16.0,-7.8894323001690765,8.015567699830923
82171000,-16.0,-7.828274803161621,8.076725196838378
82373000,-16.0,-7.708229742050163,8.196770257949836
82480000,-16.0,-7.6487176036834645,8.256282396316534
82572000,-16.0,-7.598727289962763,8.306272710037236
82678000,-16.0,-7.5396059196472125,8.365394080352788
82774000,-16.0,-7.487984683990474,8.417015316009525
82880000,-16.0,-7.434552696228024,8.470447303771975
82976000,-16.0,-7.387284993362429,8.517715006637571
83082000,-16.0,-7.339022397232059,8.56597760276794
83170000,-16.0,-7.2991777402791564,8.605822259720844
83373000,-16.0,-7.208287744140623,8.696712255859376
83570000,-16.0,-7.128977421188358,8.776022578811641
83676000,-16.0,-7.092476251983643,8.812523748016355
83770000,-16.0,-7.058979090118406,8.846020909881593
83876000,-16.0,-7.022454555892943,8.882545444107057
83970000,-16.0,-6.9889841692720465,8.916015830727952
84080000,-16.0,-6.951130178650813,8.953869821349185
84170000,-16.0,-6.919520778656006,8.985479221343994
84277000,-16.0,-6.8876804542541485,9.01731954574585
84370000,-16.0,-6.859562501907345,9.045437498092655
84572000,-16.0,-6.809302933502194,9.095697066497804
84676000,-16.0,-6.7775741889953585,9.12742581100464
84772000,-16.0,-6.749539103698728,9.155460896301271
84876000,-16.0,-6.728383746337889,9.17661625366211
84969000,-16.0,-6.709750513076783,9.195249486923215
85078000,-16.0,-6.682941535949709,9.22205846405029
85170000,-16.0,-6.659785988965826,9.245214011034173
85277000,-16.0,-6.63832783761336,9.266672162386639
85369000,-16.0,-6.619676704406738,9.28532329559326
85477000,-16.0,-6.598252410888672,9.306747589111326
85571000,-16.0,-6.579588931655885,9.325411068344115
85773000,-16.0,-6.549354327774047,9.355645672225952
85879000,-16.0,-6.5333497653961174,9.371650234603882
85970000,-16.0,-6.519704973602294,9.385295026397705
86075000,-16.0,-6.509251272583008,9.395748727416992
86171000,-16.0,-6.499487780670621,9.40551221932938
86278000,-16.0,-6.48352369963233,9.42147630036767
86370000,-16.0,-6.469839782714842,9.435160217285157
86475000,-16.0,-6.459339351654052,9.445660648345948
86569000,-16.0,-6.449860763549805,9.455139236450195
86676000,-16.0,-6.439258766174317,9.465741233825684
86770000,-16.0,-6.4299259544372545,9.475074045562744
86969000,-16.0,-6.409954155731201,9.495045844268798
87073000,-16.0,-6.404718006896974,9.500281993103025
87168000,-16.0,-6.399938829040528,9.50506117095947
87278000,-16.0,-6.389127500152588,9.515872499847411
87370000,-16.0,-6.379926369441813,9.525073630558186
87478000,-16.0,-6.374578365153404,9.530421634846595
87571000,-16.0,-6.369712126159669,9.53528787384033
87677000,-16.0,-6.35900140991211,9.545998590087889
87770000,-16.0,-6.349859400939941,9.555140599060058
87970000,-16.0,-6.34,9.565
88079000,-16.0,-6.34,9.565
88170000,-16.0,-6.339854881324578,9.565145118675423
88274000,-16.0,-6.334658779694666,9.570341220305332
88369000,-16.0,-6.329921083450317,9.575078916549684
88473000,-16.0,-6.324757652282714,9.580242347717286
88570000,-16.0,-6.3199184608459475,9.585081539154052
88675000,-16.0,-6.314666576385498,9.590333423614501
88768000,-16.0,-6.31,9.595
88875000,-16.02,-6.31,9.615
88970000,-16.05,-6.30987738494873,9.64512261505127
89076000,-16.08,-6.304678429412842,9.680321570587155
89169000,-16.1,-6.3,9.705
89275000,-16.12,-6.3,9.725
89369000,-16.15,-6.2999232544252015,9.755076745574796
89570000,-16.17,-6.29,9.785000000000002
89678000,-16.2,-6.29,9.815
89773000,-16.23,-6.289795743179321,9.845204256820677
89880000,-16.25,-6.284352170181275,9.870647829818724
89973000,-16.27,-6.28,9.894999999999998
90082000,-16.3,-6.28,9.924999999999999
90171000,-16.33,-6.28,9.954999999999997
90280000,-16.35,-6.28,9.975
90371000,-16.38,-6.280183550326979,10.00481644967302
90478000,-16.4,-6.285491151192889,10.019508848807108
90571000,-16.42,-6.29,10.035000000000002
90677000,-16.45,-6.29,10.065
90771000,-16.48,-6.29,10.095
90969000,-16.5,-6.290027962875366,10.114972037124632
91077000,-16.52,-6.295451985549926,10.129548014450073
91168000,-16.55,-6.300022479248047,10.154977520751954
91369000,-16.58,-6.310035592269897,10.1749644077301
91473000,-16.6,-6.315245991897584,10.189754008102417
91570000,-16.62,-6.32006596282499,10.20493403717501
91678000,-16.65,-6.325528983111358,10.22947101688864
91770000,-16.67,-6.330281674957276,10.244718325042724
91875000,-16.7,-6.3407968879699705,10.264203112030028
91994000,-16.73,-6.3507213867187495,10.28427861328125
92114000,-16.75,-6.3567288196563725,10.298271180343628
92231000,-16.77,-6.366044232940674,10.308955767059325
92340000,-16.8,-6.376945684051513,10.328054315948487
92172000,-16.83,-6.360391347503663,10.374608652496335
92376000,-16.85,-6.380835329881355,10.374164670118645
92484000,-16.88,-6.397190132710472,10.387809867289526
92571000,-16.9,-6.41029993057251,10.394700069427488
92771000,-16.92,-6.430268936157226,10.394731063842775
92970000,-16.95,-6.450362838363647,10.404637161636352
93168000,-16.98,-6.480076020812988,10.404923979187013
93275000,-17.0,-6.4961056171417235,10.408894382858277
93369000,-17.03,-6.510072444534303,10.424927555465699
93476000,-17.05,-6.526066278076173,10.428933721923828
93569000,-17.08,-6.540141167568803,10.444858832431196
93679000,-17.1,-6.56215139571147,10.44284860428853
93771000,-17.12,-6.580546966934205,10.444453033065797
93877000,-17.15,-6.596435657882691,10.458564342117308
93971000,-17.17,-6.610680719757081,10.46431928024292
94076000,-17.2,-6.62627687110901,10.478723128890989
94170000,-17.23,-6.640523363494873,10.494476636505127
94275000,-17.25,-6.656120945358277,10.498879054641723
94371000,-17.28,-6.670685805894843,10.514314194105157
94570000,-17.3,-6.710297546386719,10.49470245361328
94677000,-17.33,-6.726393661499023,10.508606338500973
94772000,-17.35,-6.7404959106445315,10.51450408935547
94878000,-17.38,-6.761942138671875,10.523057861328123
94976000,-17.4,-6.781063618469237,10.523936381530762
95080000,-17.42,-6.802338185119628,10.522661814880374
95169000,-17.45,-6.820297817993163,10.534702182006836
95282000,-17.48,-6.84164009552002,10.54335990447998
95380000,-17.5,-6.861200947570803,10.543799052429195
95490000,-17.53,-6.8837677429199235,10.551232257080077
95601000,-17.55,-6.906255187988283,10.548744812011718
95571000,-17.58,-6.900376950364619,10.584623049635379
95681000,-17.6,-6.922319127375159,10.582680872624842
95771000,-17.62,-6.940678062438968,10.584321937561032
95972000,-17.65,-6.981026835632326,10.573973164367672
96171000,-17.67,-7.0207483627319345,10.554251637268067
96277000,-17.7,-7.041937098693848,10.563062901306152
96375000,-17.73,-7.06130149383545,10.573698506164549
96479000,-17.75,-7.082414889526367,10.572585110473632
96570000,-17.78,-7.100683908035504,10.584316091964498
96676000,-17.8,-7.1215119653198835,10.583488034680117
96771000,-17.83,-7.140762939453125,10.594237060546872
96970000,-17.85,-7.190357627868653,10.564642372131347
97169000,-17.88,-7.230122341918944,10.554877658081054
97273000,-17.9,-7.250879063415527,10.55412093658447
97368000,-17.92,-7.270117573547365,10.554882426452636
97473000,-17.95,-7.290872387695313,10.564127612304686
97569000,-17.98,-7.310251871109011,10.57474812889099
97673000,-18.0,-7.336252609252932,10.568747390747069
97769000,-18.02,-7.360253308166813,10.564746691833186
97875000,-18.05,-7.3814306287909295,10.57356937120907
97970000,-18.08,-7.40089253807068,10.584107461929317
98075000,-18.1,-7.42710308456421,10.577896915435792
98173000,-18.12,-7.450736918640138,10.574263081359861
98278000,-18.15,-7.472225108337403,10.582774891662595
98370000,-18.18,-7.49052138824463,10.594478611755369
98570000,-18.2,-7.530589015068698,10.5744109849313
98674000,-18.23,-7.551210205685439,10.58378979431456
98773000,-18.25,-7.57070333480835,10.58429666519165
98876000,-18.27,-7.597074813842773,10.577925186157225
98973000,-18.3,-7.620743865966797,10.584256134033202
99079000,-18.33,-7.6421872329711915,10.592812767028805
99169000,-18.35,-7.6601386222839345,10.594861377716066
99274000,-18.38,-7.686452880859376,10.598547119140623
99368000,-18.4,-7.710093731689455,10.594906268310543
99474000,-18.43,-7.731121296691896,10.603878703308103
99572000,-18.45,-7.7503521774292015,10.604647822570797
99769000,-18.48,-7.790239957876543,10.594760042123456
99876000,-18.5,-7.816911688569805,10.588088311430194
99971000,-18.53,-7.84076961517334,10.59423038482666
100079000,-18.55,-7.862208213806152,10.592791786193848
100171000,-18.58,-7.880891345977784,10.604108654022214
100275000,-18.6,-7.906924270629883,10.598075729370118
100370000,-18.62,-7.930692095947267,10.594307904052734
100474000,-18.65,-7.951388735961914,10.603611264038085
100572000,-18.68,-7.970861543655393,10.614138456344607
100676000,-18.7,-7.997126926422118,10.60787307357788
100771000,-18.73,-8.020703835558535,10.614296164441464
100970000,-18.75,-8.060293731689454,10.594706268310546
101076000,-18.78,-8.081550178527833,10.603449821472168
101173000,-18.8,-8.100679492950439,10.604320507049561
101279000,-18.83,-8.127737617492677,10.60726238250732
101369000,-18.85,-8.150105175781253,10.604894824218748
101477000,-18.88,-8.1715924118042,10.613407588195798
101570000,-18.9,-8.190473600387575,10.614526399612423
101676000,-18.93,-8.216965480804445,10.618034519195554
101770000,-18.95,-8.240295910644534,10.614704089355465
101874000,-18.98,-8.261135601806641,10.623864398193358
101970000,-19.0,-8.280588600120351,10.624411399879648
102076000,-19.03,-8.306869755653878,10.628130244346123
102171000,-19.05,-8.330705447387697,10.624294552612303
102369000,-19.08,-8.370606435775757,10.61439356422424
102476000,-19.1,-8.397149576187134,10.607850423812867
102570000,-19.12,-8.420542369079588,10.604457630920413
102676000,-19.15,-8.441785464477539,10.61321453552246
102770000,-19.18,-8.460537772866626,10.624462227133373
102877000,-19.2,-8.481946575107859,10.62305342489214
102971000,-19.23,-8.500834465026855,10.634165534973144
103169000,-19.25,-8.550362396240235,10.604637603759764
103276000,-19.28,-8.57684831619263,10.608151683807371
103369000,-19.3,-8.60013473968506,10.60486526031494
103473000,-19.33,-8.62099827270508,10.614001727294918
103569000,-19.35,-8.640156503677371,10.61484349632263
103672000,-19.38,-8.665999885559083,10.619000114440915
103770000,-19.4,-8.690561815261843,10.614438184738155
103877000,-19.43,-8.716865345001223,10.618134654998777
103971000,-19.45,-8.740542765095006,10.614457234904993
104076000,-19.48,-8.761564814121877,10.623435185878122
104171000,-19.5,-8.7809402217865,10.6240597782135
104277000,-19.53,-8.807199644088746,10.627800355911255
104371000,-19.55,-8.830757899475099,10.624242100524901
104477000,-19.58,-8.851985736083984,10.633014263916014
104572000,-19.6,-8.871115459442136,10.633884540557865
104678000,-19.62,-8.897645486831664,10.627354513168337
104770000,-19.65,-8.92068201017617,10.634317989823828
104970000,-19.68,-8.960468492507935,10.624531507492064
105078000,-19.7,-8.987484893798827,10.617515106201171
105170000,-19.73,-9.010374794006347,10.624625205993652
105370000,-19.75,-9.050420808792119,10.60457919120788
105474000,-19.78,-9.076444196701052,10.608555803298948
105569000,-19.8,-9.100120434570314,10.604879565429686
105672000,-19.83,-9.120798954772951,10.614201045227047
105769000,-19.85,-9.140126701354983,10.614873298645017
105874000,-19.88,-9.166424270629884,10.618575729370114
105969000,-19.9,-9.190173192977904,10.614826807022094
106076000,-19.93,-9.216905876159666,10.618094123840333
106169000,-19.95,-9.24011145510266,10.614888544897338
106275000,-19.98,-9.261408584057984,10.623591415942016
106371000,-20.0,-9.280704187393189,10.62429581260681
106570000,-20.0,-9.33059196014404,10.574408039855959
106677000,-20.0,-9.35176639099121,10.553233609008789
106770000,-20.0,-9.370670808792115,10.534329191207885
106874000,-20.0,-9.396579755783081,10.508420244216918
106970000,-20.0,-9.420583321490692,10.484416678509307
107077000,-20.0,-9.441927596514498,10.463072403485501
107170000,-20.0,-9.460394582748414,10.444605417251585
107275000,-20.0,-9.486617050170901,10.418382949829098
107370000,-20.0,-9.510396966934207,10.394603033065792
107476000,-20.0,-9.537006864547733,10.367993135452267
107572000,-20.0,-9.56034740905762,10.34465259094238
107679000,-20.0,-9.582175106811524,10.322824893188475
107769000,-20.0,-9.600294956970217,10.304705043029783
107969000,-20.0,-9.640107083129882,10.264892916870117
108075000,-20.0,-9.661385464477538,10.243614535522461
108169000,-20.0,-9.680099953502864,10.224900046497135
108275000,-20.0,-9.701417210257832,10.203582789742168
108370000,-20.0,-9.720488963317873,10.184511036682126
108475000,-20.0,-9.741316256713867,10.163683743286132
108570000,-20.0,-9.760531878662107,10.144468121337892
108675000,-20.0,-9.781568980407714,10.123431019592285
108770000,-20.0,-9.800511204147341,10.104488795852658
108874000,-20.0,-9.816038690948487,10.088961309051513
108971000,-20.0,-9.83064103653182,10.07435896346818
109170000,-20.0,-9.860219583511352,10.044780416488647
109274000,-20.0,-9.87586437225342,10.02913562774658
109370000,-20.0,-9.890246763229372,10.014753236770627
109474000,-20.0,-9.905950918197634,9.999049081802365
109571000,-20.0,-9.92016559829712,9.98483440170288
109675000,-20.0,-9.930683195495606,9.974316804504394
109769000,-20.0,-9.940093902206423,9.964906097793577
109877000,-20.0,-9.95602193222046,9.948978067779539
109971000,-20.0,-9.970248567962647,9.934751432037352
110079000,-20.0,-9.981060373687743,9.923939626312256
110169000,-20.0,-9.990055727551331,9.914944272448668
110369000,-20.0,-10.010161170959472,9.894838829040527
110474000,-20.0,-10.020731220245361,9.884268779754638
110570000,-20.0,-10.030276429748534,9.874723570251465
110675000,-20.0,-10.04079688796997,9.86420311203003
110770000,-20.0,-10.05012700920105,9.854872990798949
110874000,-20.0,-10.055347183990479,9.84965281600952
110972000,-20.0,-10.060451428985596,9.844548571014403
111076000,-20.0,-10.070854585266114,9.834145414733886
111171000,-20.0,-10.08017785674897,9.82482214325103
111277000,-20.0,-10.085441806850149,9.81955819314985
111371000,-20.0,-10.090127792358398,9.814872207641601
111477000,-20.0,-10.095414009094238,9.809585990905761
111571000,-20.0,-10.100143527984619,9.80485647201538
111675000,-20.0,-10.105351781845092,9.799648218154907
111770000,-20.0,-10.110073500823974,9.794926499176025
111969000,-20.0,-10.1200401222229,9.7849598777771
112077000,-20.0,-10.125442687225341,9.779557312774658
112169000,-20.0,-10.130025817108155,9.774974182891844
112276000,-20.0,-10.135384751510621,9.769615248489378
112369000,-20.0,-10.14002522799238,9.76497477200762
112476000,-20.0,-10.145339925564715,9.759660074435285
112574000,-20.0,-10.150286988067627,9.754713011932372
112688000,-20.0,-10.155738905715943,9.749261094284057
112793000,-20.0,-10.16,9.745
112913000,-20.0,-10.16,9.745
113041000,-20.0,-10.163104847717285,9.741895152282714
113161000,-20.0,-10.169096545028687,9.735903454971313
112985000,-20.0,-10.160484398651123,9.744515601348876
113102000,-20.0,-10.166555727767944,9.738444272232055
113176000,-20.0,-10.17,9.735
113375000,-20.0,-10.170209093093872,9.734790906906127
113574000,-20.0,-10.18,9.725
113772000,-20.0,-10.180111409378052,9.724888590621948
113971000,-20.0,-10.19,9.715
114172000,-20.0,-10.190089236450195,9.714910763549804
114286000,-20.0,-10.195745001983642,9.709254998016357
114370000,-20.0,-10.2,9.705
114478000,-20.0,-10.2,9.705
114570000,-20.0,-10.2,9.705
114675000,-20.0,-10.2,9.705
114770000,-20.0,-10.2,9.705
114973000,-20.0,-10.2,9.705
115082000,-20.0,-10.2,9.705
115173000,-20.0,-10.20019853477478,9.70480146522522
115279000,-20.0,-10.20559394721985,9.69940605278015
115374000,-20.0,-10.21,9.694999999999999
115477000,-20.0,-10.21,9.694999999999999
115574000,-20.0,-10.21,9.694999999999999
115681000,-20.0,-10.21,9.694999999999999
115771000,-20.0,-10.21,9.694999999999999
115876000,-20.0,-10.21,9.694999999999999
115971000,-20.0,-10.21011760826111,9.69488239173889
116171000,-20.0,-10.22,9.684999999999999
116282000,-20.0,-10.22,9.684999999999999
116372000,-20.0,-10.22,9.684999999999999
116478000,-20.0,-10.22,9.684999999999999
116573000,-20.0,-10.22,9.684999999999999
116679000,-20.0,-10.22,9.684999999999999
116774000,-20.0,-10.22,9.684999999999999
116881000,-20.0,-10.22,9.684999999999999
116971000,-20.0,-10.22,9.684999999999999
117173000,-20.0,-10.22,9.684999999999999
117285000,-20.0,-10.22,9.684999999999999
117373000,-20.0,-10.22,9.684999999999999
117480000,-16.0,-10.22,5.685
117574000,-16.0,-10.22,5.685
117770000,-16.0,-10.22,5.685
117877000,-16.0,-10.22,5.685
117969000,-16.0,-10.22,5.685
118078000,-16.0,-10.22,5.685
118169000,-16.0,-10.22,5.685
118369000,-16.0,-10.22,5.685
118476000,-16.0,-10.22,5.685
118569000,-16.0,-10.219814742965314,5.685185257034687
118675000,-16.0,-10.198884706736807,5.706115293263193
118770000,-16.0,-10.178418669128416,5.726581330871585
118877000,-16.0,-10.115438970947263,5.789561029052737
118970000,-16.0,-10.057819488525388,5.847180511474613
119080000,-16.0,-9.976341131210326,5.928658868789674
119170000,-16.0,-9.907800312423703,5.997199687576297
119275000,-16.0,-9.81816970863342,6.086830291366581
119370000,-16.0,-9.737871750409326,6.167128249590674
119477000,-16.0,-9.64774335946609,6.257256640533909
119570000,-16.0,-9.568650312423706,6.336349687576294
119770000,-16.0,-9.398512268066407,6.506487731933594
119876000,-16.0,-9.313612365722658,6.591387634277342
119969000,-16.0,-9.239331341552738,6.665668658447262
120077000,-16.0,-9.1535426147461,6.751457385253901
120169000,-16.0,-9.079537641525272,6.825462358474728
120276000,-16.0,-8.999185811996458,6.905814188003542
120369000,-16.0,-8.929461041259758,6.975538958740242
120475000,-16.0,-8.844793835449211,7.060206164550789
120570000,-16.0,-8.769348417119158,7.1356515828808424
120677000,-16.0,-8.688377154556342,7.216622845443658
120769000,-16.0,-8.618828411102283,7.286171588897717
120970000,-16.0,-8.477876708984372,7.427123291015628
121076000,-16.0,-8.398508356094359,7.506491643905641
121170000,-16.0,-8.328048302459713,7.576951697540287
121276000,-16.0,-8.254662110137938,7.650337889862063
121370000,-16.0,-8.188079228973384,7.716920771026616
121475000,-16.0,-8.12022315559387,7.784776844406131
121571000,-16.0,-8.057626181834973,7.847373818165027
121677000,-16.0,-7.989349031590708,7.915650968409293
121771000,-16.0,-7.928432159423828,7.976567840576172
121875000,-16.0,-7.865798645019532,8.039201354980468
121973000,-16.0,-7.807745513916015,8.097254486083985
122078000,-16.0,-7.744365272521974,8.160634727478024
122174000,-16.0,-7.687969357299807,8.217030642700193
122279000,-16.0,-7.629275471496581,8.275724528503419
122370000,-16.0,-7.57909707717895,8.325902922821049
122569000,-16.0,-7.469623879623408,8.43537612037659
122675000,-16.0,-7.421985701751705,8.483014298248294
122769000,-16.0,-7.3796974005771,8.525302599422899
122970000,-16.0,-7.2788885589599595,8.62611144104004
123075000,-16.0,-7.237022256469725,8.667977743530274
123170000,-16.0,-7.198808450317381,8.706191549682618
123275000,-16.0,-7.157216806030272,8.747783193969727
123370000,-16.0,-7.1188618560791,8.7861381439209
123477000,-16.0,-7.076270761108397,8.828729238891603
123570000,-16.0,-7.038992472406647,8.866007527593352
123679000,-16.0,-7.001193282473742,8.903806717526257
123770000,-16.0,-6.969439239501953,8.935560760498047
123877000,-16.0,-6.937338562011719,8.96766143798828
123972000,-16.0,-6.909054431915283,8.995945568084716
124082000,-16.0,-6.876284275054932,9.028715724945068
124174000,-16.0,-6.849126980590821,9.055873019409178
124280000,-16.0,-6.816757366943359,9.08824263305664
124370000,-16.0,-6.789525207519529,9.115474792480471
124478000,-16.0,-6.762836631774901,9.142163368225098
124571000,-16.0,-6.739610629272459,9.16538937072754
124769000,-16.0,-6.699872250964292,9.205127749035707
124875000,-16.0,-6.678634546941248,9.226365453058753
124970000,-16.0,-6.659602317810059,9.24539768218994
125171000,-16.0,-6.619546731567382,9.285453268432617
125277000,-16.0,-6.603617986297607,9.301382013702392
125370000,-16.0,-6.589445233154295,9.315554766845704
125478000,-16.0,-6.568083882141113,9.336916117858886
125571000,-16.0,-6.549536002731324,9.355463997268675
125681000,-16.0,-6.533092273330689,9.371907726669312
125771000,-16.0,-6.5195731843407465,9.385426815659253
125877000,-16.0,-6.50366532738529,9.40133467261471
125971000,-16.0,-6.489714851379395,9.415285148620605
126079000,-16.0,-6.478966464996338,9.426033535003661
126176000,-16.0,-6.469251127243042,9.435748872756959
126284000,-16.0,-6.452893228530883,9.452106771469117
126375000,-16.0,-6.43960885772705,9.46539114227295
126479000,-16.0,-6.428911016082763,9.476088983917236
126570000,-16.0,-6.419836785888671,9.48516321411133
126676000,-16.0,-6.409324910736084,9.495675089263916
126969000,-16.0,-6.389958717691239,9.51504128230876
127076000,-16.0,-6.384661272518599,9.5203387274814
127184000,-16.0,-6.378334903717041,9.526665096282958
127170000,-16.0,-6.379728338623046,9.525271661376953
127370000,-16.0,-6.359859639358521,9.545140360641478
127477000,-16.0,-6.354552680206298,9.550447319793701
127571000,-16.0,-6.349844857406616,9.555155142593383
127682000,-16.0,-6.344319268417358,9.560680731582641
127771000,-16.0,-6.339846103725148,9.565153896274852
127881000,-16.0,-6.334359392384392,9.570640607615607
127972000,-16.0,-6.329845266342163,9.575154733657836
128079000,-16.0,-6.324462966918946,9.580537033081052
128173000,-16.0,-6.32,9.584999999999999
128279000,-16.0,-6.32,9.584999999999999
128370000,-16.0,-6.319912670898437,9.585087329101563
128476000,-16.0,-6.314601181793211,9.590398818206788
128570000,-16.02,-6.309919108200073,9.615080891799925
128769000,-16.05,-6.3,9.655
128876000,-16.08,-6.3,9.684999999999997
128970000,-16.1,-6.299936672958298,9.705063327041703
129079000,-16.12,-6.294457598355548,9.730542401644453
129171000,-16.15,-6.29,9.764999999999999
129278000,-16.17,-6.29,9.785000000000002
129371000,-16.2,-6.29,9.815
129571000,-16.23,-6.2898429500579836,9.845157049942015
129681000,-16.25,-6.284340964508057,9.870659035491942
129771000,-16.27,-6.28,9.894999999999998
129882000,-16.3,-6.28,9.924999999999999
129974000,-16.33,-6.28,9.954999999999997
130085000,-16.35,-6.28,9.975
130172000,-16.38,-6.28,10.004999999999997
130279000,-16.4,-6.28,10.024999999999997
130371000,-16.42,-6.28,10.045
130570000,-16.45,-6.280039168548584,10.074960831451415
130681000,-16.48,-6.285496808242797,10.099503191757202
130770000,-16.5,-6.290038214874266,10.114961785125734
130878000,-16.52,-6.295404063415526,10.129595936584474
130970000,-16.55,-6.300093518741166,10.154906481258834
131079000,-16.58,-6.3054796220789,10.179520377921099
131173000,-16.6,-6.310206947326658,10.194793052673342
131280000,-16.62,-6.315512952804564,10.209487047195436
131374000,-16.65,-6.320531537628172,10.234468462371826
131573000,-16.67,-6.340197104263305,10.234802895736696
131682000,-16.7,-6.345694559860229,10.25930544013977
131772000,-16.73,-6.350346524810789,10.284653475189211
131882000,-16.75,-6.361257989501952,10.293742010498049
131975000,-16.77,-6.370630428636845,10.304369571363154
132080000,-16.8,-6.381110407890966,10.323889592109035
132173000,-16.83,-6.390403881072998,10.344596118926999
132372000,-16.85,-6.4102393722534154,10.344760627746586
132480000,-16.88,-6.4209558105468725,10.364044189453127
132569000,-16.9,-6.4301089225769035,10.374891077423095
132676000,-16.92,-6.44606341705322,10.37893658294678
132769000,-16.95,-6.460067846679684,10.394932153320314
132877000,-16.98,-6.470662214660642,10.414337785339358
132969000,-17.0,-6.4800838886260985,10.424916111373902
133170000,-17.03,-6.510225204774482,10.424774795225519
133276000,-17.05,-6.5262009268909225,10.428799073109078
133370000,-17.08,-6.540386034393307,10.44461396560669
133475000,-17.1,-6.556003643417356,10.448996356582645
133571000,-17.12,-6.570495468521119,10.45450453147888
133675000,-17.15,-6.586141687774657,10.468858312225342
133770000,-17.17,-6.600494685363764,10.474505314636238
133875000,-17.2,-6.621582331848141,10.483417668151857
133972000,-17.23,-6.640861357883435,10.494138642116566
134079000,-17.25,-6.662135412111805,10.492864587888194
134170000,-17.28,-6.680243186950683,10.504756813049317
134284000,-17.3,-6.696231298446654,10.508768701553345
134403000,-17.33,-6.714162044525144,10.520837955474853
134377000,-17.35,-6.710710964202876,10.544289035797124
134486000,-17.38,-6.727201185226437,10.55779881477356
134595000,-17.4,-6.744980049133297,10.560019950866701
134573000,-17.42,-6.74067547302246,10.584324526977541
134774000,-17.45,-6.780497135925287,10.574502864074711
134972000,-17.48,-6.820523838806151,10.564476161193848
135169000,-17.5,-6.860178547768137,10.544821452231863
135369000,-17.53,-6.900336647033692,10.534663352966309
135475000,-17.55,-6.921376609802247,10.533623390197752
135570000,-17.58,-6.940552859497072,10.544447140502927
135676000,-17.6,-6.961753039550781,10.543246960449219
135773000,-17.62,-6.980705447387691,10.544294552612309
135879000,-17.65,-7.002357669067379,10.552642330932619
135971000,-17.67,-7.0207483627319345,10.554251637268067
136076000,-17.7,-7.041748271179198,10.5632517288208
136170000,-17.73,-7.060624769599871,10.574375230400129
136370000,-17.75,-7.11033569335937,10.544664306640628
136475000,-17.78,-7.131227836608883,10.553772163391118
136570000,-17.8,-7.150382423400879,10.55461757659912
136676000,-17.83,-7.171430015563963,10.563569984436034
136769000,-17.85,-7.190176701354974,10.564823298645026
136877000,-17.88,-7.211717343139643,10.573282656860355
136970000,-17.9,-7.230347409057616,10.574652590942382
137077000,-17.92,-7.251769795227051,10.57323020477295
137170000,-17.95,-7.270366312026976,10.584633687973023
137276000,-17.98,-7.296846271514889,10.58815372848511
137370000,-18.0,-7.3202830206329494,10.58471697936705
137474000,-18.02,-7.34123030926115,10.58376969073885
137571000,-18.05,-7.360881809234621,10.59411819076538
137676000,-18.08,-7.387137655258178,10.59786234474182
137771000,-18.1,-7.41068446655273,10.59431553344727
137972000,-18.12,-7.450733103942873,10.574266896057127
138078000,-18.15,-7.472135462951659,10.582864537048339
138170000,-18.18,-7.4906200249515305,10.594379975048469
138278000,-18.2,-7.517479479206138,10.587520520793861
138371000,-18.23,-7.540493049621577,10.594506950378422
138477000,-18.25,-7.561751403808589,10.59324859619141
138571000,-18.27,-7.58048828125,10.594511718749999
138679000,-18.3,-7.602029876708983,10.602970123291017
138770000,-18.33,-7.62041399574279,10.614586004257207
138874000,-18.35,-7.646485067367547,10.608514932632454
138971000,-18.38,-7.670490460205077,10.614509539794922
139169000,-18.4,-7.71010524368286,10.594894756317137
139276000,-18.43,-7.736951175689693,10.598048824310306
139369000,-18.45,-7.760092285769668,10.594907714230331
139474000,-18.48,-7.781339574459211,10.60366042554079
139570000,-18.5,-7.800607627868653,10.604392372131345
139677000,-18.53,-7.827376073837279,10.607623926162722
139772000,-18.55,-7.850809397888178,10.604190602111823
139878000,-18.58,-7.872113528442379,10.612886471557617
139973000,-18.6,-7.891085009765625,10.613914990234376
140080000,-18.62,-7.912293772888182,10.612706227111818
140171000,-18.65,-7.930886911420673,10.624113088579325
140371000,-18.68,-7.980429153442378,10.604570846557621
140477000,-18.7,-8.00162361145019,10.603376388549808
140571000,-18.73,-8.020399589538574,10.614600410461426
140771000,-18.75,-8.06052094459533,10.594479055404669
140877000,-18.78,-8.086768445968623,10.598231554031377
140984000,-18.8,-8.11298400878906,10.59201599121094
140972000,-18.83,-8.110666889953611,10.624333110046386
141077000,-18.85,-8.131646771240234,10.623353228759767
141171000,-18.88,-8.150590425491332,10.634409574508666
141277000,-18.9,-8.176966672897334,10.628033327102663
141376000,-18.93,-8.201169782638548,10.633830217361451
141570000,-18.95,-8.250220720300721,10.604779279699278
141677000,-18.98,-8.27174788125196,10.61325211874804
141772000,-19.0,-8.291078504562371,10.613921495437628
141878000,-19.03,-8.3174225654602,10.6175774345398
141972000,-19.05,-8.34097247619629,10.61402752380371
142078000,-19.08,-8.36200004119873,10.622999958801268
142177000,-19.1,-8.381769918441767,10.623230081558233
142371000,-19.12,-8.43059091292803,10.59440908707197
142478000,-19.15,-8.451901026483789,10.60309897351621
142570000,-19.18,-8.470436305999756,10.614563694000243
142677000,-19.2,-8.497055740356442,10.607944259643556
142775000,-19.23,-8.521069307327263,10.613930692672737
142881000,-19.25,-8.548260946273798,10.606739053726201
142975000,-19.28,-8.570884327697753,10.614115672302248
143080000,-19.3,-8.592387776184083,10.612612223815917
143173000,-19.33,-8.610655990600584,10.624344009399413
143369000,-19.35,-8.660107627868651,10.59489237213135
143476000,-19.38,-8.687063232421876,10.597936767578123
143570000,-19.4,-8.710260975900008,10.59473902409999
143677000,-19.43,-8.731880149649614,10.603119850350385
143770000,-19.45,-8.75050136108398,10.604498638916018
143876000,-19.48,-8.771726336669918,10.613273663330082
143988000,-19.5,-8.791920428466797,10.613079571533202
144108000,-19.53,-8.816852336120604,10.618147663879396
144225000,-19.55,-8.842801498413085,10.612198501586915
144175000,-19.58,-8.83133122825622,10.653668771743778
144286000,-19.6,-8.859090303421016,10.645909696578984
144377000,-19.62,-8.8810435523797,10.643956447620301
144576000,-19.65,-8.920989437103271,10.634010562896727
144770000,-19.68,-8.970450611114495,10.614549388885504
144970000,-19.7,-9.020413995742796,10.584586004257202
145077000,-19.73,-9.04718124961853,10.58781875038147
145170000,-19.75,-9.070290188598632,10.584709811401368
145274000,-19.78,-9.091132740783689,10.593867259216312
145370000,-19.8,-9.110277790832518,10.594722209167482
145475000,-19.83,-9.131213803100586,10.603786196899412
145572000,-19.85,-9.150647306202643,10.604352693797358
145686000,-19.88,-9.177678461889522,10.607321538110476
145780000,-19.9,-9.201307487487787,10.603692512512211
145894000,-19.93,-9.22416610717773,10.610833892822269
146013000,-19.95,-9.249944391250605,10.605055608749394
146129000,-19.98,-9.27877754211425,10.60622245788575
145977000,-20.0,-9.241395601272584,10.663604398727415
146091000,-20.0,-9.270358690261839,10.63464130973816
146172000,-20.0,-9.29084247016906,10.614157529830939
146279000,-20.0,-9.317699131011958,10.587300868988041
146372000,-20.0,-9.340800814819332,10.564199185180668
146571000,-20.0,-9.380728507729907,10.524271492270092
146771000,-20.0,-9.420647306442254,10.484352693557746
146972000,-20.0,-9.470855922698975,10.434144077301024
147169000,-20.0,-9.52007561187744,10.38492438812256
147369000,-20.0,-9.560170808792114,10.344829191207886
147473000,-20.0,-9.586270490646363,10.318729509353636
147569000,-20.0,-9.610131878662107,10.294868121337892
147675000,-20.0,-9.63131775360107,10.273682246398929
147769000,-20.0,-9.650146918368693,10.254853081631307
147873000,-20.0,-9.671068328397352,10.233931671602647
147972000,-20.0,-9.690796046447755,10.214203953552245
148078000,-20.0,-9.712078242492675,10.192921757507325
148170000,-20.0,-9.730503268432614,10.174496731567386
148291000,-20.0,-9.753101535034176,10.151898464965823
148405000,-20.0,-9.774660374069212,10.130339625930787
148381000,-20.0,-9.771174246215816,10.133825753784183
148494000,-20.0,-9.788692289733884,10.116307710266115
148573000,-20.0,-9.800807268892356,10.104192731107643
148681000,-20.0,-9.82241155064521,10.08258844935479
148771000,-20.0,-9.840324010848995,10.064675989151004
148971000,-20.0,-9.87031542778015,10.034684572219849
149169000,-20.0,-9.900124658203124,10.004875341796875
149370000,-20.0,-9.93009645690918,9.97490354309082
149486000,-20.0,-9.940751860046387,9.964248139953613
149604000,-20.0,-9.954279550170899,9.9507204498291
149582000,-20.0,-9.950917876815794,9.954082123184206
149699000,-20.0,-9.96855536804199,9.93644463195801
149782000,-20.0,-9.980705088706468,9.924294911293531
149901000,-20.0,-9.992540234896405,9.912459765103595
149976000,-20.0,-10.000476837158203,9.904523162841796
150093000,-20.0,-10.012130737304686,9.892869262695314
150177000,-20.0,-10.020695569610593,9.884304430389406
150376000,-20.0,-10.040310591506955,9.864689408493044
150571000,-20.0,-10.050346047973633,9.854653952026366
150687000,-20.0,-10.06093517074585,9.84406482925415
150779000,-20.0,-10.070334192911783,9.834665807088216
150892000,-20.0,-10.0760085550944,9.828991444905599
150981000,-20.0,-10.080935554504395,9.824064445495605
151175000,-20.0,-10.100176668167114,9.804823331832885
151369000,-20.0,-10.110043221664428,9.794956778335571
151475000,-20.0,-10.11524909133911,9.789750908660888
151569000,-20.0,-10.12003726119995,9.784962738800049
151679000,-20.0,-10.125430051040649,9.77956994895935
151777000,-20.0,-10.13020177001953,9.774798229980469
151890000,-20.0,-10.135709239196776,9.769290760803223
152006000,-20.0,-10.14,9.764999999999999
151982000,-20.0,-10.14,9.764999999999999
152176000,-20.0,-10.140254801559447,9.764745198440552
152374000,-20.0,-10.150213555145262,9.754786444854737
152481000,-20.0,-10.155687168884278,9.749312831115722
152574000,-20.0,-10.160236920166016,9.744763079833984
152681000,-20.0,-10.16566809539795,9.73933190460205
152774000,-20.0,-10.17,9.735
152881000,-20.0,-10.17,9.735
152978000,-20.0,-10.17036883354187,9.73463116645813
153173000,-20.0,-10.180118494033813,9.724881505966186
153281000,-20.0,-10.185524396896362,9.719475603103637
153372000,-20.0,-10.19,9.715
153573000,-20.0,-10.19,9.715
153677000,-20.0,-10.19,9.715
153769000,-20.0,-10.190035353851316,9.714964646148683
153873000,-20.0,-10.195250521850584,9.709749478149416
153969000,-20.0,-10.2,9.705
154074000,-20.0,-10.2,9.705
154171000,-20.0,-10.2,9.705
154287000,-20.0,-10.2,9.705
154401000,-20.0,-10.2,9.705
154520000,-20.0,-10.2,9.705
154377000,-20.0,-10.2,9.705
154485000,-20.0,-10.2,9.705
154595000,-20.0,-10.201282137680053,9.703717862319946
154573000,-20.0,-10.200247172164916,9.704752827835083
154771000,-20.0,-10.209830683618044,9.695169316381955
154972000,-20.0,-10.200156641006469,9.70484335899353
155170000,-20.0,-10.21,9.694999999999999
155369000,-20.0,-10.210057049942018,9.694942950057982
155477000,-20.0,-10.215384751510621,9.689615248489378
155570000,-20.0,-10.22,9.684999999999999
155674000,-20.0,-10.22,9.684999999999999
155770000,-20.0,-10.219929360198977,9.685070639801022
155875000,-20.0,-10.214707278060915,9.690292721939084
155972000,-20.0,-10.210156058690057,9.694843941309943
156086000,-20.0,-10.215537609311205,9.689462390688794
156178000,-20.0,-10.22,9.684999999999999
156287000,-20.0,-10.22,9.684999999999999
156396000,-20.0,-10.22,9.684999999999999
156373000,-20.0,-10.22,9.684999999999999
156572000,-20.0,-10.220154188919068,9.684845811080931
156771000,-20.0,-10.229850817871096,9.675149182128903
156970000,-20.0,-10.22,9.684999999999999
157076000,-20.0,-10.22,9.684999999999999
157170000,-20.0,-10.22,9.684999999999999
157276000,-20.0,-10.22,9.684999999999999
157371000,-20.0,-10.22,9.684999999999999
157476000,-20.0,-10.22,9.684999999999999
157570000,-16.0,-10.22,5.685
157674000,-16.0,-10.22,5.685
157771000,-16.0,-10.220100442123412,5.684899557876588
157877000,-16.0,-10.225377360534667,5.679622639465333
