TimeUS,terrain_cm,sub_cm,rf_cm,signal_quality
46200750,-2000.0,-1114.9,886,100
46299885,-2000.0,-1114.899057340622,888,100
46400682,-2000.0,-1114.8486589317322,895,100
46600141,-2000.0,-1114.8,886,100
46697134,-2000.0,-1114.8,885,100
46799733,-2000.0,-1114.8,882,100
46896164,-2000.0,-1114.8,882,100
47000849,-2000.0,-1114.6961504936219,893,100
47199330,-2000.0,-1114.6000000000001,885,100
47295134,-2000.0,-1114.6000000000001,887,100
47401081,-2000.0,-1114.6520406246186,888,100
47599737,-2000.0,-1114.8541069984435,884,100
47702490,-2000.0,-1115.008235311508,885,100
47802549,-2000.0,-1115.1583235397338,887,100
48001604,-2000.0,-1115.3,888,100
48103061,-2000.0,-1115.3,882,100
48200793,-2000.0,-1115.3,888,100
48299576,-2000.0,-1115.2984236717225,883,100
48402652,-2000.0,-1115.1953479766846,888,100
48599549,-2000.0,-1114.9476762428285,890,100
48698340,-2000.0,-1114.799828998048,881,100
48799386,-2000.0,-1114.7490522145026,893,100
48999536,-2000.0,-1114.7512681484222,882,100
49095615,-2000.0,-1114.7993075847626,896,100
49199386,-2000.0,-1114.9023860931397,882,100
49399536,-2000.0,-1115.0512681484222,883,100
49495340,-2000.0,-1115.099170255661,881,100
49599274,-2000.0,-1115.1511372566224,879,100
49697507,-2000.0,-1115.2,884,100
49800660,-2000.0,-1115.2,891,100
49897366,-2000.0,-1115.1994534506728,878,100
50001999,-2000.0,-1115.0432840148017,892,100
50200343,-2000.0,-1114.8488284111022,876,100
50296134,-2000.0,-1114.800932741165,886,100
50389617,-2000.0,-1114.7083829879762,886,100
50402016,-2000.0,-1114.6959831237793,883,100
50599321,-2000.0,-1114.6506608600616,890,100
50697194,-2000.0,-1114.6995972270965,883,100
50800905,-2000.0,-1114.6482887958164,885,100
50896228,-2000.0,-1114.6003875080667,889,100
51000291,-2000.0,-1114.6000000000001,889,100
51097044,-2000.0,-1114.5999114990236,889,100
51201094,-2000.0,-1114.3918117523194,888,100
51399356,-2000.0,-1114.046465921402,884,100
51495083,-2000.0,-1113.902875471115,872,100
51588363,-2000.0,-1113.8543180942534,886,100
51602909,-2000.0,-1113.847045278549,886,100
51800660,-2000.0,-1113.8518303756714,881,100
51899250,-2000.0,-1113.9011194883888,886,100
52002390,-2000.0,-1113.9524329550823,888,100
52200364,-2000.0,-1114.0,879,100
52296979,-2000.0,-1114.0,883,100
52390479,-2000.0,-1113.9075203895568,882,100
52402055,-2000.0,-1113.8959444999696,889,100
52599287,-2000.0,-1113.749356306076,893,100
52696881,-2000.0,-1113.70055941391,893,100
52801373,-2000.0,-1113.6480537318705,885,100
52897177,-2000.0,-1113.5998227119449,880,100
52999420,-2000.0,-1113.497579574585,882,100
53095898,-2000.0,-1113.401101589203,888,100
53200875,-2000.0,-1113.3480623722078,884,100
53399364,-2000.0,-1113.2488176822662,877,100
53497623,-2000.0,-1113.2003118038178,883,100
53599682,-2000.0,-1113.2513411045074,883,100
53698267,-2000.0,-1113.3000000000002,879,100
53799437,-2000.0,-1113.3000000000002,878,100
54000652,-2000.0,-1113.2481739158632,887,100
54097035,-2000.0,-1113.1999822189557,877,100
54200326,-2000.0,-1113.148594024051,882,100
54294774,-2000.0,-1113.1016049247476,888,100
54400544,-2000.0,-1112.8949102401734,889,100
54496495,-2000.0,-1112.7030099868775,878,100
54600326,-2000.0,-1112.4953479766846,886,100
54798463,-2000.0,-1112.099073173523,896,100
54891718,-2000.0,-1111.9125630874632,888,100
54987831,-2000.0,-1111.6742923084814,895,100
55001076,-2000.0,-1111.641012669089,892,100
55199304,-2000.0,-1111.2465431690216,888,100
55295220,-2000.0,-1111.1026694774628,894,100
55398356,-2000.0,-1110.998643875122,897,100
55493718,-2000.0,-1110.9032816886902,892,100
55599446,-2000.0,-1110.7463307380676,884,100
55697846,-2000.0,-1110.6,889,100
55801724,-2000.0,-1110.6,888,100
55999467,-2000.0,-1110.7537015571595,886,100
56093289,-2000.0,-1110.89443384552,887,100
56189496,-2000.0,-1111.038054998597,892,100
56202094,-2000.0,-1111.0568569012544,884,100
56400665,-2000.0,-1111.2513325214386,888,100
56497967,-2000.0,-1111.2999835014343,888,100
56599347,-2000.0,-1111.4520213127137,884,100
56694520,-2000.0,-1111.5947813510895,885,100
56799527,-2000.0,-1111.7015277137757,890,100
56895593,-2000.0,-1111.797593711853,890,100
57000810,-2000.0,-1111.9033275201693,889,100
57199373,-2000.0,-1112.1535598278047,884,100
57295932,-2000.0,-1112.2983991146089,881,100
57389333,-2000.0,-1112.530834245682,895,100
57399394,-2000.0,-1112.5559866905214,896,100
57599484,-2000.0,-1113.0049695968628,888,100
57697516,-1900.0,-1113.200516319275,781,100
57799544,-1900.0,-1113.3025448799133,790,100
57998605,-1900.0,-1113.603210067749,782,100
58093829,-1900.0,-1113.7936597824096,794,100
58189402,-1900.0,-1113.8924023628235,783,100
58200317,-1900.0,-1113.903317428589,773,100
58399368,-1900.0,-1113.7962805980476,798,100
58494422,-1900.0,-1113.6071200090855,786,100
58599356,-1900.0,-1112.4344045639039,785,100
58694023,-1900.0,-1111.3457345485688,788,100
58799527,-1900.0,-1109.015624809265,791,100
58894593,-1900.0,-1106.8766382217407,792,100
58998673,-1900.0,-1103.528104801178,797,100
59093585,-1900.0,-1100.443478603363,805,100
59198360,-1900.0,-1096.214978025427,798,100
59398669,-1900.0,-1087.52320728302,808,100
59493675,-1900.0,-1083.1529317855832,812,100
59598373,-1900.0,-1077.829962158203,823,100
59691684,-1900.0,-1073.0711096763612,832,100
59798467,-1900.0,-1067.2192762374875,825,100
59894434,-1900.0,-1061.941075134277,837,100
59999467,-1900.0,-1055.8568773269653,839,100
60094980,-1900.0,-1050.3171586990359,848,100
60200368,-1900.0,-1044.204602233887,856,100
60296289,-1900.0,-1038.641237251282,864,100
60400587,-1900.0,-1032.72487131375,872,100
60599411,-1900.0,-1021.6223446846006,876,100
60693083,-1900.0,-1016.4704219818112,891,100
60790874,-1900.0,-1011.2776551246642,894,100
60800480,-1900.0,-1010.7685331344605,890,100
60998364,-1900.0,-1000.7323116645814,905,100
61092757,-1900.0,-996.1542851314543,903,100
61198338,-1900.0,-991.5133219043213,906,100
61293405,-1900.0,-987.3571670608903,913,100
61400433,-1900.0,-983.5281204223631,913,100
61598544,-1900.0,-977.0536514282228,927,100
61695404,-1900.0,-974.1478534698488,926,100
61789166,-1900.0,-971.9340912818909,925,100
61798326,-1900.0,-971.7188370227813,923,100
61998617,-1900.0,-967.6724955558777,933,100
62093804,-1900.0,-966.0543295860291,930,100
62199420,-1900.0,-965.1294257678986,934,100
62293465,-1900.0,-964.3300459423067,935,100
62399356,-1900.0,-964.1472296643612,935,100
62494585,-1900.0,-964.0050966063543,933,100
62600295,-1900.0,-964.5626278400421,943,100
62802415,-1900.0,-966.3529918670655,939,100
62897542,-1900.0,-967.4945056915284,932,100
62993500,-1900.0,-969.0280136108399,935,100
63002291,-1900.0,-969.1686645507813,929,100
63198351,-1900.0,-972.6568607501985,929,100
63294053,-1900.0,-974.5230344944001,930,100
63398334,-1900.0,-976.8688743840512,920,100
63493344,-1900.0,-979.0173480661672,922,100
63598347,-1900.0,-981.6336885452271,917,100
63798446,-1900.0,-986.8390486717223,903,100
63893061,-1900.0,-989.3936660766601,906,100
63989037,-1900.0,-992.1230710983274,910,100
63998712,-1900.0,-992.3988011837004,901,100
64198557,-1900.0,-998.1451769828797,898,100
64293683,-1900.0,-1000.9038353919983,896,100
64399364,-1900.0,-1003.8150294685362,894,100
64493293,-1900.0,-1006.3980718517302,892,100
64599334,-1900.0,-1009.0456384877067,884,100
64695563,-1900.0,-1011.4393966067487,892,100
64800231,-1900.0,-1013.9024425506593,889,100
64894786,-1900.0,-1016.1244939327241,887,100
64999343,-1900.0,-1018.4295515060427,874,100
65094366,-1900.0,-1020.5200609207154,879,100
65201742,-1900.0,-1022.7267139835357,876,100
65399536,-1900.0,-1026.4347910013632,877,100
65496696,-1900.0,-1028.0948168998987,874,100
65591033,-1900.0,-1029.4164640426636,868,100
65599647,-1900.0,-1029.5370702743533,875,100
65799828,-1900.0,-1032.0311093330383,871,100
65896602,-1900.0,-1033.0956244468687,874,100
66001368,-1900.0,-1033.9871346473692,860,100
66198497,-1900.0,-1035.3074887275695,864,100
66292705,-1900.0,-1035.7785275459291,864,100
66388106,-1900.0,-1035.8911063194275,856,100
66400386,-1900.0,-1035.9033860931395,868,100
66599330,-1900.0,-1035.745446826688,863,100
66695731,-1900.0,-1035.5056439964333,855,100
66799356,-1900.0,-1034.9932193756104,854,100
66894392,-1900.0,-1034.518039226532,868,100
66999326,-1900.0,-1033.8413804531097,876,100
67198441,-1900.0,-1032.3964643554689,861,100
67293117,-1900.0,-1031.6390600280763,873,100
67388209,-1900.0,-1030.6933737059933,867,100
67398377,-1900.0,-1030.5911800748738,860,100
67598493,-1900.0,-1028.4328252792357,868,100
67694752,-1900.0,-1027.3258454322813,880,100
67789119,-1900.0,-1026.0563918590544,873,100
67799304,-1900.0,-1025.9188885211947,873,100
67998519,-1900.0,-1023.1787311553957,867,100
68094413,-1900.0,-1021.8362104415895,875,100
68199441,-1900.0,-1020.4170345783234,880,100
68293666,-1900.0,-1019.1449980258941,881,100
68399077,-1900.0,-1017.6709205627441,878,100
68494439,-1900.0,-1016.3358499526977,888,100
68601257,-1900.0,-1014.9446554298402,879,100
68799459,-1902.0,-1012.3236834397956,887,100
68893538,-1904.0,-1011.0599354416574,897,100
68999471,-1905.9999999999998,-1009.7316000461578,891,100
69094435,-1907.9999999999998,-1008.544561624527,903,100
69199373,-1910.0000000000002,-1007.3342071533202,906,100
69294430,-1912.0,-1006.2410460472106,911,100
69398841,-1914.0,-1005.0907482490538,916,100
69494319,-1916.0,-1004.0404896125794,911,100
69598403,-1918.0,-1003.1422830955468,917,100
69798527,-1920.0,-1001.944652748108,912,100
69892357,-1922.0,-1001.6162473678589,917,100
69986934,-1923.9999999999998,-1001.7349020957946,921,100
69999450,-1926.0000000000002,-1001.753675699234,924,100
70198536,-1928.0,-1002.306145477295,927,100
70294121,-1930.0,-1002.6884868621828,925,100
70398364,-1932.0,-1003.3588706016541,921,100
70495374,-1934.0,-1003.9894364833833,934,100
70600570,-1936.0,-1004.880350347519,939,100
70801034,-1938.0,-1006.8386818539444,926,100
70897108,-1939.9999999999998,-1007.8902444336545,943,100
70990526,-1942.0000000000002,-1009.3804290771485,930,100
71002008,-1944.0000000000002,-1009.5641326904298,931,100
71200364,-1946.0,-1013.0961103916171,927,100
71296563,-1948.0,-1014.9719915866854,932,100
71398360,-1950.0,-1017.3584697856904,927,100
71493542,-1952.0,-1019.5952454223635,929,100
71599373,-1954.0,-1022.3489484240663,925,100
71697331,-1955.9999999999998,-1024.9089581489566,933,100
71800952,-1957.9999999999998,-1027.7067175865172,929,100
71998330,-1960.0000000000002,-1033.086585330963,923,100
72091924,-1962.0,-1035.6604223728177,928,100
72199785,-1964.0,-1038.8321635723114,926,100
72297512,-1966.0,-1041.7161288738253,922,100
72399536,-1968.0,-1044.9298933506016,924,100
72598514,-1970.0,-1051.197719717026,919,100
72692087,-1972.0,-1054.1452571392063,917,100
72790204,-1973.9999999999998,-1057.1427488327029,916,100
72802124,-1976.0000000000002,-1057.5062870197296,924,100
73000347,-1978.0,-1063.5364157358808,918,100
73097512,-1980.0,-1066.4851930912457,915,100
73190986,-1982.0,-1069.382566356659,914,100
73201948,-1984.0,-1069.722394561768,918,100
73400373,-1986.0,-1075.7711965560911,908,100
73498035,-1988.0,-1078.700998687744,915,100
73601171,-1989.9999999999998,-1081.588798400879,906,100
73698091,-1992.0000000000002,-1084.3024797909225,922,100
73799343,-1994.0000000000002,-1087.0500158798752,911,100
73895855,-1996.0,-1089.668943092691,904,100
74001076,-2000.0,-1092.4580393791198,907,100
74199506,-2000.0,-1097.7164157867433,897,100
74297760,-2000.0,-1100.3197843551638,890,100
74399549,-2000.0,-1102.966278457642,900,100
74496434,-2000.0,-1105.4853061676026,894,100
74599566,-2000.0,-1108.1154416084291,891,100
74800952,-2000.0,-1113.0428855285643,879,100
74897220,-2000.0,-1115.3047123695487,882,100
74992887,-2000.0,-1117.3513173800795,879,100
75001952,-2000.0,-1117.545252556113,889,100
75200270,-2000.0,-1121.440863990784,872,100
75296550,-2000.0,-1123.1739143371583,873,100
75401823,-2000.0,-1124.861180114746,881,100
75497421,-2000.0,-1126.390751647949,873,100
75599403,-2000.0,-1127.6675407409668,873,100
75697460,-2000.0,-1128.8932566165925,875,100
75801012,-2000.0,-1129.935302358656,873,100
75999287,-2000.0,-1131.6671554088593,869,100
76096666,-2000.0,-1132.3974994659422,863,100
76191243,-2000.0,-1132.7769737243652,868,100
76201089,-2000.0,-1132.8163593292236,862,100
76399403,-2000.0,-1133.3024032592773,859,100
76599639,-2000.0,-1133.1434017658235,868,100
76698087,-2000.0,-1132.8951080799102,866,100
76793938,-2000.0,-1132.4637766838075,866,100
76800454,-2000.0,-1132.434453590393,862,100
77000574,-2000.0,-1131.4331720760213,872,100
77097284,-2000.0,-1130.9039148567922,873,100
77201982,-2000.0,-1130.0681396484374,868,100
77297816,-2000.0,-1129.3014656066894,870,100
77400304,-2000.0,-1128.328106737137,872,100
77498456,-2000.0,-1127.3949813842773,881,100
77601124,-2000.0,-1126.2656341896059,871,100
77799553,-2000.0,-1124.0262665082464,876,100
77896147,-2000.0,-1122.909855097862,875,100
77998476,-2000.0,-1121.7330226898196,867,100
78093791,-2000.0,-1120.6369004249573,867,100
78199497,-2000.0,-1119.3700279235838,884,100
78297271,-2000.0,-1118.1970112800598,874,100
78399360,-2000.0,-1117.0740362167357,877,100
78494035,-2000.0,-1116.032605266571,882,100
78598377,-2000.0,-1114.8848465919493,881,100
78798489,-2000.0,-1112.5821300506593,886,100
78893748,-2000.0,-1111.4390197753908,885,100
78999360,-2000.0,-1110.1716750030516,896,100
79094804,-2000.0,-1109.0263502960206,888,100
79199360,-2000.0,-1107.9305628136024,901,100
79294435,-2000.0,-1106.937245536918,895,100
79400295,-2000.0,-1105.928188276291,900,100
79494164,-2000.0,-1105.0364353179934,883,100
79599343,-2000.0,-1104.23992562294,901,100
79798261,-2000.0,-1102.9485605888367,897,100
79893954,-2000.0,-1102.4222510986328,894,100
79998519,-2000.0,-1102.0969270255698,892,100
80092126,-2000.0,-1101.8146950189794,894,100
80199437,-2000.0,-1101.5439060211183,896,100
80296464,-2000.0,-1101.3013377666473,894,100
80399549,-2000.0,-1101.3,889,100
80496366,-2000.0,-1101.3,890,100
80601128,-2000.0,-1101.4561926841736,902,100
80799480,-2000.0,-1101.8562012672423,900,100
80895958,-2000.0,-1102.0973962306978,897,100
81001901,-2000.0,-1102.362252511978,894,100
81097627,-2000.0,-1102.6015621185304,891,100
81200347,-2000.0,-1102.8570832570392,892,100
81400463,-2000.0,-1103.407390022278,902,100
81496898,-2000.0,-1103.6966952323914,899,100
81600381,-2000.0,-1104.0583363056185,890,100
81698735,-2000.0,-1104.4036759376527,895,100
81799450,-2000.0,-1104.9072523307802,892,100
81895889,-2000.0,-1105.3894491386413,890,100
81998540,-2000.0,-1106.0567982870132,895,100
82198630,-2000.0,-1107.2589693069458,889,100
82294404,-2000.0,-1107.785727262497,888,100
82388046,-2000.0,-1108.3918005466462,893,100
82399416,-2000.0,-1108.465704870224,889,100
82598381,-2000.0,-1109.758982181549,890,100
82695031,-2000.0,-1110.3872048854828,887,100
82798381,-2000.0,-1110.9576003074646,893,100
82893563,-2000.0,-1111.4811009883879,884,100
82998356,-2000.0,-1112.0067806243896,886,100
83093469,-2000.0,-1112.4823470115662,892,100
83200261,-2000.0,-1112.9646773738862,880,100
83294332,-2000.0,-1113.3879943294526,880,100
83399579,-2000.0,-1113.9613791698248,892,100
83495623,-2000.0,-1114.4869960576148,883,100
83600639,-2000.0,-1114.961876821518,877,100
83799776,-2000.0,-1115.7562184333801,888,100
83895576,-2000.0,-1116.091518163681,877,100
83998338,-2000.0,-1116.3508473968504,880,100
84093533,-2000.0,-1116.588834438324,884,100
84198373,-2000.0,-1116.751316519119,883,100
84399673,-2000.0,-1116.951336812973,880,100
84496473,-2000.0,-1116.9997367382048,884,100
84592569,-2000.0,-1117.0,880,100
84599321,-2000.0,-1117.0,877,100
84798527,-2000.0,-1117.0,883,100
84893748,-2000.0,-1117.0,884,100
84987123,-2000.0,-1116.9549382209777,884,100
84999420,-2000.0,-1116.9487897872925,882,100
85200407,-1900.0,-1116.7965924491882,786,100
85296945,-1900.0,-1116.7000543823242,779,100
85400231,-1900.0,-1116.4945639842779,781,100
85494306,-1900.0,-1116.3073505989948,794,100
85599381,-1900.0,-1115.9958543777466,780,100
85799497,-1900.0,-1115.3447578907012,784,100
85894752,-1900.0,-1115.011365747452,780,100
85998381,-1900.0,-1113.8957993850709,787,100
86092546,-1900.0,-1112.8599860534669,789,100
86199643,-1900.0,-1110.6036813247144,781,100
86297172,-1900.0,-1108.4947236061096,791,100
86399931,-1900.0,-1105.3606009006498,785,100
86495735,-1900.0,-1102.438572359085,801,100
86598497,-1900.0,-1098.3908390522,788,100
86695520,-1900.0,-1094.5584301471708,806,100
86799326,-1900.0,-1089.7418404579166,806,100
86998347,-1900.0,-1079.9299278259282,823,100
87092551,-1900.0,-1075.0313472747807,821,100
87199467,-1900.0,-1069.010574680328,830,100
87294645,-1900.0,-1063.633037429809,837,100
87399351,-1900.0,-1057.4403640955838,847,100
87495516,-1900.0,-1051.7470309110429,852,100
87599334,-1900.0,-1045.519919967652,850,100
87695971,-1900.0,-1039.7217136383063,867,100
87799446,-1900.0,-1033.4625020503997,870,100
87999497,-1900.0,-1021.5116330146786,871,100
88093379,-1900.0,-1015.9726181983946,887,100
88187415,-1900.0,-1010.7374422550199,896,100
88199334,-1900.0,-1010.0759299926756,895,100
88398540,-1900.0,-999.6487513748242,907,100
88495237,-1900.0,-994.8867957685458,905,100
88599454,-1900.0,-990.3944454193113,911,100
88693885,-1900.0,-986.3339157104489,911,100
88800046,-1900.0,-982.4903083801272,911,100
88896434,-1900.0,-979.0203453063968,935,100
88999330,-1900.0,-975.9300909042361,931,100
89198373,-1900.0,-970.6177276611328,928,100
89292413,-1900.0,-968.4077784061432,933,100
89399476,-1900.0,-966.5066649627686,935,100
89494761,-1900.0,-964.8391785335541,935,100
89600381,-1900.0,-963.771325357162,936,100
89698241,-1900.0,-962.7998791694642,944,100
89799463,-1900.0,-962.7492682933807,941,100
89894546,-1900.0,-962.7017266750336,925,100
90000265,-1900.0,-963.4158615112306,929,100
90094769,-1900.0,-964.0773886680604,942,100
90198514,-1900.0,-965.5072087631225,943,100
90294537,-1900.0,-966.8515319213867,936,100
90399446,-1900.0,-968.6332512246904,936,100
90598502,-1900.0,-972.3807917594911,927,100
90694868,-1900.0,-974.3563030719757,931,100
90798652,-1900.0,-976.9413060188292,924,100
90894417,-1900.0,-979.3354457855223,918,100
90998437,-1900.0,-982.3416922569272,918,100
91198489,-1900.0,-988.1939302921294,917,100
91292147,-1900.0,-990.9568544864655,903,100
91388973,-1900.0,-993.9051828861236,903,100
91400295,-1900.0,-994.2505271129606,906,100
91599450,-1900.0,-1000.258225033888,904,100
91694971,-1900.0,-1003.1095973683824,889,100
91790342,-1900.0,-1005.9240972995758,891,100
91800244,-1900.0,-1006.2162119388581,897,100
91999326,-1900.0,-1011.8864673137667,885,100
92094490,-1900.0,-1014.5034986495974,887,100
92198347,-1900.0,-1017.2090360870362,892,100
92293563,-1900.0,-1019.6846592178347,881,100
92400544,-1900.0,-1022.2219125373881,883,100
92599682,-1900.0,-1026.5023030757907,882,100
92695696,-1900.0,-1028.3745858192444,871,100
92793393,-1900.0,-1029.9904925823214,873,100
92799437,-1900.0,-1030.09022026062,861,100
92998433,-1900.0,-1033.2215005874632,866,100
93094739,-1900.0,-1034.66609544754,867,100
93191779,-1900.0,-1035.7899685382843,866,100
93201231,-1900.0,-1035.8986617088317,864,100
93299589,-1900.0,-1037.0245967388155,863,100
93399302,-1900.0,-1037.971877861023,848,100
93400302,-1900.0,-1037.981377861023,862,100
93496494,-1900.0,-1038.8952018737793,866,100
93600231,-1900.0,-1039.4677737884522,863,100
93800544,-1900.0,-1039.896970268743,852,100
93898851,-1900.0,-1039.79446811676,861,100
93999566,-1900.0,-1039.1398183345793,857,100
94095409,-1900.0,-1038.5168398857115,858,100
94204244,-1900.0,-1037.5969244480132,865,100
94308558,-1900.0,-1036.6996941566467,865,100
94398836,-1900.0,-1035.8420506210327,867,100
94598956,-1900.0,-1033.834625259476,868,100
94695662,-1900.0,-1032.8141156258891,866,100
94798733,-1900.0,-1031.5791946411134,865,100
94894593,-1900.0,-1030.4288745880128,880,100
94998416,-1900.0,-1028.929465007782,879,100
95198480,-1900.0,-1025.8763107299806,870,100
95293722,-1900.0,-1024.352438354492,875,100
95399317,-1900.0,-1022.662921142578,882,100
95599338,-1900.0,-1019.5649156188965,879,100
95695709,-1900.0,-1018.1193551635744,886,100
95800265,-1900.0,-1016.6614696293922,887,100
95999330,-1900.0,-1013.9320399284362,882,100
96096361,-1900.0,-1012.6221134185789,891,100
96190883,-1900.0,-1011.438962316513,885,100
96202566,-1902.0,-1011.2929225921631,885,100
96399527,-1904.0,-1009.0339590053558,901,100
96599759,-1905.9999999999998,-1006.9772918931203,895,100
96696816,-1907.9999999999998,-1006.001841214434,893,100
96794234,-1910.0000000000002,-1005.2221229553222,902,100
96798424,-1912.0,-1005.1886016845705,903,100
96999489,-1914.0,-1003.6825763702392,904,100
97097649,-1916.0,-1002.9974025726318,911,100
97198429,-1918.0,-1002.5942836761475,921,100
97294014,-1920.0,-1002.2119422912598,922,100
97398326,-1922.0,-1002.0480108737946,916,100
97493546,-1923.9999999999998,-1001.9051800251008,921,100
97599321,-1926.0000000000002,-1002.0023217926026,922,100
97799497,-1928.0,-1002.507951225926,922,100
97894688,-1930.0,-1002.8868189873388,928,100
97988192,-1932.0,-1003.4862494468689,924,100
97999368,-1934.0,-1003.5588984966278,943,100
98199467,-1936.0,-1005.3161447525024,934,100
98294769,-1938.0,-1006.3644679069519,927,100
98399995,-1939.9999999999998,-1007.827937889099,936,100
98495941,-1942.0000000000002,-1009.1711795806883,925,100
98600823,-1944.0000000000002,-1010.8451801147462,929,100
98699893,-1946.0,-1012.4380669215217,931,100
98798373,-1948.0,-1014.4175535882536,940,100
98998506,-1950.0,-1018.6331392288206,939,100
99093859,-1952.0,-1020.7309185028075,930,100
99188089,-1954.0,-1022.9405951023102,938,100
99198411,-1955.9999999999998,-1023.1831799983979,930,100
99398471,-1957.9999999999998,-1028.1890079021457,932,100
99493628,-1960.0000000000002,-1030.7106470108033,931,100
99598321,-1962.0,-1033.7889928817751,926,100
99696370,-1964.0,-1036.6814291477206,926,100
99799343,-1966.0,-1039.8726407585145,929,100
99894645,-1968.0,-1042.8270060119628,930,100
100000330,-1970.0,-1046.1387109955747,926,100
100199506,-1972.0,-1052.5497088432314,920,100
100294284,-1973.9999999999998,-1055.6774005889895,920,100
100390865,-1976.0000000000002,-1058.957438850403,909,100
100400343,-1978.0,-1059.2796680450438,914,100
100598497,-1980.0,-1066.0671722202303,917,100
100697155,-1982.0,-1069.4708761482239,914,100
100799141,-1984.0,-1072.8544409018662,912,100
100897108,-1986.0,-1076.1034759521483,917,100
100998811,-1988.0,-1079.3579528808593,913,100
101096722,-1989.9999999999998,-1082.4911163330078,903,100
101200450,-1992.0000000000002,-1085.6035118103027,904,100
101398347,-1994.0000000000002,-1091.4390787124635,893,100
101492533,-1996.0,-1094.1704815864564,896,100
101598484,-2000.0,-1096.9893490791324,901,100
101694915,-2000.0,-1099.544764709473,897,100
101799334,-2000.0,-1102.209534013748,898,100
101894589,-2000.0,-1104.638533914566,888,100
101999574,-2000.0,-1107.0985197399386,896,100
102095666,-2000.0,-1109.3454411938417,889,100
102200270,-2000.0,-1111.7010799884797,890,100
102399351,-2000.0,-1115.92703666687,889,100
102496645,-2000.0,-1117.8729042053221,880,100
102592784,-2000.0,-1119.7008991241453,867,100
102599742,-2000.0,-1119.8331035194399,882,100
102798708,-2000.0,-1123.268818568704,883,100
102894117,-2000.0,-1124.7550955499237,882,100
102998459,-2000.0,-1126.0682390213012,881,100
103198540,-2000.0,-1128.1630956172944,875,100
103296220,-2000.0,-1128.9933723449708,875,100
103399684,-2000.0,-1129.8214790344239,877,100
103500540,-2000.0,-1130.6000000000001,872,100
103596005,-2000.0,-1130.6000000000001,875,100
103597005,-2000.0,-1131.1500297718048,874,100
103598005,-2000.0,-1131.155529771805,873,100
103599484,-2000.0,-1131.1636663913728,867,100
103798682,-2000.0,-1132.1067291259765,863,100
103895233,-2000.0,-1132.4929328918458,863,100
104001162,-2000.0,-1132.6562442913055,870,100
104199665,-2000.0,-1132.5956913127234,871,100
104297889,-2000.0,-1132.4002193925392,862,100
104399883,-2000.0,-1131.9415220737458,875,100
104601497,-2000.0,-1131.0342607975006,857,100
104698413,-2000.0,-1130.5973134040833,864,100
104798665,-2000.0,-1129.945676750183,866,100
104894400,-2000.0,-1129.3233956756592,858,100
104999330,-2000.0,-1128.4852839944351,867,100
105200222,-2000.0,-1126.667770576477,871,100
105298438,-2000.0,-1125.6841710090637,878,100
105398338,-2000.0,-1124.5852714538573,867,100
105493662,-2000.0,-1123.5367122650146,873,100
105599257,-2000.0,-1122.1706544876097,879,100
105798489,-2000.0,-1119.5806408882142,885,100
105893168,-2000.0,-1118.3498030662538,878,100
105999343,-2000.0,-1116.9183661212921,886,100
106093435,-2000.0,-1115.6481255760195,888,100
106199643,-2000.0,-1114.3744040873512,887,100
106294945,-2000.0,-1113.2364685058592,884,100
106400291,-2000.0,-1111.9213540077212,893,100
106495782,-2000.0,-1110.7277173519137,893,100
106599553,-2000.0,-1109.5829111099245,896,100
106697666,-2000.0,-1108.5036674499513,901,100
106799394,-2000.0,-1107.5367505760194,893,100
106998429,-2000.0,-1105.8429968771622,893,100
107094598,-2000.0,-1105.1181049557788,892,100
107189196,-2000.0,-1104.5007236003876,888,100
107199343,-2000.0,-1104.4347693443299,896,100
107398330,-2000.0,-1103.3946784973145,895,100
107493495,-2000.0,-1103.014019393921,890,100
107598368,-2000.0,-1102.7972620010376,900,100
107694928,-2000.0,-1102.6041429519653,899,100
107798373,-2000.0,-1102.6,900,100
107998510,-2000.0,-1102.8030212402343,898,100
108093327,-2000.0,-1102.9926555633544,893,100
108199450,-2000.0,-1103.2049010772705,892,100
108293598,-2000.0,-1103.3931964416504,892,100
108399480,-2000.0,-1103.7059121772425,894,100
108494950,-2000.0,-1103.9908956840857,902,100
108599338,-2000.0,-1104.405355834961,894,100
108695495,-2000.0,-1104.789980316162,905,100
108799720,-2000.0,-1105.3086045265197,895,100
108895701,-2000.0,-1105.7885053634643,900,100
108999295,-2000.0,-1106.3571278400423,894,100
109198514,-2000.0,-1107.4556100644058,895,100
109293452,-2000.0,-1107.9803892451914,900,100
109389024,-2000.0,-1108.506135892868,896,100
109399291,-2000.0,-1108.5626042366027,892,100
109598338,-2000.0,-1109.6573642730714,886,100
109694246,-2000.0,-1110.1848539352418,891,100
109798360,-2000.0,-1110.8588427066802,884,100
109893739,-2000.0,-1111.4788084983825,881,100
109998347,-2000.0,-1112.2601065635681,878,100
110199484,-2000.0,-1113.8198789672851,879,100
110295460,-2000.0,-1114.5876859741213,883,100
110390333,-2000.0,-1115.2036507848484,882,100
110399471,-2000.0,-1115.2627542049731,887,100
110599476,-2000.0,-1116.3059051513671,890,100
110695623,-2000.0,-1116.690495300293,875,100
110799471,-2000.0,-1117.1058879852294,876,100
110895452,-2000.0,-1117.4898086547853,876,100
110998742,-2000.0,-1117.7518559074401,883,100
111094525,-2000.0,-1117.9913127994537,883,100
111199733,-2000.0,-1118.1533673981326,886,100
111398514,-2000.0,-1118.3,891,100
111493353,-2000.0,-1118.3,889,100
111587840,-2000.0,-1118.16373963356,882,100
111598441,-2000.0,-1118.1478370666505,883,100
111798484,-2000.0,-1117.8985151290894,878,100
111893194,-2000.0,-1117.80380525589,872,100
111998343,-2000.0,-1117.6986567497254,883,100
112094426,-2000.0,-1117.6025735855103,880,100
112199347,-2000.0,-1117.497652458191,876,100
112294688,-2000.0,-1117.4023117294312,882,100
112399356,-2000.0,-1117.2472296643612,871,100
112599815,-1900.0,-1116.8963693618775,783,100
112696074,-1900.0,-1116.7038511276244,779,100
112793809,-1900.0,-1116.364665555954,787,100
112800484,-1900.0,-1116.34130320549,785,100
112999613,-1900.0,-1115.7459661388398,787,100
113097151,-1900.0,-1115.5021211528779,792,100
113198433,-1900.0,-1114.9448406545362,786,100
113398686,-1900.0,-1112.8238581180572,779,100
113493623,-1900.0,-1111.3523295879363,787,100
113589033,-1900.0,-1108.9531510829922,797,100
113598338,-1900.0,-1108.7158565521238,784,100
113798527,-1900.0,-1102.7988191604618,791,100
113893950,-1900.0,-1099.6021731853489,796,100
113988810,-1900.0,-1095.689879560471,803,100
113999291,-1900.0,-1095.254895305634,804,100
114198334,-1900.0,-1086.386603307724,822,100
114293662,-1900.0,-1081.8585302352903,814,100
114400274,-1900.0,-1076.2780880546572,828,100
114495113,-1900.0,-1071.2990605449677,817,100
114599351,-1900.0,-1065.4458919563106,834,100
114695851,-1900.0,-1060.0207988890847,844,100
114800433,-1900.0,-1053.9076519489288,846,100
114999742,-1900.0,-1042.1463294029231,864,100
115094465,-1900.0,-1036.5103259086607,869,100
115198514,-1900.0,-1030.5203925800322,867,100
115295559,-1900.0,-1024.9403356742857,881,100
115398476,-1900.0,-1019.1955437434975,880,100
115495267,-1900.0,-1013.7966338536245,885,100
115598399,-1900.0,-1008.3765503883358,887,100
115695027,-1900.0,-1003.3035704612729,899,100
115798351,-1900.0,-998.3857879161837,907,100
115998489,-1900.0,-989.5389443397524,914,100
116093756,-1900.0,-985.6329656600956,913,100
116188119,-1900.0,-982.2652686119081,909,100
116199424,-1900.0,-981.8639225482942,919,100
116399373,-1900.0,-975.431174560547,923,100
116495181,-1900.0,-972.6527278862001,926,100
116599394,-1900.0,-970.3585229142982,929,100
116695010,-1900.0,-968.2654497668519,929,100
116799716,-1900.0,-966.5216758728027,937,100
116895881,-1900.0,-964.934958267212,929,100
117000463,-1900.0,-964.0290616035461,938,100
117199433,-1900.0,-963.1999999999999,935,100
117295224,-1900.0,-963.1999999999999,938,100
117390668,-1900.0,-963.898505267426,940,100
117399845,-1900.0,-963.9676780451483,931,100
117598386,-1900.0,-965.8152478218079,935,100
117695855,-1900.0,-966.8874104499818,933,100
117798429,-1900.0,-968.4721507549286,928,100
117893859,-1900.0,-969.9513289451598,927,100
117998356,-1900.0,-972.0778005599975,927,100
118198480,-1900.0,-976.5355339050293,928,100
118293151,-1900.0,-978.807643890381,914,100
118387411,-1900.0,-981.2958939075472,920,100
118398338,-1900.0,-981.5854824066164,920,100
118599605,-1900.0,-986.9703359146118,914,100
118696512,-1900.0,-989.5868286628722,902,100
118799390,-1900.0,-992.4017289270811,913,100
118894061,-1900.0,-994.9922357511759,901,100
118999514,-1900.0,-998.0439324378971,899,100
119095769,-1900.0,-1000.8353223800661,898,100
119200351,-1900.0,-1003.7658493041994,885,100
119398420,-1900.0,-1009.2615636920931,887,100
119496057,-1900.0,-1011.9465729331971,890,100
119592955,-1900.0,-1014.433539406858,888,100
119598476,-1900.0,-1014.5750204421768,890,100
119798506,-1900.0,-1019.4346455574034,892,100
119894104,-1900.0,-1021.633404636383,873,100
119998399,-1900.0,-1023.6772812843321,882,100
120093791,-1900.0,-1025.5374297142027,864,100
120198411,-1900.0,-1027.2732965946198,876,100
120293980,-1900.0,-1028.8501715660097,871,100
120399351,-1900.0,-1030.3329246520998,870,100
120599347,-1900.0,-1032.8258229598998,861,100
120693229,-1900.0,-1033.8585206375121,865,100
120789861,-1900.0,-1034.6391970506354,860,100
120800317,-1900.0,-1034.7224272922497,869,100
121000424,-1900.0,-1036.0121235847475,861,100
121100305,-1900.0,-1036.5034588336946,867,100
121199574,-1900.0,-1036.6523624897004,868,100
121294838,-1900.0,-1036.7952577114104,861,100
121398480,-1900.0,-1036.5487985515595,863,100
121598579,-1900.0,-1035.794576458955,861,100
121695688,-1900.0,-1035.3065923336162,864,100
121789398,-1900.0,-1034.5608154296874,864,100
121798416,-1900.0,-1034.488670349121,882,100
121998489,-1900.0,-1032.735852956772,868,100
122093825,-1900.0,-1031.830156803131,860,100
122198377,-1900.0,-1030.6848465919493,859,100
122294413,-1900.0,-1029.6284510612488,868,100
122398373,-1900.0,-1028.4342071533201,862,100
122493804,-1900.0,-1027.3367523670195,867,100
122599394,-1900.0,-1026.071263015747,874,100
122799527,-1900.0,-1023.5737699290414,874,100
122894568,-1900.0,-1022.3443926379455,878,100
122990677,-1900.0,-1021.0488602161407,879,100
122999540,-1900.0,-1020.9292010784148,880,100
123199416,-1900.0,-1018.1294650077818,882,100
123295233,-1900.0,-1016.7401172161101,881,100
123401330,-1900.0,-1015.2017116546633,881,100
123497288,-1900.0,-1013.8103103637696,888,100
123598592,-1902.0,-1012.5425980091095,884,100
123695859,-1904.0,-1011.3267526626587,898,100
123799291,-1905.9999999999998,-1010.1292921478425,896,100
123998416,-1907.9999999999998,-1007.8844217300416,903,100
124093593,-1910.0000000000002,-1006.8374675750732,909,100
124189226,-1912.0,-1005.877735900879,909,100
124199313,-1914.0,-1005.7768686294555,907,100
124398390,-1916.0,-1003.8367906570434,901,100
124493825,-1918.0,-1002.9301568031311,914,100
124598579,-1920.0,-1002.3413139343262,920,100
124696941,-1922.0,-1001.8003231048585,920,100
124799403,-1923.9999999999998,-1001.6463950023652,913,100
124999553,-1926.0000000000002,-1001.7040866377342,919,100
125095881,-1928.0,-1001.8957837156989,925,100
125191028,-1930.0,-1002.4581735610961,922,100
125199480,-1932.0,-1002.5088834762574,934,100
125399544,-1934.0,-1004.0646770477294,925,100
125494580,-1936.0,-1004.9675193309783,935,100
125598437,-1938.0,-1006.2052519683839,941,100
125694718,-1939.9999999999998,-1007.3606188659667,931,100
125798716,-1942.0000000000002,-1008.7665068199886,937,100
125894156,-1944.0000000000002,-1010.0614137141548,931,100
125999278,-1946.0,-1011.7364608764648,931,100
126198368,-1948.0,-1015.2766954898835,929,100
126293014,-1950.0,-1017.1222827434541,926,100
126388612,-1952.0,-1019.3070925712586,931,100
126399300,-1954.0,-1019.5529060363772,936,100
126598347,-1955.9999999999998,-1024.4350360870365,927,100
126695756,-1957.9999999999998,-1026.9676765441895,929,100
126799368,-1960.0000000000002,-1029.7639629859923,932,100
126895095,-1962.0,-1032.3485910911559,935,100
126999480,-1964.0,-1035.3061656838033,928,100
127199695,-1966.0,-1041.1000071048738,930,100
127296529,-1968.0,-1043.9566154956817,929,100
127391200,-1970.0,-1046.7960176467896,912,100
127399497,-1972.0,-1047.0449323654173,921,100
127598467,-1973.9999999999998,-1053.164732700348,920,100
127696662,-1976.0000000000002,-1056.257862573624,912,100
127799630,-1978.0,-1059.6195960749335,917,100
127897443,-1980.0,-1062.814852666855,911,100
127998390,-1982.0,-1066.196580314636,911,100
128093426,-1984.0,-1069.3802873134607,916,100
128199398,-1986.0,-1072.7767669677735,907,100
128398360,-1988.0,-1079.0421729087825,915,100
128493529,-1989.9999999999998,-1081.9924139976495,906,100
128589428,-1992.0000000000002,-1084.7804152488702,902,100
128599265,-1994.0000000000002,-1085.0657119750967,904,100
128798471,-1996.0,-1090.5890079021453,897,100
128895151,-2000.0,-1093.1510196208956,911,100
129000278,-2000.0,-1095.7819701194762,906,100
129096516,-2000.0,-1098.1879116058346,910,100
129199647,-2000.0,-1100.5491570467966,897,100
129296031,-2000.0,-1102.7549502282588,893,100
129400326,-2000.0,-1105.000009250641,897,100
129599360,-2000.0,-1109.228568744659,888,100
129695340,-2000.0,-1111.2441522598263,880,100
129792955,-2000.0,-1113.1516386032101,888,100
129799626,-2000.0,-1113.2817151718139,875,100
129998407,-2000.0,-1116.965963223711,880,100
130093997,-2000.0,-1118.6471880083702,878,100
130198420,-2000.0,-1120.2213074684144,886,100
130294332,-2000.0,-1121.6599800109866,882,100
130398377,-2000.0,-1123.0179085731504,866,100
130494619,-2000.0,-1124.2690539360044,879,100
130599493,-2000.0,-1125.3761805057522,874,100
130798514,-2000.0,-1127.3136342048645,868,100
130893482,-2000.0,-1128.1683404922485,879,100
130999489,-2000.0,-1128.8661795558928,867,100
131095795,-2000.0,-1129.4921706619261,873,100
131199570,-2000.0,-1129.7551509990028,871,100
131296091,-2000.0,-1129.995252742103,862,100
131399502,-2000.0,-1130.0,869,100
131494877,-2000.0,-1130.0,873,100
131599424,-2000.0,-1129.7971504211428,872,100
131799956,-2000.0,-1129.2431509647367,865,100
131896190,-2000.0,-1128.9063341770172,870,100
131998699,-2000.0,-1128.3433698874624,873,100
132093980,-2000.0,-1127.8166929427105,876,100
132198574,-2000.0,-1127.1905500411988,881,100
132294121,-2000.0,-1126.617269706726,880,100
132398403,-2000.0,-1125.8394750118257,873,100
132494314,-2000.0,-1125.1201387405397,873,100
132598454,-2000.0,-1124.237633943558,874,100
132696447,-2000.0,-1123.4046943187716,881,100
132799343,-2000.0,-1122.4789113998413,873,100
132999356,-2000.0,-1120.678794876099,876,100
133095392,-2000.0,-1119.814471260071,887,100
133200476,-2000.0,-1118.9248280292722,884,100
133298911,-2000.0,-1118.0927108764652,879,100
133399476,-2000.0,-1117.2881896972656,875,100
133495344,-2000.0,-1116.5212409973146,876,100
133600308,-2000.0,-1115.57922039032,890,100
133799471,-2000.0,-1113.7867520332338,882,100
133893765,-2000.0,-1112.9381096839904,885,100
133990410,-2000.0,-1112.2069179058076,886,100
133999360,-2000.0,-1112.139797420502,897,100
134198368,-2000.0,-1110.5930130694978,887,100
134294250,-2000.0,-1109.822106841581,889,100
134398317,-2000.0,-1109.0907774925233,889,100
134493817,-2000.0,-1108.4222808837892,898,100
134598321,-2000.0,-1107.8427301406862,889,100
134695005,-2000.0,-1107.3109682559968,890,100
134798347,-2000.0,-1106.843936061859,896,100
134893894,-2000.0,-1106.4139758110048,889,100
134999300,-2000.0,-1106.041949081421,890,100
135199497,-2000.0,-1105.546253381729,885,100
135296666,-2000.0,-1105.4004999980928,899,100
135392462,-2000.0,-1105.4949873625344,892,100
135400459,-2000.0,-1105.502944327587,895,100
135599338,-2000.0,-1105.6506694793702,900,100
135696018,-2000.0,-1105.6990093231202,894,100
135799351,-2000.0,-1105.7,894,100
135998476,-2000.0,-1105.7502381439208,891,100
136093920,-2000.0,-1105.7979600067138,893,100
136191891,-2000.0,-1105.98872653827,890,100
136198643,-2000.0,-1106.0022988094158,902,100
136398347,-2000.0,-1106.504042625427,894,100
136494048,-2000.0,-1106.7911462783811,901,100
136598484,-2000.0,-1107.2059394836424,893,100
136694220,-2000.0,-1107.5888816833497,891,100
136798532,-2000.0,-1108.0061283111572,898,100
136895108,-2000.0,-1108.3924350738525,895,100
136999411,-2000.0,-1108.7584414482117,897,100
137199334,-2000.0,-1109.611673336029,888,100
137295705,-2000.0,-1110.0935268211365,896,100
137391827,-2000.0,-1110.6661322522518,894,100
137400437,-2000.0,-1110.7175378600164,889,100
137599351,-2000.0,-1111.908111000061,883,100
137696374,-2000.0,-1112.4902490615843,894,100
137799390,-2000.0,-1113.0069522857666,874,100
137895070,-2000.0,-1113.4853510856628,886,100
137998351,-2000.0,-1114.102111000061,886,100
138093250,-2000.0,-1114.6715032043455,884,100
138199368,-2000.0,-1115.260330752272,890,100
138294533,-2000.0,-1115.7863672016854,883,100
138398381,-2000.0,-1116.3069093704223,880,100
138598493,-2000.0,-1117.1552270889283,885,100
138695220,-2000.0,-1117.4937712192536,876,100
138798317,-2000.0,-1117.7026350021363,880,100
138895452,-2000.0,-1117.8969041824341,890,100
138998540,-2000.0,-1118.1030813217162,884,100
139094447,-2000.0,-1118.2948957443236,886,100
139198523,-2000.0,-1118.503046989441,889,100
139399454,-2000.0,-1118.6487725849152,883,100
139494872,-2000.0,-1118.6010635967255,869,100
139590762,-2000.0,-1118.4600554452013,869,100
139600326,-2000.0,-1118.4457820721527,886,100
139799532,-2000.0,-1118.1984679222107,887,100
139895259,-1900.0,-1118.1027409553528,785,100
139999351,-1900.0,-1118.2013518333436,784,100
140094868,-1900.0,-1118.2968685150145,782,100
140199592,-1900.0,-1118.350796043396,782,100
140299065,-1900.0,-1118.3994645411049,784,100
140401712,-1900.0,-1118.3478833644235,788,100
140598553,-1900.0,-1117.5891252517704,787,100
140693237,-1900.0,-1116.9263363838197,779,100
140790217,-1900.0,-1115.2220804214483,778,100
140799454,-1900.0,-1115.0558143615724,785,100
140998399,-1900.0,-1110.5115263938908,780,100
141094791,-1900.0,-1107.8607421398167,794,100
141198347,-1900.0,-1104.1008147239686,784,100
141294653,-1900.0,-1100.5856338977812,786,100
141399497,-1900.0,-1095.9900991973882,801,100
141599532,-1900.0,-1086.5478906185485,809,100
141695838,-1900.0,-1081.708617621276,829,100
141791526,-1900.0,-1076.3625022888193,820,100
141800737,-1900.0,-1075.8466720581055,821,100
141999411,-1900.0,-1064.264579153062,845,100
142095267,-1900.0,-1058.4653085231794,844,100
142198330,-1900.0,-1052.0293515205387,861,100
142294443,-1900.0,-1046.0222762107849,861,100
142398381,-1900.0,-1039.6459353576365,858,100
142494229,-1900.0,-1033.7698801625327,866,100
142600330,-1900.0,-1027.4001861572283,878,100
142695701,-1900.0,-1021.6779399871841,873,100
142798321,-1900.0,-1015.8246578216554,883,100
142998493,-1900.0,-1004.973087120057,905,100
143094040,-1900.0,-1000.0524309158336,899,100
143198394,-1900.0,-995.1851441860199,893,100
143294606,-1900.0,-990.711290359497,920,100
143398514,-1900.0,-986.4378886222845,921,100
143494864,-1900.0,-982.4875698089608,920,100
143599399,-1900.0,-979.0208316726693,910,100
143799502,-1900.0,-972.893225815047,922,100
143894044,-1900.0,-970.2121697497012,931,100
143999368,-1900.0,-967.9205665111544,929,100
144093868,-1900.0,-965.8888253688817,941,100
144199489,-1900.0,-964.328407144547,925,100
144295126,-1900.0,-962.9416728973391,929,100
144398605,-1900.0,-962.3466723136902,936,100
144496799,-1900.0,-961.8066020183564,941,100
144598373,-1900.0,-962.0521941985317,935,100
144693374,-1900.0,-962.2908919310449,936,100
144798557,-1900.0,-963.2140204429627,933,100
144998459,-1900.0,-965.5204277038573,932,100
145093928,-1900.0,-966.8570003509519,940,100
145198386,-1900.0,-968.826337146759,929,100
145292263,-1900.0,-970.6100061416628,917,100
145398845,-1900.0,-972.940597915649,929,100
145494602,-1900.0,-975.0472520828241,936,100
145599497,-1900.0,-977.5599458923333,920,100
145696670,-1900.0,-979.8921030273434,922,100
145799403,-1900.0,-982.5492404235537,914,100
145895216,-1900.0,-985.027979464555,913,100
145999360,-1900.0,-987.8874114513394,912,100
146199459,-1900.0,-993.5423145294183,910,100
146295705,-1900.0,-996.333455562591,902,100
146390239,-1900.0,-999.1210588932032,901,100
146399398,-1900.0,-999.3912695484161,906,100
146598330,-1900.0,-1005.2242019039896,901,100
146695387,-1900.0,-1008.05300887218,887,100
146798390,-1900.0,-1010.8882375717163,890,100
146894078,-1900.0,-1013.5196670055391,888,100
146998351,-1900.0,-1016.235147666931,878,100
147094241,-1900.0,-1018.728288841247,884,100
147199321,-1900.0,-1021.1533995628358,868,100
147399308,-1900.0,-1025.5484857559202,874,100
147497168,-1900.0,-1027.6029523372647,870,100
147592367,-1900.0,-1029.2689367294308,874,100
147600343,-1900.0,-1029.4085056114193,880,100
147799493,-1900.0,-1032.6297530444701,867,100
147894010,-1900.0,-1034.0404508676104,860,100
147999351,-1900.0,-1035.26554608345,861,100
148094889,-1900.0,-1036.3642346858976,871,100
148199338,-1900.0,-1037.2613811492918,859,100
148398514,-1900.0,-1038.6528320140837,862,100
148494477,-1900.0,-1039.1806285209657,863,100
148598596,-1900.0,-1039.4022039212175,863,100
148694649,-1900.0,-1039.5952755261906,860,100
148799506,-1900.0,-1039.2412281036377,868,100
148895263,-1900.0,-1038.9060785770414,856,100
148999669,-1900.0,-1038.2326493263245,867,100
149200098,-1900.0,-1036.723662853241,865,100
149298172,-1900.0,-1035.8882707595826,861,100
149393668,-1900.0,-1034.9333185195924,863,100
149398514,-1900.0,-1034.8848508834842,861,100
149598669,-1900.0,-1032.7816365242008,862,100
149696799,-1900.0,-1031.702204036713,863,100
149799326,-1900.0,-1030.4720869903565,869,100
149894701,-1900.0,-1029.3275862579346,875,100
149999368,-1900.0,-1027.9248940368198,873,100
150095181,-1900.0,-1026.6378564578388,880,100
150200308,-1900.0,-1025.0653673172,874,100
150295503,-1900.0,-1023.6374450683599,880,100
150399347,-1900.0,-1021.8770917892457,871,100
150495160,-1900.0,-1020.248274230957,872,100
150600180,-1900.0,-1018.6162095813754,879,100
150798343,-1900.0,-1015.6881351720149,883,100
150893546,-1900.0,-1014.3485898501909,889,100
150998484,-1902.0,-1012.9299542427065,887,100
151094083,-1904.0,-1011.6393782615665,894,100
151199540,-1905.9999999999998,-1010.3182426452637,892,100
151399986,-1907.9999999999998,-1007.9156505584718,899,100
151497726,-1910.0000000000002,-1006.791644048691,907,100
151594728,-1912.0,-1005.6761261940004,900,100
151599403,-1914.0,-1005.6223625183109,904,100
151799476,-1916.0,-1003.5264752655028,920,100
151895126,-1918.0,-1002.6178029327392,920,100
151990625,-1920.0,-1002.0876215180355,926,100
152000317,-1922.0,-1002.0345812365784,920,100
152199373,-1923.9999999999998,-1001.3479400634767,920,100
152295100,-1926.0000000000002,-1001.2043496131898,928,100
152400128,-1928.0,-1001.3531929016115,929,100
152494482,-1930.0,-1001.4947234153748,914,100
152598553,-1932.0,-1001.9524909095765,934,100
152695529,-1934.0,-1002.388882024765,930,100
152799274,-1936.0,-1003.3160508735696,934,100
152998338,-1938.0,-1005.5174064636228,940,100
153093383,-1939.9999999999998,-1006.7529864311215,933,100
153198514,-1942.0000000000002,-1008.4749960422515,930,100
153294117,-1944.0000000000002,-1010.0524374961856,928,100
153399540,-1946.0,-1011.9457305908201,941,100
153599707,-1948.0,-1015.805513143539,928,100
153698284,-1950.0,-1017.8308280944818,930,100
153796281,-1952.0,-1020.1827606201169,932,100
153799326,-1954.0,-1020.2558242797853,927,100
153999373,-1955.9999999999998,-1025.2617055664061,930,100
154095151,-1957.9999999999998,-1027.7519456634516,927,100
154199347,-1960.0000000000002,-1030.600554626616,920,100
154295005,-1962.0,-1033.2180703613883,923,100
154399583,-1964.0,-1036.2967154979706,924,100
154497400,-1966.0,-1039.1823153495789,930,100
154600278,-1968.0,-1042.3195035457607,922,100
154696851,-1970.0,-1045.2649617195123,912,100
154798356,-1972.0,-1048.4110398712155,919,100
154998497,-1973.9999999999998,-1054.6310855386241,914,100
155094254,-1976.0000000000002,-1057.6144696949707,915,100
155198373,-1978.0,-1060.8425720214843,920,100
155292370,-1980.0,-1063.756493854523,920,100
155398999,-1982.0,-1066.9599956512445,915,100
155495319,-1984.0,-1069.8495716094965,915,100
155599540,-1986.0,-1072.924947357177,914,100
155798617,-1988.0,-1078.7469193458558,912,100
155893473,-1989.9999999999998,-1081.4977371215823,905,100
155989222,-1992.0000000000002,-1084.1822193145751,914,100
156000291,-1994.0000000000002,-1084.4921670227047,903,100
156199343,-1996.0,-1090.0004371965695,905,100
156298039,-2000.0,-1092.7010189533228,903,100
156399544,-2000.0,-1095.2893962860107,909,100
156495053,-2000.0,-1097.7248528003693,897,100
156599347,-2000.0,-1100.2323410034176,890,100
156798823,-2000.0,-1104.8685377979277,900,100
156894782,-2000.0,-1107.0276087665559,891,100
156990681,-2000.0,-1109.0560864740878,884,100
156998377,-2000.0,-1109.2185218427644,890,100
157198373,-2000.0,-1113.2767791748047,884,100
157293619,-2000.0,-1115.1340823173525,885,100
157389063,-2000.0,-1116.903171634674,883,100
157399613,-2000.0,-1117.098350572586,879,100
157598519,-2000.0,-1120.4735476493831,885,100
157697696,-2000.0,-1122.0094036102291,877,100
157801587,-2000.0,-1123.4119332790374,876,100
157898739,-2000.0,-1124.7182637691499,874,100
158000549,-2000.0,-1125.7872663002013,869,100
158200965,-2000.0,-1127.5758615693048,876,100
158299709,-2000.0,-1128.3102561950682,866,100
158400544,-2000.0,-1128.9152692794798,875,100
158499490,-2000.0,-1129.505216741562,874,100
158600536,-2000.0,-1129.8588770389556,867,100
158800905,-2000.0,-1130.3543580532073,861,100
158897803,-2000.0,-1130.4997058868407,868,100
158993063,-2000.0,-1130.3574053287505,863,100
159001510,-2000.0,-1130.3447343959808,878,100
159198360,-2000.0,-1129.7965410395484,865,100
159294739,-2000.0,-1129.4090866472254,868,100
159398334,-2000.0,-1128.893326663971,874,100
159494233,-2000.0,-1128.413833522797,866,100
159598532,-2000.0,-1127.7908075332643,872,100
159798622,-2000.0,-1126.3362112998961,867,100
159895392,-2000.0,-1125.5136679172515,863,100
159990084,-2000.0,-1124.6622375488282,872,100
159999338,-2000.0,-1124.5789500236515,874,100
160199347,-2000.0,-1122.6765245819095,879,100
160294971,-2000.0,-1121.720284881592,872,100
160399587,-2000.0,-1120.628186456481,879,100
160498009,-2000.0,-1119.5998859405518,879,100
160599334,-2000.0,-1118.4346513271332,877,100
160799493,-2000.0,-1116.2343187332153,882,100
160896512,-2000.0,-1115.2156221866608,889,100
160999622,-2000.0,-1114.1837787246707,878,100
161096773,-2000.0,-1113.2122611618045,892,100
161199956,-2000.0,-1112.226542473798,880,100
161299863,-2000.0,-1111.2727940082548,884,100
161398411,-2000.0,-1110.3365868091585,887,100
161494829,-2000.0,-1109.420616722107,890,100
161598489,-2000.0,-1108.4865975379946,891,100
161696160,-2000.0,-1107.6075582504275,891,100
161799351,-2000.0,-1106.6276582717896,898,100
161998321,-2000.0,-1104.940086555481,899,100
162092242,-2000.0,-1104.23568482399,892,100
162188136,-2000.0,-1103.744318199158,899,100
162200532,-2000.0,-1103.6823399734499,896,100
162399420,-2000.0,-1102.8433116988756,895,100
162495061,-2000.0,-1102.510233115201,906,100
162599313,-2000.0,-1102.5,898,100
162696155,-2000.0,-1102.5,892,100
162799326,-2000.0,-1102.5506630420684,900,100
162998450,-2000.0,-1102.7506758079528,891,100
163094074,-2000.0,-1102.8941117630004,892,100
163188475,-2000.0,-1103.2182551455855,891,100
163198399,-2000.0,-1103.2531624530427,896,100
163398725,-2000.0,-1103.9560381889344,898,100
163494357,-2000.0,-1104.2907521247864,905,100
163598424,-2000.0,-1104.604274368286,897,100
163694147,-2000.0,-1104.8914423942565,894,100
163798609,-2000.0,-1105.306437301636,890,100
163893932,-2000.0,-1105.6877315521242,893,100
163999287,-2000.0,-1106.3137243270874,891,100
164198326,-2000.0,-1107.5586195468902,886,100
164292121,-2000.0,-1108.1682920932772,885,100
164387698,-2000.0,-1108.7441917419433,895,100
164400244,-2000.0,-1108.819466835022,887,100
164599411,-2000.0,-1110.0623656182738,891,100
164696370,-2000.0,-1110.6894612819995,894,100
164799364,-2000.0,-1111.3081882476808,886,100
164896589,-2000.0,-1111.8915365219116,888,100
164999429,-2000.0,-1112.4578599452973,879,100
165198497,-2000.0,-1113.4522398548127,886,100
165294877,-2000.0,-1113.8859466152192,887,100
165390174,-2000.0,-1114.316871131245,886,100
165399553,-2000.0,-1114.3592870185123,887,100
165599961,-2000.0,-1115.1603640556334,884,100
165701580,-2000.0,-1115.5137412071226,886,100
165799665,-2000.0,-1115.8079951286315,887,100
165899464,-2000.0,-1116.1049293518067,875,100
165999553,-2000.0,-1116.3051069259643,880,100
166200089,-2000.0,-1116.6030899047853,887,100
166299164,-2000.0,-1116.7010821342467,886,100
166394123,-2000.0,-1116.748561525345,887,100
166402377,-2000.0,-1116.752688682556,880,100
166599308,-2000.0,-1116.8000000000002,882,100
166799450,-2000.0,-1116.8507252693178,879,100
166893623,-2000.0,-1116.897811985016,886,100
166989024,-2000.0,-1116.9455123901366,876,100
166999308,-2000.0,-1116.9506544589997,880,100
167198514,-2000.0,-1116.8492276325226,875,100
167294945,-2000.0,-1116.7045814647674,874,100
167389466,-1900.0,-1116.5161472646435,782,100
167399326,-1900.0,-1116.4963296248086,775,100
167598480,-1900.0,-1115.9955582618713,785,100
167696065,-1900.0,-1115.702802658081,783,100
167798506,-1900.0,-1115.3954810142518,784,100
167894937,-1900.0,-1115.1061886787413,787,100
167998368,-1900.0,-1114.3904170036317,776,100
168093671,-1900.0,-1113.7233022689823,781,100
168199137,-1900.0,-1111.9636678695679,790,100
168293035,-1900.0,-1110.3673887252808,799,100
168399321,-1900.0,-1107.5373115997318,791,100
168599446,-1900.0,-1101.1283471216618,808,100
168696353,-1900.0,-1097.5606216127014,801,100
168799368,-1900.0,-1093.1411330223084,798,100
168895027,-1900.0,-1089.0278260231016,814,100
168999939,-1900.0,-1083.853981208802,820,100
169096842,-1900.0,-1079.0572902679455,814,100
169199373,-1900.0,-1073.5765289306655,835,100
169398502,-1900.0,-1062.571383888245,836,100
169492289,-1900.0,-1057.2255138702394,829,100
169588187,-1900.0,-1051.6428182937395,849,100
169599394,-1900.0,-1050.9895565627219,849,100
169798617,-1900.0,-1039.3045433998107,863,100
169895353,-1900.0,-1033.5971502304074,866,100
169990054,-1900.0,-1028.1958834648135,880,100
169999381,-1900.0,-1027.664237308503,865,100
170198394,-1900.0,-1016.6246835708617,881,100
170398497,-1900.0,-1006.2758615970617,903,100
170493653,-1900.0,-1001.565630054475,899,100
170587544,-1900.0,-997.3255142211922,900,100
170599386,-1900.0,-996.7926225471507,905,100
170799489,-1900.0,-988.3718189884772,917,100
170894937,-1900.0,-984.6203795096174,911,100
170999360,-1900.0,-981.1044260501866,920,100
171093821,-1900.0,-977.9399837493905,919,100
171199321,-1900.0,-975.0643115997323,919,100
171294357,-1900.0,-972.498338794709,918,100
171399313,-1900.0,-970.3230806903839,919,100
171494160,-1900.0,-968.3787130432128,931,100
171598532,-1900.0,-966.9359969345171,932,100
171695263,-1900.0,-965.6235637588121,936,100
171799956,-1900.0,-965.0337372303009,939,100
171998527,-1900.0,-964.6015277862549,933,100
172094233,-1900.0,-964.6972332954407,936,100
172198643,-1900.0,-965.3606837749483,935,100
172295361,-1900.0,-965.9893527984619,931,100
172398484,-1900.0,-967.116333580017,930,100
172599566,-1900.0,-969.8410625610348,925,100
172694164,-1900.0,-971.354635253906,932,100
172790445,-1900.0,-973.2131173375825,923,100
172799373,-1900.0,-973.3863474376167,929,100
172999308,-1900.0,-977.6301051139828,922,100
173094387,-1900.0,-979.8169208526606,921,100
173199609,-1900.0,-982.5418424606315,909,100
173294126,-1900.0,-984.9992780685419,913,100
173398467,-1900.0,-987.9130957336425,903,100
173494404,-1900.0,-990.5993387908936,904,100
173599381,-1900.0,-993.6039008499984,904,100
173695658,-1900.0,-996.3615632349515,900,100
173798596,-1900.0,-999.2954988479615,901,100
173894988,-1900.0,-1002.0426752567295,897,100
173999454,-1900.0,-1004.8662784576413,891,100
174198424,-1900.0,-1010.0356197357179,890,100
174295134,-1900.0,-1012.4533629417421,884,100
174389123,-1900.0,-1014.7109619140625,890,100
174399244,-1900.0,-1014.9538673400876,879,100
174598390,-1900.0,-1019.5305900573725,879,100
174799532,-1900.0,-1023.5455774002077,876,100
174894941,-1900.0,-1025.2629464797974,871,100
174993436,-1900.0,-1026.8353071070428,876,100
174999381,-1900.0,-1026.929960184429,874,100
175199493,-1900.0,-1029.8194149017331,867,100
175294533,-1900.0,-1031.0549390792844,870,100
175399338,-1900.0,-1032.1640590667726,863,100
175494962,-1900.0,-1033.1681107521058,858,100
175598549,-1900.0,-1033.9541193294524,868,100
175695357,-1900.0,-1034.6801825809478,868,100
175799471,-1900.0,-1035.260900081462,861,100
175894203,-1900.0,-1035.7845406038678,872,100
175998896,-1900.0,-1035.952845287323,852,100
176095121,-1900.0,-1036.0971824645997,865,100
176199295,-1900.0,-1035.7419641017914,875,100
176398334,-1900.0,-1034.6906573295594,869,100
176494829,-1900.0,-1034.015191268921,862,100
176590097,-1900.0,-1033.255219268799,866,100
176600686,-1900.0,-1033.1705085754397,872,100
176799343,-1900.0,-1031.478910747528,872,100
176999467,-1900.0,-1029.631399805629,876,100
177094340,-1900.0,-1028.734590811279,868,100
177190183,-1900.0,-1027.7781650543216,866,100
177199544,-1900.0,-1027.6845504760745,874,100
177399502,-1900.0,-1025.532726573944,870,100
177495263,-1900.0,-1024.431471633911,872,100
177598373,-1900.0,-1023.0951472167972,881,100
177693096,-1900.0,-1021.8637514953617,880,100
177798480,-1900.0,-1020.5376811636153,885,100
177895100,-1900.0,-1019.3238670176596,887,100
177999480,-1900.0,-1018.0702339172365,883,100
178198356,-1900.0,-1015.7850826263427,874,100
178293053,-1900.0,-1014.7434156417846,889,100
178389071,-1900.0,-1013.7332448959351,882,100
178399287,-1902.0,-1013.6259824275971,888,100
178598351,-1904.0,-1011.5864816665653,901,100
178697091,-1905.9999999999998,-1010.5990854263307,887,100
178791608,-1907.9999999999998,-1009.6539178848268,900,100
178800428,-1910.0000000000002,-1009.5657106399535,904,100
178999583,-1912.0,-1007.6767478141786,898,100
179199626,-1914.0,-1006.1362465720865,903,100
179293538,-1916.0,-1005.5288578052426,911,100
179389522,-1918.0,-1005.3169548034668,905,100
179399377,-1920.0,-1005.2972448349,913,100
179599489,-1922.0,-1005.1,924,100
179697052,-1923.9999999999998,-1005.1,923,100
179798351,-1926.0000000000002,-1005.4010555000306,918,100
179893529,-1928.0,-1005.6865884513857,913,100
179998480,-1930.0,-1006.1544347810985,916,100
180095357,-1932.0,-1006.5925724106219,925,100
180198536,-1934.0,-1007.1584500312806,918,100
180398587,-1936.0,-1008.6650847434996,927,100
180492997,-1938.0,-1009.5619746685026,920,100
180591762,-1939.9999999999998,-1010.737152481079,934,100
180598497,-1942.0000000000002,-1010.8179729461667,930,100
180798768,-1944.0000000000002,-1013.5265216827394,936,100
180893898,-1946.0,-1014.9534783363343,927,100
180999347,-1948.0,-1016.8422557525632,931,100
181095915,-1950.0,-1018.5804816894528,934,100
181199360,-1952.0,-1020.6370232121858,936,100
181296640,-1954.0,-1022.5729536066003,927,100
181399755,-1955.9999999999998,-1024.8894928455354,935,100
181599502,-1957.9999999999998,-1029.6375509262082,922,100
181695349,-1960.0000000000002,-1032.0337291717524,920,100
181791325,-1962.0,-1034.5731136322017,919,100
181799326,-1964.0,-1034.7851393089293,930,100
181998497,-1966.0,-1040.2785786403479,920,100
182095512,-1968.0,-1043.057383841126,928,100
182198399,-1970.0,-1046.0405721664429,925,100
182292787,-1972.0,-1048.7778244018557,924,100
182398420,-1973.9999999999998,-1051.841194438934,914,100
182598489,-1976.0000000000002,-1057.6939302921287,927,100
182696507,-1978.0,-1060.5854803562158,910,100
182791187,-1980.0,-1063.3785354137417,915,100
182798360,-1982.0,-1063.5901322841646,922,100
182999467,-1984.0,-1069.4715634384152,912,100
183095138,-1986.0,-1072.2460275688168,910,100
183199343,-1988.0,-1075.202271276445,908,100
183293993,-1989.9999999999998,-1077.8863698475388,907,100
183399471,-1992.0000000000002,-1080.9934238910676,916,100
183495160,-1994.0000000000002,-1083.8162300109864,903,100
183600270,-1996.0,-1086.9169715404507,908,100
183697357,-2000.0,-1089.781049346923,918,100
183798347,-2000.0,-1092.5595573997496,913,100
183894233,-2000.0,-1095.1964156246183,911,100
183999459,-2000.0,-1097.9511912360258,902,100
184198519,-2000.0,-1102.936460876465,897,100
184294688,-2000.0,-1105.2445167541507,889,100
184398394,-2000.0,-1107.581381845474,896,100
184494499,-2000.0,-1109.743735837936,896,100
184598390,-2000.0,-1112.0812852859492,891,100
184695443,-2000.0,-1114.2649789333339,883,100
184799338,-2000.0,-1116.5002860546113,892,100
184998386,-2000.0,-1120.5263371467588,887,100
185093147,-2000.0,-1122.326803207397,882,100
185188998,-2000.0,-1123.9639822959898,873,100
185200115,-2000.0,-1124.1529673500058,874,100
185403016,-2000.0,-1127.3823403543502,870,100
185501644,-2000.0,-1128.8473830223086,871,100
185599476,-2000.0,-1130.1191917419433,873,100
185696898,-2000.0,-1131.3856793403622,867,100
185799441,-2000.0,-1132.414419555664,870,100
185998532,-2000.0,-1134.2042566223142,860,100
186093731,-2000.0,-1134.9658494873045,862,100
186192822,-2000.0,-1135.3811968472733,866,100
186199407,-2000.0,-1135.407668545977,856,100
186398347,-2000.0,-1135.698652458191,867,100
186494310,-2000.0,-1135.6026894569395,862,100
186598450,-2000.0,-1135.2449231147768,877,100
186694246,-2000.0,-1134.9096384048464,864,100
186798471,-2000.0,-1134.3926400184632,858,100
186893971,-2000.0,-1133.915142440796,863,100
186999261,-2000.0,-1133.13303771019,866,100
187199321,-2000.0,-1131.427942970276,864,100
187293774,-2000.0,-1130.5306453495027,867,100
187389591,-2000.0,-1129.5326285974304,866,100
187400330,-2000.0,-1129.4204296681419,873,100
187599347,-2000.0,-1127.2345032691958,877,100
187696319,-2000.0,-1126.1193308830266,871,100
187800321,-2000.0,-1124.7698176383972,872,100
187895126,-2000.0,-1123.537361907959,869,100
187998347,-2000.0,-1122.1453081855775,879,100
188096224,-2000.0,-1120.8239683399204,884,100
188199493,-2000.0,-1119.3719524211022,885,100
188398351,-2000.0,-1116.7331020832064,872,100
188494859,-2000.0,-1115.5267517566683,883,100
188589638,-2000.0,-1114.3420200347903,870,100
188599300,-2000.0,-1114.2212467193608,889,100
188798480,-2000.0,-1111.7822330474853,886,100
188894203,-2000.0,-1110.6335609436035,888,100
188999274,-2000.0,-1109.474980354309,889,100
189093276,-2000.0,-1108.4409608840945,894,100
189198386,-2000.0,-1107.2340590953827,888,100
189294229,-2000.0,-1106.1318664550781,885,100
189400883,-2000.0,-1105.0092189331058,895,100
189599549,-2000.0,-1103.1836876105317,900,100
189698331,-2000.0,-1102.3981751918795,898,100
189799956,-2000.0,-1101.839236831665,886,100
189899520,-2000.0,-1101.2946781158448,899,100
190000617,-2000.0,-1100.9408375740052,892,100
190099803,-2000.0,-1100.5963924407959,905,100
190201733,-2000.0,-1100.392532875061,886,100
190300713,-2000.0,-1100.1972728518385,898,100
190399579,-2000.0,-1100.0979103395089,906,100
190599690,-2000.0,-1099.8973092079164,900,100
190699846,-2000.0,-1099.805693244934,909,100
