timestamp,TimeUS,ThI,ABst,ThO,ThH,DAlt,Alt,BAlt,DSAlt,SAlt,TAlt,DCRt,CRt
1678489626.32003212,23331497,0.0,0.0,0.5,0.5,0.0,-0.18344131112098694,-0.11806242167949677,0.0,0.0,0.0,0,2
1678489626.41999221,23431457,0.0,0.0,0.5,0.5,0.0,-0.17633958160877228,-0.2185889631509781,0.0,0.0,0.0,0,3
1678489626.51995206,23531417,0.0,0.0,0.5,0.5,0.0,-0.17003586888313293,-0.24035315215587616,0.0,0.0,0.0,0,3
1678489626.61991215,23631377,0.0,0.0,0.5,0.5,0.0,-0.16754718124866486,-0.2588340938091278,0.0,0.0,0.0,0,3
1678489626.71987224,23731337,0.0,0.0,0.5,0.5,0.0,-0.16906701028347015,0.006600765511393547,0.0,0.0,0.0,0,3
1678489626.81983209,23831297,0.0,0.0,0.5,0.5,0.0,-0.16331736743450165,-0.020788824185729027,0.0,0.0,0.0,0,4
1678489626.91979218,23931257,0.0,0.0,0.5,0.5,0.0,-0.14795775711536407,-0.13026626408100128,0.0,0.0,0.0,0,5
1678489627.01975226,24031217,0.0,0.0,0.5,0.5,0.0,-0.13121885061264038,-0.39992427825927734,0.0,0.0,0.0,0,6
1678489627.11971211,24131177,0.0,0.0,0.5,0.5,0.0,-0.1271202564239502,-0.2201901376247406,0.0,0.0,0.0,0,6
1678489627.21967220,24231137,0.0,0.0,0.5,0.5,0.0,-0.13108570873737335,-0.046281490474939346,0.0,0.0,0.0,0,5
1678489627.31963205,24331097,0.0,0.0,0.5,0.5,0.0,-0.12999378144741058,-0.18319714069366455,0.0,0.0,0.0,0,5
1678489627.41959214,24431057,0.0,0.0,0.5,0.5,0.0,-0.12698504328727722,-0.18956433236598969,0.0,0.0,0.0,0,5
1678489627.51955223,24531017,0.0,0.0,0.5,0.5,0.0,-0.12592142820358276,-0.2576482892036438,0.0,0.0,0.0,0,5
1678489627.61951208,24630977,0.0,0.0,0.5,0.5,0.0,-0.1291668564081192,-0.012005341239273548,0.0,0.0,0.0,0,5
1678489627.71947217,24730937,0.0,0.0,0.5,0.5,0.0,-0.12727919220924377,-0.050501834601163864,0.0,0.0,0.0,0,5
1678489627.81943226,24830897,0.0,0.0,0.5,0.5,0.0,-0.11818355321884155,-0.3545711040496826,0.0,0.0,0.0,0,5
1678489627.91939211,24930857,0.0,0.0,0.5,0.5,0.0,-0.11696764081716537,-0.2793809771537781,0.0,0.0,0.0,0,5
1678489628.01935220,25030817,0.0,0.0,0.5,0.5,0.0,-0.1251184195280075,-0.2709805369377136,0.0,0.0,0.0,0,4
1678489628.11931205,25130777,0.0,0.0,0.5,0.5,0.0,-0.1378580778837204,-0.11366429924964905,0.0,0.0,0.0,0,3
1678489628.21927214,25230737,0.0,0.0,0.5,0.5,0.0,-0.14713124930858612,-0.28943759202957153,0.0,0.0,0.0,0,2
1678489628.31923223,25330697,0.0,0.0,0.5,0.5,0.0,-0.15710878372192383,-0.18095344305038452,0.0,0.0,0.0,0,1
1678489628.42002511,25431490,0.0,0.0,0.5,0.5,0.0,-0.1667642891407013,-0.2786902189254761,0.0,0.0,0.0,0,1
1678489628.51998520,25531450,0.0,0.0,0.5,0.5,0.0,-0.17742709815502167,-0.0899844542145729,0.0,0.0,0.0,0,0
1678489628.61994505,25631410,0.0,0.0,0.5,0.5,0.0,-0.18314595520496368,-0.07411710917949677,0.0,0.0,0.0,0,0
1678489628.71990514,25731370,0.0,0.0,0.5,0.5,0.0,-0.1805000603199005,-0.31284835934638977,0.0,0.0,0.0,0,0
1678489628.81986523,25831330,0.0,0.0,0.5,0.5,0.0,-0.1810200810432434,-0.046474408358335495,0.0,0.0,0.0,0,0
1678489628.91982508,25931290,0.0,0.0,0.5,0.5,0.0,-0.17853322625160217,-0.21913783252239227,0.0,0.0,0.0,0,0
1678489629.01978517,26031250,0.0,0.0,0.4724999964237213,0.5,0.0,-0.1751168817281723,-0.15395089983940125,0.0,0.0,0.0,0,1
1678489629.11974525,26131210,0.0,0.0,0.42375001311302185,0.5,0.0,-0.1725957989692688,-0.344818651676178,0.0,0.0,0.0,0,0
1678489629.21970510,26231170,0.0,0.0,0.35874998569488525,0.5,0.0,-0.17950677871704102,-0.34024831652641296,0.0,0.0,0.0,0,-5
1678489629.31966519,26331130,0.0,0.0,0.2775000035762787,0.5,0.0,-0.20414999127388,-0.32825973629951477,0.0,0.0,0.0,0,-19
1678489629.41962528,26431090,0.0,0.0,0.26124998927116394,0.5,0.0,-0.2490556687116623,-0.30732661485671997,0.0,0.0,0.0,0,-36
1678489629.51958513,26531050,0.0,0.0,0.25,0.5,0.0,-0.3093681335449219,-0.15759526193141937,0.0,0.0,0.0,0,-51
1678489629.61954522,26631010,0.0,0.0,0.25,0.5,0.0,-0.371594101190567,-0.4818646311759949,0.0,0.0,0.0,0,-58
1678489629.71950507,26730970,0.0,0.0,0.25,0.5,0.0,-0.4400723874568939,-0.520430862903595,0.0,0.0,0.0,0,-62
1678489629.81946516,26830930,0.0,0.0,0.25,0.5,0.0,-0.5158069729804993,-0.24872249364852905,0.0,0.0,0.0,0,-65
1678489629.91942525,26930890,0.0,0.0,0.25,0.5,0.0,-0.5827410817146301,-0.371964693069458,0.0,0.0,0.0,0,-65
1678489630.01938510,27030850,0.0,0.0,0.25,0.5,0.0,-0.6382498145103455,-0.7382389903068542,0.0,0.0,0.0,0,-65
1678489630.11934519,27130810,0.0,0.0,0.25,0.5,0.0,-0.6988605260848999,-0.818962037563324,0.0,0.0,0.0,0,-65
1678489630.21930528,27230770,0.0,0.0,0.25,0.5,0.0,-0.7703980207443237,-0.8117573857307434,0.0,0.0,0.0,0,-65
1678489630.31926513,27330730,0.0,0.0,0.25,0.5,0.0,-0.8470811247825623,-0.8717641830444336,0.0,0.0,0.0,0,-66
1678489630.41922522,27430690,0.0,0.0,0.25,0.5,0.0,-0.9252488017082214,-0.9342809319496155,0.0,0.0,0.0,0,-67
1678489630.52001810,27531483,0.0,0.0,0.25,0.5,0.0,-1.0043128728866577,-0.9544360041618347,0.0,0.0,0.0,0,-68
1678489630.61997819,27631443,0.0,0.0,0.25,0.5,0.0,-1.0806541442871094,-1.0037368535995483,0.0,0.0,0.0,0,-69
1678489630.71993828,27731403,0.0,0.0,0.25,0.5,0.0,-1.1533888578414917,-1.1878025531768799,0.0,0.0,0.0,0,-69
1678489630.81989813,27831363,0.0,0.0,0.25,0.5,0.0,-1.227558970451355,-1.2077749967575073,0.0,0.0,0.0,0,-70
1678489630.91985822,27931323,0.0,0.0,0.25,0.5,0.0,-1.303171157836914,-1.316611886024475,0.0,0.0,0.0,0,-70
1678489631.01981807,28031283,0.0,0.0,0.25,0.5,0.0,-1.3801381587982178,-1.2029942274093628,0.0,0.0,0.0,0,-71
1678489631.11977816,28131243,0.0,0.0,0.25,0.5,0.0,-1.4515012502670288,-1.1308597326278687,0.0,0.0,0.0,0,-71
1678489631.21973825,28231203,0.0,0.0,0.25,0.5,0.0,-1.5093297958374023,-1.4327905178070068,0.0,0.0,0.0,0,-70
1678489631.31969810,28331163,0.0,0.0,0.25,0.5,0.0,-1.564026117324829,-1.2453683614730835,0.0,0.0,0.0,0,-69
1678489631.41965818,28431123,0.0,0.0,0.25,0.5,0.0,-1.6114531755447388,-1.5605524778366089,0.0,0.0,0.0,0,-67
1678489631.51961827,28531083,0.0,0.0,0.25,0.5,0.0,-1.6596894264221191,-1.3953005075454712,0.0,0.0,0.0,0,-66
1678489631.61957812,28631043,0.0,0.0,0.25,0.5,0.0,-1.705046534538269,-1.453345775604248,0.0,0.0,0.0,0,-64
1678489631.71953821,28731003,0.0,0.0,0.25,0.5,0.0,-1.7438714504241943,-1.6134717464447021,0.0,0.0,0.0,0,-62
1678489631.81949806,28830963,0.0,0.0,0.25,0.5,0.0,-1.7804838418960571,-1.5520085096359253,0.0,0.0,0.0,0,-61
1678489631.91945815,28930923,0.0,0.0,0.25,0.5,0.0,-1.816770315170288,-1.70551335811615,0.0,0.0,0.0,0,-59
1678489632.01941824,29030883,0.0,0.0,0.25,0.5,0.0,-1.8543850183486938,-1.9151893854141235,0.0,0.0,0.0,0,-57
1678489632.11937809,29130843,0.0,0.0,0.25,0.5,0.0,-1.9018745422363281,-1.8491908311843872,0.0,0.0,0.0,0,-57
1678489632.21933818,29230803,0.0,0.0,0.25,0.5,0.0,-1.9531528949737549,-2.089780807495117,0.0,0.0,0.0,0,-56
1678489632.31929827,29330763,0.0,0.0,0.25,0.5,0.0,-2.013960123062134,-1.9580261707305908,0.0,0.0,0.0,0,-57
1678489632.41925812,29430723,0.0,0.0,0.25,0.5,0.0,-2.075178384780884,-2.1118850708007812,0.0,0.0,0.0,0,-57
1678489632.51921821,29530683,0.0,0.0,0.25,0.5,0.0,-2.138232469558716,-2.084287405014038,0.0,0.0,0.0,0,-58
1678489632.62001109,29631476,0.0,0.0,0.25,0.5,0.0,-2.2001893520355225,-2.00844669342041,0.0,0.0,0.0,0,-58
1678489632.71997118,29731436,0.0,0.0,0.25,0.5,0.0,-2.253031015396118,-2.1997015476226807,0.0,0.0,0.0,0,-57
1678489632.81993127,29831396,0.0,0.0,0.25,0.5,0.0,-2.3039138317108154,-2.392249345779419,0.0,0.0,0.0,0,-57
1678489632.91989112,29931356,0.0,0.0,0.25,0.5,0.0,-2.3606040477752686,-2.3384268283843994,0.0,0.0,0.0,0,-56
1678489633.01985121,30031316,0.0,0.0,0.25,0.5,0.0,-2.420027256011963,-2.6087265014648438,0.0,0.0,0.0,0,-57
1678489633.11981106,30131276,0.0,0.0,0.25,0.5,0.0,-2.487269639968872,-2.565814256668091,0.0,0.0,0.0,0,-57
1678489633.21977115,30231236,0.0,0.0,0.25,0.5,0.0,-2.5603184700012207,-2.487006187438965,0.0,0.0,0.0,0,-58
1678489633.31973124,30331196,0.0,0.0,0.25,0.5,0.0,-2.6294009685516357,-2.663635492324829,0.0,0.0,0.0,0,-59
1678489633.41969109,30431156,0.0,0.0,0.25,0.5,0.0,-2.696868896484375,-2.800983428955078,0.0,0.0,0.0,0,-60
1678489633.51965117,30531116,0.0,0.0,0.25,0.5,0.0,-2.7679049968719482,-2.740323305130005,0.0,0.0,0.0,0,-60
1678489633.61961126,30631076,0.0,0.0,0.25,0.5,0.0,-2.838914155960083,-2.7576422691345215,0.0,0.0,0.0,0,-61
1678489633.71957111,30731036,0.0,0.0,0.25,0.5,0.0,-2.904917001724243,-2.9442272186279297,0.0,0.0,0.0,0,-61
1678489633.81953120,30830996,0.0,0.0,0.25,0.5,0.0,-2.9711251258850098,-2.9602746963500977,0.0,0.0,0.0,0,-61
1678489633.91949105,30930956,0.0,0.0,0.25,0.5,0.0,-3.038755416870117,-2.8988444805145264,0.0,0.0,0.0,0,-62
1678489634.01945114,31030916,0.0,0.0,0.25,0.5,0.0,-3.1005966663360596,-2.9401679039001465,0.0,0.0,0.0,0,-62
1678489634.11941123,31130876,0.0,0.0,0.25,0.5,0.0,-3.155296802520752,-3.165398120880127,0.0,0.0,0.0,0,-61
1678489634.21937108,31230836,0.0,0.0,0.25,0.5,0.0,-3.2111222743988037,-3.337435722351074,0.0,0.0,0.0,0,-60
1678489634.31933117,31330796,0.0,0.0,0.25,0.5,0.0,-3.275808334350586,-3.1601040363311768,0.0,0.0,0.0,0,-61
1678489634.41929126,31430756,0.0,0.0,0.25,0.5,0.0,-3.3398115634918213,-3.3595969676971436,0.0,0.0,0.0,0,-61
1678489634.51925111,31530716,0.0,0.0,0.25,0.5,0.0,-3.4035143852233887,-3.515627861022949,0.0,0.0,0.0,0,-61
1678489634.62004423,31631509,0.0,0.0,0.25,0.5,0.0,-3.474038600921631,-3.4566028118133545,0.0,0.0,0.0,0,-62
1678489634.72000408,31731469,0.0,0.0,0.25,0.5,0.0,-3.545559883117676,-3.564871311187744,0.0,0.0,0.0,0,-63
1678489634.81996417,31831429,0.0,0.0,0.25,0.5,0.0,-3.6170153617858887,-3.3659801483154297,0.0,0.0,0.0,0,-63
1678489634.91992426,31931389,0.0,0.0,0.25,0.5,0.0,-3.6787843704223633,-3.7747652530670166,0.0,0.0,0.0,0,-63
1678489635.01988411,32031349,0.0,0.0,0.25,0.5,0.0,-3.741602659225464,-3.447004556655884,0.0,0.0,0.0,0,-63
1678489635.11984420,32131309,0.0,0.0,0.25,0.5,0.0,-3.7973010540008545,-3.499746084213257,0.0,0.0,0.0,0,-62
1678489635.21980405,32231269,0.0,0.0,0.25,0.5,0.0,-3.8394689559936523,-3.898709774017334,0.0,0.0,0.0,0,-60
1678489635.31976414,32331229,0.0,0.0,0.25,0.5,0.0,-3.8856890201568604,-3.9886603355407715,0.0,0.0,0.0,0,-59
1678489635.41972423,32431189,0.0,0.0,0.25,0.5,0.0,-3.9437789916992188,-4.024259090423584,0.0,0.0,0.0,0,-59
1678489635.51968408,32531149,0.0,0.0,0.25,0.5,0.0,-4.010130882263184,-4.025360107421875,0.0,0.0,0.0,0,-60
1678489635.61964417,32631109,0.0,0.0,0.25,0.5,0.0,-4.078751564025879,-4.011663913726807,0.0,0.0,0.0,0,-61
1678489635.71960425,32731069,0.0,0.0,0.25,0.5,0.0,-4.145286560058594,-4.276754856109619,0.0,0.0,0.0,0,-61
1678489635.81956410,32831029,0.0,0.0,0.25,0.5,0.0,-4.216074466705322,-4.070308685302734,0.0,0.0,0.0,0,-62
1678489635.91952419,32930989,0.0,0.0,0.25,0.5,0.0,-4.283406734466553,-4.221241474151611,0.0,0.0,0.0,0,-62
1678489636.01948428,33030949,0.0,0.0,0.25,0.5,0.0,-4.346329689025879,-4.2555108070373535,0.0,0.0,0.0,0,-62
1678489636.11944413,33130909,0.0,0.0,0.25,0.5,0.0,-4.406054973602295,-4.154386520385742,0.0,0.0,0.0,0,-62
1678489636.21940422,33230869,0.0,0.0,0.25,0.5,0.0,-4.457055568695068,-4.264830589294434,0.0,0.0,0.0,0,-61
1678489636.31936407,33330829,0.0,0.0,0.25,0.5,0.0,-4.500641345977783,-4.423745632171631,0.0,0.0,0.0,0,-59
1678489636.41932416,33430789,0.0,0.0,0.25,0.5,0.0,-4.544459342956543,-4.473964691162109,0.0,0.0,0.0,0,-58
1678489636.51928425,33530749,0.0,0.0,0.25,0.5,0.0,-4.590809345245361,-4.609431266784668,0.0,0.0,0.0,0,-57
1678489636.61924410,33630709,0.0,0.0,0.25,0.5,0.0,-4.642245292663574,-4.5092692375183105,0.0,0.0,0.0,0,-57
1678489636.72003722,33731502,0.0,0.0,0.25,0.5,0.0,-4.692531108856201,-4.736555099487305,0.0,0.0,0.0,0,-56
1678489636.81999707,33831462,0.0,0.0,0.25,0.5,0.0,-4.747094631195068,-4.6010422706604,0.0,0.0,0.0,0,-56
1678489636.91995716,33931422,0.0,0.0,0.25,0.5,0.0,-4.798377990722656,-5.024275779724121,0.0,0.0,0.0,0,-56
1678489637.01991725,34031382,0.0,0.0,0.25,0.5,0.0,-4.861604690551758,-4.853396415710449,0.0,0.0,0.0,0,-56
1678489637.11987710,34131342,0.0,0.0,0.25,0.5,0.0,-4.927797317504883,-4.8010573387146,0.0,0.0,0.0,0,-57
1678489637.21983719,34231302,0.0,0.0,0.25,0.5,0.0,-4.98754358291626,-4.954935073852539,0.0,0.0,0.0,0,-57
1678489637.31979728,34331262,0.0,0.0,0.25,0.5,0.0,-5.045391082763672,-5.103909015655518,0.0,0.0,0.0,0,-57
1678489637.41975713,34431222,0.0,0.0,0.25,0.5,0.0,-5.10737943649292,-5.083849906921387,0.0,0.0,0.0,0,-57
1678489637.51971722,34531182,0.0,0.0,0.25,0.5,0.0,-5.169882774353027,-4.988435745239258,0.0,0.0,0.0,0,-58
1678489637.61967707,34631142,0.0,0.0,0.25,0.5,0.0,-5.223937034606934,-5.096308708190918,0.0,0.0,0.0,0,-57
1678489637.71963716,34731102,0.0,0.0,0.25,0.5,0.0,-5.2730326652526855,-5.3507256507873535,0.0,0.0,0.0,0,-56
1678489637.81959724,34831062,0.0,0.0,0.25,0.5,0.0,-5.328334331512451,-5.4390788078308105,0.0,0.0,0.0,0,-56
1678489637.91955709,34931022,0.0,0.0,0.25,0.5,0.0,-5.392383098602295,-5.594100475311279,0.0,0.0,0.0,0,-57
1678489638.01951718,35030982,0.0,0.0,0.25,0.5,0.0,-5.467399597167969,-5.413557529449463,0.0,0.0,0.0,0,-58
1678489638.11947727,35130942,0.0,0.0,0.25,0.5,0.0,-5.540445327758789,-5.5620245933532715,0.0,0.0,0.0,0,-59
1678489638.21943712,35230902,0.0,0.0,0.25,0.5,0.0,-5.610973358154297,-5.5669074058532715,0.0,0.0,0.0,0,-60
1678489638.31939721,35330862,0.0,0.0,0.25,0.5,0.0,-5.678835868835449,-5.669736385345459,0.0,0.0,0.0,0,-60
1678489638.41935706,35430822,0.0,0.0,0.25,0.5,0.0,-5.745014667510986,-5.613530158996582,0.0,0.0,0.0,0,-61
1678489638.51931715,35530782,0.0,0.0,0.25,0.5,0.0,-5.806129455566406,-6.002012729644775,0.0,0.0,0.0,0,-61
1678489638.61927724,35630742,0.0,0.0,0.25,0.5,0.0,-5.87400484085083,-5.755127906799316,0.0,0.0,0.0,0,-61
1678489638.71923709,35730702,0.0,0.0,0.25,0.5,0.0,-5.941456317901611,-6.080618381500244,0.0,0.0,0.0,0,-62
1678489638.82003021,35831495,0.0,0.0,0.25,0.5,0.0,-6.0126848220825195,-5.977779388427734,0.0,0.0,0.0,0,-62
1678489638.91999006,35931455,0.0,0.0,0.25,0.5,0.0,-6.084591388702393,-6.199224948883057,0.0,0.0,0.0,0,-63
1678489639.01995015,36031415,0.0,0.0,0.25,0.5,0.0,-6.159698486328125,-6.15370512008667,0.0,0.0,0.0,0,-64
1678489639.11991024,36131375,0.0,0.0,0.25,0.5,0.0,-6.235777854919434,-6.190372467041016,0.0,0.0,0.0,0,-65
1678489639.21987009,36231335,0.0,0.0,0.25,0.5,0.0,-6.30872106552124,-6.143352508544922,0.0,0.0,0.0,0,-65
1678489639.31983018,36331295,0.0,0.0,0.25,0.5,0.0,-6.374172210693359,-6.1291728019714355,0.0,0.0,0.0,0,-65
1678489639.41979027,36431255,0.0,0.0,0.25,0.5,0.0,-6.428805828094482,-6.209443092346191,0.0,0.0,0.0,0,-64
1678489639.51975012,36531215,0.0,0.0,0.25,0.5,0.0,-6.475061416625977,-6.292846202850342,0.0,0.0,0.0,0,-63
1678489639.61971021,36631175,0.0,0.0,0.25,0.5,0.0,-6.517164707183838,-6.3973236083984375,0.0,0.0,0.0,0,-61
1678489639.71967006,36731135,0.0,0.0,0.25,0.5,0.0,-6.558696746826172,-6.482666015625,0.0,0.0,0.0,0,-60
1678489639.81963015,36831095,0.0,0.0,0.25,0.5,0.0,-6.603298664093018,-6.538541316986084,0.0,0.0,0.0,0,-59
1678489639.91959023,36931055,0.0,0.0,0.25,0.5,0.0,-6.6506781578063965,-6.580446243286133,0.0,0.0,0.0,0,-58
1678489640.01955009,37031015,0.0,0.0,0.25,0.5,0.0,-6.69969367980957,-6.617705345153809,0.0,0.0,0.0,0,-57
1678489640.11951017,37130975,0.0,0.0,0.25,0.5,0.0,-6.749448299407959,-6.8570756912231445,0.0,0.0,0.0,0,-57
1678489640.21947026,37230935,0.0,0.0,0.25,0.5,0.0,-6.805794715881348,-6.889327049255371,0.0,0.0,0.0,0,-57
1678489640.31943011,37330895,0.0,0.0,0.25,0.5,0.0,-6.870065689086914,-6.809167861938477,0.0,0.0,0.0,0,-57
1678489640.41939020,37430855,0.0,0.0,0.25,0.5,0.0,-6.933821201324463,-6.853384971618652,0.0,0.0,0.0,0,-58
1678489640.51935005,37530815,0.0,0.0,0.25,0.5,0.0,-6.993422031402588,-6.955652236938477,0.0,0.0,0.0,0,-58
1678489640.61931014,37630775,0.0,0.0,0.25,0.5,0.0,-7.051341533660889,-7.170589923858643,0.0,0.0,0.0,0,-58
1678489640.71927023,37730735,0.0,0.0,0.25,0.5,0.0,-7.115099906921387,-7.3466949462890625,0.0,0.0,0.0,0,-58
1678489640.81923008,37830695,0.0,0.0,0.25,0.5,0.0,-7.190781593322754,-7.247786998748779,0.0,0.0,0.0,0,-60
1678489640.92002320,37931488,0.0,0.0,0.25,0.5,0.0,-7.271212577819824,-7.471892356872559,0.0,0.0,0.0,0,-61
1678489641.01998305,38031448,0.0,0.0,0.25,0.5,0.0,-7.359380722045898,-7.477141380310059,0.0,0.0,0.0,0,-63
1678489641.11994314,38131408,0.0,0.0,0.25,0.5,0.0,-7.448827743530273,-7.35000467300415,0.0,0.0,0.0,0,-65
1678489641.21990323,38231368,0.0,0.0,0.25,0.5,0.0,-7.530337810516357,-7.529577255249023,0.0,0.0,0.0,0,-66
1678489641.31986308,38331328,0.0,0.0,0.25,0.5,0.0,-7.608150959014893,-7.649958610534668,0.0,0.0,0.0,0,-67
1678489641.41982317,38431288,0.0,0.0,0.25,0.5,0.0,-7.687017440795898,-7.63540506362915,0.0,0.0,0.0,0,-68
1678489641.51978326,38531248,0.0,0.0,0.25,0.5,0.0,-7.763326168060303,-7.591851234436035,0.0,0.0,0.0,0,-68
1678489641.61974311,38631208,0.0,0.0,0.25,0.5,0.0,-7.8313307762146,-7.708944320678711,0.0,0.0,0.0,0,-68
1678489641.71970320,38731168,0.0,0.0,0.25,0.5,0.0,-7.894165992736816,-7.70550537109375,0.0,0.0,0.0,0,-68
1678489641.81966305,38831128,0.0,0.0,0.25,0.5,0.0,-7.950417518615723,-7.944808483123779,0.0,0.0,0.0,0,-67
1678489641.91962314,38931088,0.0,0.0,0.25,0.5,0.0,-8.010334014892578,-7.9901580810546875,0.0,0.0,0.0,0,-66
1678489642.01958323,39031048,0.0,0.0,0.25,0.5,0.0,-8.07421588897705,-7.840972423553467,0.0,0.0,0.0,0,-66
1678489642.11954308,39131008,0.0,0.0,0.25,0.5,0.0,-8.130858421325684,-7.915103435516357,0.0,0.0,0.0,0,-66
1678489642.21950316,39230968,0.0,0.0,0.25,0.5,0.0,-8.180566787719727,-8.096637725830078,0.0,0.0,0.0,0,-64
1678489642.31946325,39330928,0.0,0.0,0.25,0.5,0.0,-8.230438232421875,-8.263947486877441,0.0,0.0,0.0,0,-63
1678489642.41942310,39430888,0.0,0.0,0.25,0.5,0.0,-8.287802696228027,-8.332209587097168,0.0,0.0,0.0,0,-63
1678489642.51938319,39530848,0.0,0.0,0.25,0.5,0.0,-8.352445602416992,-8.187708854675293,0.0,0.0,0.0,0,-63
1678489642.61934328,39630808,0.0,0.0,0.25,0.5,0.0,-8.41272258758545,-8.25830364227295,0.0,0.0,0.0,0,-63
1678489642.71930313,39730768,0.0,0.0,0.25,0.5,0.0,-8.467334747314453,-8.362006187438965,0.0,0.0,0.0,0,-63
1678489642.81926322,39830728,0.0,0.0,0.25,0.5,0.0,-8.52011775970459,-8.581475257873535,0.0,0.0,0.0,0,-62
1678489642.91922307,39930688,0.0,0.0,0.25,0.5,0.0,-8.57974624633789,-8.4522066116333,0.0,0.0,0.0,0,-62
1678489643.02001619,40031481,0.0,0.0,0.25,0.5,0.0,-8.638246536254883,-8.492826461791992,0.0,0.0,0.0,0,-61
1678489643.11997628,40131441,0.0,0.0,0.25,0.5,0.0,-8.6914701461792,-8.677850723266602,0.0,0.0,0.0,0,-61
1678489643.21993613,40231401,0.0,0.0,0.25,0.5,0.0,-8.746954917907715,-8.521793365478516,0.0,0.0,0.0,0,-60
1678489643.31989622,40331361,0.0,0.0,0.25,0.5,0.0,-8.795928001403809,-8.840215682983398,0.0,0.0,0.0,0,-59
1678489643.41985607,40431321,0.0,0.0,0.25,0.5,0.0,-8.849535942077637,-8.915125846862793,0.0,0.0,0.0,0,-59
1678489643.51981616,40531281,0.0,0.0,0.25,0.5,0.0,-8.910983085632324,-8.881836891174316,0.0,0.0,0.0,0,-59
1678489643.61977625,40631241,0.0,0.0,0.25,0.5,0.0,-8.973862648010254,-9.044679641723633,0.0,0.0,0.0,0,-60
1678489643.71973610,40731201,0.0,0.0,0.25,0.5,0.0,-9.041050910949707,-9.127584457397461,0.0,0.0,0.0,0,-60
1678489643.81969619,40831161,0.0,0.0,0.25,0.5,0.0,-9.113496780395508,-8.87209701538086,0.0,0.0,0.0,0,-61
1678489643.91965628,40931121,0.0,0.0,0.25,0.5,0.0,-9.174407958984375,-9.129457473754883,0.0,0.0,0.0,0,-61
1678489644.01961613,41031081,0.0,0.0,0.25,0.5,0.0,-9.232540130615234,-9.019213676452637,0.0,0.0,0.0,0,-61
1678489644.11957622,41131041,0.0,0.0,0.25,0.5,0.0,-9.283270835876465,-9.237739562988281,0.0,0.0,0.0,0,-60
1678489644.21953607,41231001,0.0,0.0,0.25,0.5,0.0,-9.334020614624023,-9.27056884765625,0.0,0.0,0.0,0,-59
1678489644.31949615,41330961,0.0,0.0,0.25,0.5,0.0,-9.386617660522461,-9.493274688720703,0.0,0.0,0.0,0,-58
1678489644.41945624,41430921,0.0,0.0,0.25,0.5,0.0,-9.447117805480957,-9.403397560119629,0.0,0.0,0.0,0,-59
1678489644.51941609,41530881,0.0,0.0,0.25,0.5,0.0,-9.508842468261719,-9.364569664001465,0.0,0.0,0.0,0,-59
1678489644.61937618,41630841,0.0,0.0,0.25,0.5,0.0,-9.5651216506958,-9.714622497558594,0.0,0.0,0.0,0,-58
1678489644.71933627,41730801,0.0,0.0,0.25,0.5,0.0,-9.626853942871094,-9.558147430419922,0.0,0.0,0.0,0,-59
1678489644.81929612,41830761,0.0,0.0,0.25,0.5,0.0,-9.690145492553711,-9.85515022277832,0.0,0.0,0.0,0,-59
1678489644.91925621,41930721,0.0,0.0,0.25,0.5,0.0,-9.759051322937012,-9.581552505493164,0.0,0.0,0.0,0,-60
1678489645.01921606,42030681,0.0,0.0,0.25,0.5,0.0,-9.8236722946167,-10.025219917297363,0.0,0.0,0.0,0,-60
1678489645.12000918,42131474,0.0,0.0,0.25,0.5,0.0,-9.89334774017334,-10.025470733642578,0.0,0.0,0.0,0,-61
1678489645.21996927,42231434,0.0,0.0,0.25,0.5,0.0,-9.971246719360352,-10.115884780883789,0.0,0.0,0.0,0,-62
1678489645.31992912,42331394,0.0,0.0,0.25,0.5,0.0,-10.054666519165039,-9.928300857543945,0.0,0.0,0.0,0,-64
1678489645.41988921,42431354,0.0,0.0,0.25,0.5,0.0,-10.132307052612305,-10.036846160888672,0.0,0.0,0.0,0,-65
1678489645.51984906,42531314,0.0,0.0,0.25,0.5,0.0,-10.201675415039062,-10.261337280273438,0.0,0.0,0.0,0,-65
1678489645.61980915,42631274,0.0,0.0,0.5,0.5,0.0,-10.265583038330078,-10.24700927734375,0.0,0.0,0.0,0,-50
1678489645.71976924,42731234,0.0,0.0,0.5,0.5,0.0,-10.31601333618164,-10.157158851623535,0.0,0.0,0.0,0,-40
1678489645.81972909,42831194,0.0,0.0,0.5,0.5,0.0,-10.351228713989258,-10.18140983581543,0.0,0.0,0.0,0,-33
1678489645.91968918,42931154,0.0,0.0,0.5,0.5,0.0,-10.37247085571289,-10.174304962158203,0.0,0.0,0.0,0,-27
1678489646.01964927,43031114,0.0,0.0,0.5,0.5,0.0,-10.382007598876953,-10.33283519744873,0.0,0.0,0.0,0,-22
1678489646.11960912,43131074,0.0,0.0,0.5,0.5,0.0,-10.388224601745605,-10.140777587890625,0.0,0.0,0.0,0,-18
1678489646.21956921,43231034,0.0,0.0,0.5,0.5,0.0,-10.386764526367188,-10.269343376159668,0.0,0.0,0.0,0,-15
1678489646.31952906,43330994,0.0,0.0,0.5,0.5,0.0,-10.380037307739258,-10.388413429260254,0.0,0.0,0.0,0,-11
1678489646.41948915,43430954,0.0,0.0,0.5,0.5,0.0,-10.37513256072998,-10.339029312133789,0.0,0.0,0.0,0,-9
1678489646.51944923,43530914,0.0,0.0,0.5,0.5,0.0,-10.374112129211426,-10.341020584106445,0.0,0.0,0.0,0,-7
1678489646.61940908,43630874,0.0,0.0,0.5,0.5,0.0,-10.373178482055664,-10.280628204345703,0.0,0.0,0.0,0,-5
1678489646.71936917,43730834,0.0,0.0,0.5,0.5,0.0,-10.369132995605469,-10.340532302856445,0.0,0.0,0.0,0,-4
1678489646.81932926,43830794,0.0,0.0,0.5,0.5,0.0,-10.364412307739258,-10.51908016204834,0.0,0.0,0.0,0,-2
1678489646.91928911,43930754,0.0,0.0,0.5,0.5,0.0,-10.367902755737305,-10.318644523620605,0.0,0.0,0.0,0,-1
1678489647.01924920,44030714,0.0,0.0,0.5,0.5,0.0,-10.370158195495605,-10.620661735534668,0.0,0.0,0.0,0,-1
1678489647.12004209,44131507,0.0,0.0,0.5,0.5,0.0,-10.382060050964355,-10.560978889465332,0.0,0.0,0.0,0,-1
1678489647.22000217,44231467,0.0,0.0,0.5,0.5,0.0,-10.401532173156738,-10.574687957763672,0.0,0.0,0.0,0,-1
1678489647.31996226,44331427,0.0,0.0,0.5,0.5,0.0,-10.425227165222168,-10.549907684326172,0.0,0.0,0.0,0,-2
1678489647.41992211,44431387,0.0,0.0,0.5,0.5,0.0,-10.449831008911133,-10.513182640075684,0.0,0.0,0.0,0,-3
1678489647.51988220,44531347,0.0,0.0,0.5,0.5,0.0,-10.471866607666016,-10.41695499420166,0.0,0.0,0.0,0,-4
1678489647.61984205,44631307,0.0,0.0,0.5,0.5,0.0,-10.486167907714844,-10.468780517578125,0.0,0.0,0.0,0,-4
1678489647.71980214,44731267,0.0,0.0,0.5,0.5,0.0,-10.49518871307373,-10.222023010253906,0.0,0.0,0.0,0,-4
1678489647.81976223,44831227,0.0,0.0,0.5,0.5,0.0,-10.489511489868164,-10.37416934967041,0.0,0.0,0.0,0,-2
1678489647.91972208,44931187,0.0,0.0,0.5,0.5,0.0,-10.47685432434082,-10.399486541748047,0.0,0.0,0.0,0,0
1678489648.01968217,45031147,0.0,0.0,0.5,0.5,0.0,-10.462730407714844,-10.433587074279785,0.0,0.0,0.0,0,1
1678489648.11964226,45131107,0.0,0.0,0.5,0.5,0.0,-10.449874877929688,-10.603043556213379,0.0,0.0,0.0,0,2
1678489648.21960211,45231067,0.0,0.0,0.5,0.5,0.0,-10.446294784545898,-10.36971664428711,0.0,0.0,0.0,0,2
1678489648.31956220,45331027,0.0,0.0,0.5,0.5,0.0,-10.441197395324707,-10.429338455200195,0.0,0.0,0.0,0,3
1678489648.41952205,45430987,0.0,0.0,0.5,0.5,0.0,-10.434572219848633,-10.211663246154785,0.0,0.0,0.0,0,4
1678489648.51948214,45530947,0.0,0.0,0.5,0.5,0.0,-10.418014526367188,-10.407942771911621,0.0,0.0,0.0,0,5
1678489648.61944222,45630907,0.0,0.0,0.5,0.5,0.0,-10.400762557983398,-10.507343292236328,0.0,0.0,0.0,0,7
1678489648.71940207,45730867,0.0,0.0,0.5,0.5,0.0,-10.390656471252441,-10.563164710998535,0.0,0.0,0.0,0,7
1678489648.81936216,45830827,0.0,0.0,0.5,0.5,0.0,-10.38985824584961,-10.197258949279785,0.0,0.0,0.0,0,7
1678489648.91932225,45930787,0.0,0.0,0.5,0.5,0.0,-10.380220413208008,-10.396963119506836,0.0,0.0,0.0,0,8
1678489649.01928210,46030747,0.0,0.0,0.5,0.5,0.0,-10.36856746673584,-10.396245002746582,0.0,0.0,0.0,0,8
1678489649.11924219,46130707,0.0,0.0,0.5,0.5,0.0,-10.358587265014648,-10.234872817993164,0.0,0.0,0.0,0,9
1678489649.22003508,46231500,0.0,0.0,0.5,0.5,0.0,-10.342971801757812,-10.227544784545898,0.0,0.0,0.0,0,10
1678489649.31999516,46331460,0.0,0.0,0.5,0.5,0.0,-10.321669578552246,-10.509641647338867,0.0,0.0,0.0,0,11
1678489649.41995525,46431420,0.0,0.0,0.5,0.5,0.0,-10.308293342590332,-10.501761436462402,0.0,0.0,0.0,0,11
1678489649.51991510,46531380,0.0,0.0,0.5,0.5,0.0,-10.306118965148926,-10.232351303100586,0.0,0.0,0.0,0,11
1678489649.61987519,46631340,0.0,0.0,0.5,0.5,0.0,-10.301793098449707,-10.254622459411621,0.0,0.0,0.0,0,10
1678489649.71983528,46731300,0.0,0.0,0.5,0.5,0.0,-10.291509628295898,-10.361883163452148,0.0,0.0,0.0,0,11
1678489649.81979513,46831260,0.0,0.0,0.5,0.5,0.0,-10.281967163085938,-10.150689125061035,0.0,0.0,0.0,0,11
1678489649.91975522,46931220,0.0,0.0,0.5,0.5,0.0,-10.2677583694458,-10.47177791595459,0.0,0.0,0.0,0,11
1678489650.01971507,47031180,0.0,0.0,0.5,0.5,0.0,-10.258694648742676,-10.39645767211914,0.0,0.0,0.0,0,11
1678489650.11967516,47131140,0.0,0.0,0.5,0.5,0.0,-10.257704734802246,-10.337662696838379,0.0,0.0,0.0,0,10
1678489650.21963525,47231100,0.0,0.0,0.5,0.5,0.0,-10.258804321289062,-10.165929794311523,0.0,0.0,0.0,0,10
1678489650.31959510,47331060,0.0,0.0,0.5,0.5,0.0,-10.253942489624023,-10.471652030944824,0.0,0.0,0.0,0,10
1678489650.41955519,47431020,0.0,0.0,0.5,0.5,0.0,-10.253149032592773,-10.473368644714355,0.0,0.0,0.0,0,9
1678489650.51951528,47530980,0.0,0.0,0.5,0.5,0.0,-10.261807441711426,-10.339710235595703,0.0,0.0,0.0,0,8
1678489650.61947513,47630940,0.0,0.0,0.5,0.5,0.0,-10.27207088470459,-10.194685935974121,0.0,0.0,0.0,0,6
1678489650.71943521,47730900,0.0,0.0,0.5,0.5,0.0,-10.275190353393555,-10.410125732421875,0.0,0.0,0.0,0,6
1678489650.81939507,47830860,0.0,0.0,0.5,0.5,0.0,-10.278347969055176,-10.096388816833496,0.0,9.620000000000001,0.0,0,5
1678489650.91935515,47930820,0.0,0.0,0.5,0.5,0.0,-10.274200439453125,-10.258334159851074,0.0,9.620000000000001,0.0,0,5
1678489651.01931524,48030780,0.0,0.0,0.5,0.5,0.0,-10.264866828918457,-10.253813743591309,0.0,9.6,0.0,0,6
1678489651.11927509,48130740,0.0,0.0,0.5,0.5,0.0,-10.255468368530273,-10.315165519714355,0.0,9.6,0.0,0,6
1678489651.21923518,48230700,0.0,0.0,0.5,0.5,0.0,-10.248801231384277,-10.37675666809082,0.0,9.620000000000001,0.0,0,6
1678489651.32002807,48331493,0.0,0.0,0.5,0.5,0.0,-10.248025894165039,-9.999008178710938,0.0,9.620000000000001,0.0,0,6
1678489651.41998816,48431453,0.0,0.0,0.5,0.5,0.0,-10.238785743713379,-10.223893165588379,0.0,9.620000000000001,0.0,0,6
1678489651.51994824,48531413,0.0,0.0,0.5,0.5,0.0,-10.224651336669922,-10.31216049194336,0.0,9.63,0.0,0,6
1678489651.61990809,48631373,0.0,0.0,0.5,0.5,0.0,-10.215627670288086,-10.084545135498047,0.0,9.63,0.0,0,7
1678489651.71986818,48731333,0.0,0.0,0.5,0.5,0.0,-10.203986167907715,-9.970564842224121,0.0,9.66,0.0,0,7
1678489651.81982827,48831293,0.0,0.0,0.5,0.5,0.0,-10.182090759277344,-9.999095916748047,0.0,9.66,0.0,0,8
1678489651.91978812,48931253,0.0,0.0,0.5,0.5,0.0,-10.152565956115723,-10.283027648925781,0.0,9.66,0.0,0,10
1678489652.01974821,49031213,0.0,0.0,0.5,0.5,0.0,-10.130149841308594,-9.985610961914062,0.0,9.700000000000001,0.0,0,10
1678489652.11970806,49131173,0.0,0.0,0.5,0.5,0.0,-10.108482360839844,-9.944534301757812,0.0,9.700000000000001,0.0,0,11
1678489652.21966815,49231133,0.0,0.0,0.5,0.5,0.0,-10.08078384399414,-10.256444931030273,0.0,9.77,0.0,0,12
1678489652.31962824,49331093,0.0,0.0,0.5,0.5,0.0,-10.060745239257812,-9.894247055053711,0.0,9.77,0.0,0,13
1678489652.41958809,49431053,0.0,0.0,0.5,0.5,0.0,-10.039901733398438,-10.102643966674805,0.0,9.83,0.0,0,13
1678489652.51954818,49531013,0.0,0.0,0.5,0.5,0.0,-10.019928932189941,-9.994183540344238,0.0,9.83,0.0,0,14
1678489652.61950827,49630973,0.0,0.0,0.5,0.5,0.0,-10.001060485839844,-10.210441589355469,0.0,9.83,0.0,0,14
1678489652.71946812,49730933,0.0,0.0,0.5,0.5,0.0,-9.992377281188965,-10.170636177062988,0.0,9.870000000000001,0.0,0,13
1678489652.81942821,49830893,0.0,0.0,0.5,0.5,0.0,-9.992218971252441,-10.029332160949707,0.0,9.870000000000001,0.0,0,12
1678489652.91938806,49930853,0.0,0.0,0.5,0.5,0.0,-9.991649627685547,-9.866509437561035,0.0,9.89,0.0,0,11
1678489653.01934814,50030813,0.0,0.0,0.5,0.5,0.0,-9.981916427612305,-9.857962608337402,0.0,9.89,0.0,0,11
1678489653.11930823,50130773,0.0,0.0,0.5,0.5,0.0,-9.963641166687012,-10.007143020629883,0.0,9.91,0.0,0,12
1678489653.21926808,50230733,0.0,0.0,0.5,0.5,0.0,-9.946650505065918,-10.039411544799805,0.0,9.91,0.0,0,13
1678489653.31922817,50330693,0.0,0.0,0.5,0.5,0.0,-9.934946060180664,-10.1069974899292,0.0,9.91,0.0,0,12
1678489653.42002106,50431486,0.0,0.0,0.5,0.5,0.0,-9.931055068969727,-9.91044807434082,0.0,9.91,0.0,0,12
1678489653.51998115,50531446,0.0,0.0,0.5,0.5,0.0,-9.925529479980469,-9.912490844726562,0.0,9.950000000000001,0.0,0,11
1678489653.61994123,50631406,0.0,0.0,0.5,0.5,0.0,-9.916906356811523,-9.783997535705566,0.0,9.950000000000001,0.0,0,11
1678489653.71990108,50731366,0.0,0.0,0.5,0.5,0.0,-9.901505470275879,-9.96837329864502,0.0,9.96,0.0,0,12
1678489653.81986117,50831326,0.0,0.0,0.5,0.5,0.0,-9.886395454406738,-10.15061092376709,0.0,9.96,0.0,0,12
1678489653.91982126,50931286,0.0,0.0,0.5,0.5,0.0,-9.882993698120117,-9.812361717224121,0.0,9.950000000000001,0.0,0,11
1678489654.01978111,51031246,0.0,0.0,0.5,0.5,0.0,-9.87936019897461,-9.79146957397461,0.0,10.0,0.0,0,11
1678489654.11974120,51131206,0.0,0.0,0.5,0.5,0.0,-9.868217468261719,-10.079448699951172,0.0,10.0,0.0,0,11
1678489654.21970105,51231166,0.0,0.0,0.5,0.5,0.0,-9.86270809173584,-9.719889640808105,0.0,10.01,0.0,0,10
1678489654.31966114,51331126,0.0,0.0,0.5,0.5,0.0,-9.854166030883789,-9.788070678710938,0.0,10.01,0.0,0,10
1678489654.41962123,51431086,0.37147411704063416,0.0,0.4808086156845093,0.5,-9.83965015411377,-9.83908462524414,-9.719062805175781,9.950000000000001,10.01,0.0,10,11
1678489654.51958108,51531046,0.34038716554641724,0.0,0.36004912853240967,0.5,-9.830373764038086,-9.820034980773926,-9.706055641174316,9.950000000000001,10.040000000000001,0.0,4,8
1678489654.61954117,51631006,0.3563922643661499,0.0,0.35432565212249756,0.5,-9.824950218200684,-9.802728652954102,-9.68235969543457,9.950000000000001,10.040000000000001,0.0,-2,1
1678489654.71950126,51730966,0.35281309485435486,0.0,0.35359010100364685,0.5,-9.822847366333008,-9.789758682250977,-9.821712493896484,9.950000000000001,10.08,0.0,-9,-4
1678489654.81946111,51830926,0.36773329973220825,0.0,0.35376831889152527,0.5,-9.823795318603516,-9.787192344665527,-9.977699279785156,9.950000000000001,10.08,0.0,-13,-10
1678489654.91942120,51930886,0.410414457321167,0.0,0.37440502643585205,0.5,-9.827625274658203,-9.801820755004883,-9.93370246887207,9.950000000000001,10.08,0.0,-12,-15
1678489655.01938128,52030846,0.4627189040184021,0.0,0.41849881410598755,0.5,-9.834139823913574,-9.82822322845459,-9.799471855163574,9.950000000000001,10.09,0.0,-9,-17
1678489655.11934114,52130806,0.4952583611011505,0.0,0.46421152353286743,0.5,-9.84312629699707,-9.853147506713867,-9.907301902770996,9.950000000000001,10.09,0.0,-7,-15
1678489655.21930122,52230766,0.5021286606788635,0.0,0.4855944514274597,0.5,-9.854341506958008,-9.87503719329834,-9.89379596710205,9.950000000000001,10.040000000000001,0.0,-5,-13
1678489655.31926107,52330726,0.5137767195701599,0.0,0.5030588507652283,0.5,-9.8672456741333,-9.894519805908203,-9.803153991699219,9.950000000000001,10.040000000000001,0.0,-5,-11
1678489655.41922116,52430686,0.4882383942604065,0.0,0.5045074820518494,0.5,-9.881311416625977,-9.907236099243164,-10.085204124450684,9.950000000000001,9.99,0.0,-6,-10
1678489655.52001405,52531479,0.4618672728538513,0.0,0.4784746766090393,0.5,-9.896158218383789,-9.922884941101074,-9.959145545959473,9.950000000000001,9.99,0.0,-6,-9
1678489655.61997414,52631439,0.48281916975975037,0.0,0.4763669967651367,0.5,-9.910928726196289,-9.940433502197266,-10.055014610290527,9.950000000000001,9.99,0.0,-5,-8
1678489655.71993423,52731399,0.5175247192382812,0.0,0.49407052993774414,0.5,-9.92536449432373,-9.959331512451172,-10.143506050109863,9.950000000000001,9.950000000000001,0.0,-4,-8
1678489655.81989408,52831359,0.6067354679107666,0.0,0.5477207899093628,0.5,-9.939146995544434,-9.983316421508789,-10.24245548248291,9.950000000000001,9.950000000000001,0.0,0,-8
1678489655.91985416,52931319,0.6625605821609497,0.0,0.6166914105415344,0.5,-9.951894760131836,-10.013998985290527,-9.876672744750977,9.950000000000001,9.89,0.0,6,-6
1678489656.01981425,53031279,0.6168059706687927,0.0,0.6429617404937744,0.5,-9.963244438171387,-10.031907081604004,-10.184765815734863,9.950000000000001,9.89,0.0,10,0
1678489656.11977410,53131239,0.5937289595603943,0.0,0.612800121307373,0.5,-9.972698211669922,-10.040109634399414,-10.14204216003418,9.950000000000001,9.89,0.0,11,6
1678489656.21973419,53231199,0.5983508825302124,0.0,0.6032248139381409,0.5,-9.980022430419922,-10.046125411987305,-9.8489351272583,9.950000000000001,9.84,0.0,13,9
1678489656.31969428,53331159,0.5702819228172302,0.0,0.5995291471481323,0.5,-9.985045433044434,-10.038640022277832,-9.968681335449219,9.950000000000001,9.84,0.0,12,12
1678489656.41965413,53431119,0.5156261324882507,0.0,0.5591874122619629,0.5,-9.987479209899902,-10.020853042602539,-10.1917142868042,9.950000000000001,9.84,0.0,8,14
1678489656.51961422,53531079,0.5077102184295654,0.0,0.5205644965171814,0.5,-9.987247467041016,-10.008983612060547,-9.954848289489746,9.950000000000001,9.84,0.0,8,12
1678489656.61957407,53631039,0.5428062677383423,0.0,0.5293133854866028,0.5,-9.984430313110352,-9.999187469482422,-9.863775253295898,9.950000000000001,9.88,0.0,8,11
1678489656.71953416,53730999,0.5289837121963501,0.0,0.5374913811683655,0.5,-9.97928524017334,-9.983394622802734,-9.974252700805664,9.950000000000001,9.88,0.0,7,10
1678489656.81949425,53830959,0.4969624876976013,0.0,0.5176088213920593,0.5,-9.972153663635254,-9.966336250305176,-9.938427925109863,9.950000000000001,9.88,0.0,6,10
1678489656.91945410,53930919,0.47182902693748474,0.0,0.4925287365913391,0.5,-9.963489532470703,-9.950757026672363,-9.719910621643066,9.950000000000001,9.92,0.0,5,10
1678489657.01941419,54030879,0.4067997336387634,0.0,0.4540329873561859,0.5,-9.953743934631348,-9.92832088470459,-9.78014850616455,9.950000000000001,9.92,0.0,2,10
1678489657.11937428,54130839,0.35133475065231323,0.0,0.3928124010562897,0.5,-9.943485260009766,-9.90087604522705,-9.87879467010498,9.950000000000001,9.92,0.0,-2,8
1678489657.21933413,54230799,0.3739168643951416,0.0,0.3689013123512268,0.5,-9.933087348937988,-9.87934684753418,-9.906525611877441,9.950000000000001,9.91,0.0,-5,3
1678489657.31929421,54330759,0.4139370322227478,0.0,0.38656577467918396,0.5,-9.922739028930664,-9.869016647338867,-9.801867485046387,9.950000000000001,9.97,0.0,-5,-1
1678489657.41925406,54430719,0.4413996934890747,0.0,0.41734665632247925,0.5,-9.91287612915039,-9.864131927490234,-9.835268020629883,9.950000000000001,9.97,0.0,-5,-3
1678489657.52004719,54531512,0.44951584935188293,0.0,0.43607693910598755,0.5,-9.90384578704834,-9.860858917236328,-9.847620010375977,9.950000000000001,10.01,0.0,-4,-4
1678489657.62000728,54631472,0.4544273018836975,0.0,0.4446791410446167,0.5,-9.89622974395752,-9.860770225524902,-9.744038581848145,9.950000000000001,10.01,0.0,-3,-4
1678489657.71996713,54731432,0.4379952847957611,0.0,0.4452421963214874,0.5,-9.890257835388184,-9.857625961303711,-10.015140533447266,9.950000000000001,10.02,0.0,-4,-4
1678489657.81992722,54831392,0.4483130872249603,0.0,0.43547043204307556,0.5,-9.886083602905273,-9.862869262695312,-9.943879127502441,9.950000000000001,10.02,0.0,-3,-5
1678489657.91988707,54931352,0.4968360662460327,0.0,0.4619235694408417,0.5,-9.883746147155762,-9.87456226348877,-10.052144050598145,9.950000000000001,10.02,0.0,-1,-6
1678489658.01984715,55031312,0.5747241377830505,0.0,0.5108131170272827,0.5,-9.88318157196045,-9.893381118774414,-10.022621154785156,9.950000000000001,10.02,0.0,2,-6
1678489658.11980724,55131272,0.6495945453643799,0.0,0.593299150466919,0.5,-9.884269714355469,-9.915658950805664,-10.116437911987305,9.950000000000001,10.02,0.0,7,-5
1678489658.21976709,55231232,0.6459612846374512,0.0,0.6301236152648926,0.5,-9.886833190917969,-9.93995189666748,-10.003324508666992,9.950000000000001,9.97,0.0,12,-1
1678489658.31972718,55331192,0.6242303848266602,0.0,0.6333084106445312,0.5,-9.890406608581543,-9.956659317016602,-9.993952751159668,9.950000000000001,9.97,0.0,15,4
1678489658.41968727,55431152,0.6026574969291687,0.0,0.6190751194953918,0.5,-9.89450740814209,-9.96329116821289,-9.840226173400879,9.950000000000001,9.97,0.0,16,9
1678489658.51964712,55531112,0.5523401498794556,0.0,0.589938759803772,0.5,-9.898653984069824,-9.9558687210083,-10.031266212463379,9.950000000000001,9.92,0.0,13,12
1678489658.61960721,55631072,0.51378333568573,0.0,0.5462576746940613,0.5,-9.902433395385742,-9.946609497070312,-9.789848327636719,9.950000000000001,9.92,0.0,9,12
1678489658.71956706,55731032,0.4588606357574463,0.0,0.507638156414032,0.5,-9.905508041381836,-9.93049144744873,-9.919062614440918,9.950000000000001,9.93,0.0,4,11
1678489658.81952715,55830992,0.36939316987991333,0.0,0.4307136833667755,0.5,-9.907779693603516,-9.91385555267334,-9.893494606018066,9.950000000000001,9.93,0.0,0,10
1678489658.91948724,55930952,0.37783369421958923,0.0,0.3891312777996063,0.5,-9.909255981445312,-9.90019702911377,-9.790510177612305,9.950000000000001,9.93,0.0,-3,6
1678489659.01944709,56030912,0.38430869579315186,0.0,0.38659149408340454,0.5,-9.909978866577148,-9.887582778930664,-9.821248054504395,9.950000000000001,9.97,0.0,-7,2
1678489659.11940718,56130872,0.3886892795562744,0.0,0.38516929745674133,0.5,-9.91012954711914,-9.878063201904297,-9.846181869506836,9.950000000000001,9.97,0.0,-9,-1
1678489659.21936727,56230832,0.40735310316085815,0.0,0.3944643437862396,0.5,-9.910070419311523,-9.87346076965332,-9.631109237670898,9.950000000000001,10.0,0.0,-10,-5
1678489659.31932712,56330792,0.39190196990966797,0.0,0.4009021818637848,0.5,-9.910120010375977,-9.865663528442383,-9.65790843963623,9.950000000000001,10.0,0.0,-13,-7
1678489659.41928720,56430752,0.35634535551071167,0.0,0.37869811058044434,0.5,-9.910638809204102,-9.853171348571777,-9.711576461791992,9.950000000000001,10.02,0.0,-18,-9
1678489659.51924706,56530712,0.34641358256340027,0.0,0.3555356562137604,0.5,-9.911883354187012,-9.842597007751465,-9.792548179626465,9.950000000000001,10.02,0.0,-22,-13
1678489659.62004018,56631505,0.35860055685043335,0.0,0.3512113392353058,0.5,-9.914103507995605,-9.840649604797363,-9.91112995147705,9.950000000000001,10.02,0.0,-24,-18
1678489659.72000027,56731465,0.38999056816101074,0.0,0.36526063084602356,0.5,-9.917365074157715,-9.85159969329834,-9.680292129516602,9.950000000000001,10.040000000000001,0.0,-23,-21
1678489659.81996012,56831425,0.39489197731018066,0.0,0.3877025246620178,0.5,-9.921741485595703,-9.86385726928711,-9.806889533996582,9.950000000000001,10.040000000000001,0.0,-22,-22
1678489659.91992021,56931385,0.38317227363586426,0.0,0.3856218457221985,0.5,-9.927337646484375,-9.874711990356445,-10.079225540161133,9.950000000000001,10.01,0.0,-22,-21
1678489660.01988006,57031345,0.42237186431884766,0.0,0.39381471276283264,0.5,-9.934078216552734,-9.896204948425293,-10.06018352508545,9.950000000000001,10.01,0.0,-18,-21
1678489660.11984015,57131305,0.4968905448913574,0.0,0.44235721230506897,0.5,-9.941690444946289,-9.927985191345215,-9.831181526184082,9.950000000000001,9.96,0.0,-12,-20
1678489660.21980023,57231265,0.5826247334480286,0.0,0.51984041929245,0.5,-9.949843406677246,-9.954134941101074,-9.966485977172852,9.950000000000001,9.96,0.0,-7,-17
1678489660.31976008,57331225,0.5979709625244141,0.0,0.5780472159385681,0.5,-9.958178520202637,-9.973475456237793,-10.204276084899902,9.950000000000001,9.96,0.0,-3,-13
1678489660.41972017,57431185,0.6115655303001404,0.0,0.5931797623634338,0.5,-9.966307640075684,-9.996258735656738,-10.139915466308594,9.950000000000001,9.950000000000001,0.0,1,-9
1678489660.51968026,57531145,0.641991138458252,0.0,0.6225088238716125,0.5,-9.97393798828125,-10.020757675170898,-10.084770202636719,9.950000000000001,9.91,0.0,6,-5
1678489660.61964011,57631105,0.6241674423217773,0.0,0.6337003111839294,0.5,-9.980636596679688,-10.038818359375,-9.960123062133789,9.950000000000001,9.91,0.0,11,0
1678489660.71960020,57731065,0.5895348191261292,0.0,0.6177478432655334,0.5,-9.986037254333496,-10.042919158935547,-10.157611846923828,9.950000000000001,9.84,0.0,12,7
1678489660.81956005,57831025,0.5714712142944336,0.0,0.5900936722755432,0.5,-9.989592552185059,-10.041153907775879,-10.107948303222656,9.950000000000001,9.84,0.0,13,10
1678489660.91952014,57930985,0.5806533098220825,0.0,0.5836271643638611,0.5,-9.990854263305664,-10.038300514221191,-10.123955726623535,9.950000000000001,9.83,0.0,14,12
1678489661.01948023,58030945,0.5953371524810791,0.0,0.5901652574539185,0.5,-9.989651679992676,-10.034539222717285,-10.003490447998047,9.950000000000001,9.84,0.0,15,13
1678489661.11944008,58130905,0.5922742486000061,0.0,0.5975302457809448,0.5,-9.986001014709473,-10.025957107543945,-9.923604965209961,9.950000000000001,9.84,0.0,16,15
1678489661.21940017,58230865,0.5629997849464417,0.0,0.5862388610839844,0.5,-9.980047225952148,-10.008586883544922,-10.076333045959473,9.950000000000001,9.83,0.0,15,17
1678489661.31936026,58330825,0.5517564415931702,0.0,0.5639416575431824,0.5,-9.971904754638672,-9.990437507629395,-10.020760536193848,9.950000000000001,9.8,0.0,14,17
1678489661.41932011,58430785,0.5753733515739441,0.0,0.5672337412834167,0.5,-9.961526870727539,-9.97472858428955,-9.831790924072266,9.950000000000001,9.8,0.0,15,16
1678489661.51928020,58530745,0.5694811940193176,0.0,0.5774517059326172,0.5,-9.948802947998047,-9.953584671020508,-9.939310073852539,9.950000000000001,9.790000000000001,0.0,15,17
1678489661.61924028,58630705,0.5537699460983276,0.0,0.5659380555152893,0.5,-9.933797836303711,-9.92957592010498,-9.789652824401855,9.950000000000001,9.77,0.0,14,17
1678489661.72003317,58731498,0.5365094542503357,0.0,0.5557262897491455,0.5,-9.916387557983398,-9.90164566040039,-9.738656044006348,9.950000000000001,9.790000000000001,0.0,13,18
1678489661.81999326,58831458,0.49477338790893555,0.0,0.5291993021965027,0.5,-9.897024154663086,-9.86625862121582,-10.016740798950195,9.950000000000001,9.76,0.0,11,18
1678489661.91995311,58931418,0.479172021150589,0.0,0.49521198868751526,0.5,-9.875694274902344,-9.842154502868652,-9.787093162536621,9.950000000000001,9.76,0.0,12,17
1678489662.01991320,59031378,0.5313801765441895,0.0,0.5076833367347717,0.5,-9.852682113647461,-9.820444107055664,-9.75861644744873,9.950000000000001,9.8,0.0,14,16
1678489662.11987305,59131338,0.5683315992355347,0.0,0.5443432927131653,0.5,-9.82822322845459,-9.797468185424805,-9.871345520019531,9.950000000000001,9.77,0.0,15,15
1678489662.21983314,59231298,0.5984460711479187,0.0,0.5735095739364624,0.5,-9.802475929260254,-9.778650283813477,-9.68480110168457,9.950000000000001,9.8,0.0,19,16
1678489662.31979322,59331258,0.5989938974380493,0.0,0.5955989360809326,0.5,-9.775572776794434,-9.755903244018555,-9.645359992980957,9.950000000000001,9.8,0.0,21,18
1678489662.41975307,59431218,0.571223258972168,0.0,0.5882302522659302,0.5,-9.747811317443848,-9.726072311401367,-9.804207801818848,9.950000000000001,9.8,0.0,21,21
1678489662.51971316,59531178,0.5693520903587341,0.0,0.571750283241272,0.5,-9.719419479370117,-9.699127197265625,-9.529695510864258,9.950000000000001,9.790000000000001,0.0,22,22
1678489662.61967325,59631138,0.5607014298439026,0.0,0.5720447897911072,0.5,-9.690526008605957,-9.666593551635742,-9.641313552856445,9.950000000000001,9.75,0.0,21,23
1678489662.71963310,59731098,0.5413570404052734,0.0,0.5566213726997375,0.5,-9.661075592041016,-9.63277530670166,-9.76197338104248,9.950000000000001,9.8,0.0,21,23
1678489662.81959319,59831058,0.5608406066894531,0.0,0.5488499402999878,0.5,-9.631092071533203,-9.60708999633789,-9.71884536743164,9.950000000000001,9.77,0.0,22,22
1678489662.91955328,59931018,0.6253482103347778,0.0,0.5851522088050842,0.5,-9.60067367553711,-9.588520050048828,-9.507243156433105,9.950000000000001,9.83,0.0,27,22
1678489663.01951313,60030978,0.6180779933929443,0.0,0.6139826774597168,0.5,-9.569907188415527,-9.56482982635498,-9.511175155639648,9.950000000000001,9.8,0.0,29,24
1678489663.11947322,60130938,0.5942463874816895,0.0,0.6073708534240723,0.5,-9.53909683227539,-9.53411865234375,-9.67589282989502,9.950000000000001,9.790000000000001,0.0,29,27
1678489663.21943307,60230898,0.6047956943511963,0.0,0.5987828969955444,0.5,-9.508258819580078,-9.50760555267334,-9.715113639831543,9.950000000000001,9.81,0.0,30,28
1678489663.31939316,60330858,0.6475398540496826,0.0,0.6179548501968384,0.5,-9.477416038513184,-9.489622116088867,-9.494258880615234,9.950000000000001,9.790000000000001,0.0,34,28
1678489663.41935325,60430818,0.6550655961036682,0.0,0.6465073227882385,0.5,-9.446602821350098,-9.46839714050293,-9.700678825378418,9.950000000000001,9.81,0.0,37,31
1678489663.51931310,60530778,0.6752500534057617,0.0,0.6566339731216431,0.5,-9.415790557861328,-9.450089454650879,-9.56961441040039,9.950000000000001,9.790000000000001,0.0,41,33
1678489663.61927319,60630738,0.6896246671676636,0.0,0.6770141124725342,0.5,-9.385001182556152,-9.430814743041992,-9.321707725524902,9.950000000000001,9.83,0.0,44,36
1678489663.71923327,60730698,0.6633561849594116,0.0,0.6776267886161804,0.5,-9.354242324829102,-9.398056030273438,-9.20785903930664,9.950000000000001,9.790000000000001,0.0,43,40
1678489663.82002616,60831491,0.6133944392204285,0.0,0.6499106884002686,0.5,-9.323241233825684,-9.34939956665039,-9.197670936584473,9.950000000000001,9.76,0.0,38,41
1678489663.91998625,60931451,0.5574128031730652,0.0,0.6042153835296631,0.5,-9.292325019836426,-9.293488502502441,-9.150222778320312,9.950000000000001,9.84,0.0,31,39
1678489664.01994610,61031411,0.4719170331954956,0.0,0.5357527136802673,0.5,-9.261201858520508,-9.236336708068848,-9.430987358093262,9.950000000000001,9.81,0.0,23,36
1678489664.11990619,61131371,0.414548397064209,0.0,0.46022218465805054,0.5,-9.230215072631836,-9.195502281188965,-9.107531547546387,9.950000000000001,9.81,0.0,20,31
1678489664.21986628,61231331,0.44200775027275085,0.0,0.44235605001449585,0.5,-9.199429512023926,-9.159220695495605,-9.138134956359863,9.950000000000001,9.81,0.0,18,27
1678489664.31982613,61331291,0.4391629099845886,0.0,0.4404410123825073,0.5,-9.168898582458496,-9.12602710723877,-9.008201599121094,9.950000000000001,9.89,0.0,17,24
1678489664.41978621,61431251,0.42093926668167114,0.0,0.4315648078918457,0.5,-9.139100074768066,-9.091935157775879,-9.37887954711914,9.950000000000001,9.89,0.0,15,22
1678489664.51974607,61531211,0.4551944136619568,0.0,0.42607858777046204,0.5,-9.110462188720703,-9.074163436889648,-9.08625602722168,9.950000000000001,9.93,0.0,17,18
1678489664.61970615,61631171,0.5178726315498352,0.0,0.47195902466773987,0.5,-9.083459854125977,-9.061619758605957,-9.204468727111816,9.950000000000001,9.91,0.0,19,16
1678489664.71966624,61731131,0.5952863693237305,0.0,0.5294122099876404,0.5,-9.05831527709961,-9.054105758666992,-9.136055946350098,9.950000000000001,9.93,0.0,22,15
1678489664.81962609,61831091,0.632724404335022,0.0,0.5946748852729797,0.5,-9.035114288330078,-9.04825210571289,-9.258377075195312,9.950000000000001,9.91,0.0,26,16
1678489664.91958618,61931051,0.6447870135307312,0.0,0.6222394108772278,0.5,-9.013738632202148,-9.04600715637207,-9.28079891204834,9.950000000000001,9.91,0.0,30,19
1678489665.01954627,62031011,0.6676042675971985,0.0,0.6446259617805481,0.5,-8.993874549865723,-9.046648979187012,-8.952747344970703,9.950000000000001,9.88,0.0,35,22
1678489665.11950612,62130971,0.6406799554824829,0.0,0.6544152498245239,0.5,-8.975160598754883,-9.032995223999023,-9.090864181518555,9.950000000000001,9.85,0.0,35,28
1678489665.21946621,62230931,0.6214491724967957,0.0,0.636434018611908,0.5,-8.957088470458984,-9.011176109313965,-8.90019416809082,9.950000000000001,9.84,0.0,34,30
1678489665.31942606,62330891,0.5921438336372375,0.0,0.6181869506835938,0.5,-8.93917465209961,-8.980731010437012,-8.985241889953613,9.950000000000001,9.81,0.0,30,31
1678489665.41938615,62430851,0.5642125606536865,0.0,0.5884590148925781,0.5,-8.920923233032227,-8.947086334228516,-8.902915000915527,9.950000000000001,9.81,0.0,26,30
1678489665.51934624,62530811,0.5391615033149719,0.0,0.5627976059913635,0.5,-8.901932716369629,-8.91361141204834,-8.868995666503906,9.950000000000001,9.84,0.0,22,28
1678489665.61930609,62630771,0.5144022703170776,0.0,0.5364832878112793,0.5,-8.882227897644043,-8.880594253540039,-9.090861320495605,9.950000000000001,9.81,0.0,19,26
1678489665.71926618,62730731,0.5274717807769775,0.0,0.5209774971008301,0.5,-8.861811637878418,-8.858281135559082,-8.973700523376465,9.950000000000001,9.870000000000001,0.0,19,22
1678489665.81922626,62830691,0.6022669076919556,0.0,0.5554460287094116,0.5,-8.840970993041992,-8.845605850219727,-8.89400863647461,9.950000000000001,9.84,0.0,22,20
1678489665.92001915,62931484,0.6400507688522339,0.0,0.6103191375732422,0.5,-8.819695472717285,-8.834247589111328,-8.730777740478516,9.950000000000001,9.870000000000001,0.0,25,20
1678489666.01997924,63031444,0.6079512238502502,0.0,0.6198943853378296,0.5,-8.798423767089844,-8.814695358276367,-8.714078903198242,9.950000000000001,9.84,0.0,26,23
1678489666.11993909,63131404,0.5690208673477173,0.0,0.5969195365905762,0.5,-8.777152061462402,-8.785529136657715,-8.622847557067871,9.950000000000001,9.81,0.0,23,25
1678489666.21989918,63231364,0.5164026618003845,0.0,0.559465229511261,0.5,-8.75574779510498,-8.748724937438965,-8.635701179504395,9.950000000000001,9.84,0.0,19,25
1678489666.31985927,63331324,0.43562835454940796,0.0,0.4983174502849579,0.5,-8.734100341796875,-8.708945274353027,-8.58986759185791,9.950000000000001,9.81,0.0,14,23
1678489666.41981912,63431284,0.35976797342300415,0.0,0.417019784450531,0.5,-8.712165832519531,-8.669000625610352,-8.816685676574707,9.950000000000001,9.88,0.0,9,22
1678489666.51977921,63531244,0.39551475644111633,0.0,0.38169899582862854,0.5,-8.689971923828125,-8.640918731689453,-8.573781967163086,9.950000000000001,9.85,0.0,7,16
1678489666.61973906,63631204,0.4378651976585388,0.0,0.41275450587272644,0.5,-8.667847633361816,-8.620866775512695,-8.767646789550781,9.950000000000001,9.83,0.0,7,12
1678489666.71969914,63731164,0.48963913321495056,0.0,0.4484432637691498,0.5,-8.64578914642334,-8.60919189453125,-8.547755241394043,9.950000000000001,9.870000000000001,0.0,11,10
1678489666.81965923,63831124,0.5504364967346191,0.0,0.5028916597366333,0.5,-8.623849868774414,-8.598791122436523,-8.661114692687988,9.950000000000001,9.85,0.0,14,10
1678489666.91961908,63931084,0.6016925573348999,0.0,0.5611379742622375,0.5,-8.602144241333008,-8.588640213012695,-8.673757553100586,9.950000000000001,9.85,0.0,17,11
1678489667.01957917,64031044,0.6165149211883545,0.0,0.5965900421142578,0.5,-8.580626487731934,-8.580521583557129,-8.776178359985352,9.950000000000001,9.83,0.0,21,13
1678489667.11953926,64131004,0.6419945955276489,0.0,0.6195685267448425,0.5,-8.559186935424805,-8.576003074645996,-8.783660888671875,9.950000000000001,9.8,0.0,26,17
1678489667.21949911,64230964,0.6715291142463684,0.0,0.6481809020042419,0.5,-8.537580490112305,-8.576335906982422,-8.791573524475098,9.950000000000001,9.8,0.0,33,21
1678489667.31945920,64330924,0.6945388317108154,0.0,0.675281286239624,0.5,-8.515573501586914,-8.574524879455566,-8.83768367767334,9.950000000000001,9.77,0.0,39,27
1678489667.41941905,64430884,0.7230793833732605,0.0,0.7014338970184326,0.5,-8.492856979370117,-8.571579933166504,-8.556674003601074,9.950000000000001,9.76,0.0,46,33
1678489667.51937914,64530844,0.7157740592956543,0.0,0.7183755040168762,0.5,-8.469071388244629,-8.55398178100586,-8.676865577697754,9.950000000000001,9.74,0.0,49,39
1678489667.61933923,64630804,0.7197573781013489,0.0,0.7198193073272705,0.5,-8.443921089172363,-8.527507781982422,-8.36627197265625,9.950000000000001,9.74,0.0,50,44
1678489667.71929908,64730764,0.6896406412124634,0.0,0.7127940058708191,0.5,-8.417182922363281,-8.485233306884766,-8.600229263305664,9.950000000000001,9.74,0.0,47,46
1678489667.81925917,64830724,0.6832159757614136,0.0,0.693863570690155,0.5,-8.388788223266602,-8.441977500915527,-8.373018264770508,9.950000000000001,9.74,0.0,45,46
1678489667.91921926,64930684,0.6711090207099915,0.0,0.6856750845909119,0.5,-8.358755111694336,-8.395916938781738,-8.168246269226074,9.950000000000001,9.74,0.0,42,44
1678489668.02001214,65031477,0.6250659227371216,0.0,0.6606153845787048,0.5,-8.326798439025879,-8.339335441589355,-8.381047248840332,9.950000000000001,9.77,0.0,36,43
1678489668.11997223,65131437,0.6042519807815552,0.0,0.6242215633392334,0.5,-8.293802261352539,-8.287665367126465,-8.303936958312988,9.950000000000001,9.75,0.0,31,39
1678489668.21993208,65231397,0.5998766422271729,0.0,0.6070798635482788,0.5,-8.259817123413086,-8.243876457214355,-8.412654876708984,9.950000000000001,9.85,0.0,29,35
1678489668.31989217,65331357,0.6287350058555603,0.0,0.6076667904853821,0.5,-8.225580215454102,-8.212717056274414,-8.096216201782227,9.950000000000001,9.83,0.0,30,31
1678489668.41985226,65431317,0.6316227912902832,0.0,0.6282204389572144,0.5,-8.191683769226074,-8.179718017578125,-7.957244873046875,9.950000000000001,9.83,0.0,30,30
1678489668.51981211,65531277,0.5775307416915894,0.0,0.6096703410148621,0.5,-8.158327102661133,-8.13591194152832,-7.94084358215332,9.950000000000001,9.870000000000001,0.0,26,30
1678489668.61977220,65631237,0.5037603974342346,0.0,0.5566397905349731,0.5,-8.125903129577637,-8.085372924804688,-8.245391845703125,9.950000000000001,9.84,0.0,19,29
1678489668.71973228,65731197,0.4387480914592743,0.0,0.48691272735595703,0.5,-8.09460163116455,-8.04807186126709,-8.027336120605469,9.950000000000001,9.93,0.0,16,25
1678489668.81969213,65831157,0.4317871630191803,0.0,0.4425217807292938,0.5,-8.064898490905762,-8.018036842346191,-7.883268356323242,9.950000000000001,9.91,0.0,14,22
1678489668.91965222,65931117,0.4198931157588959,0.0,0.4308101534843445,0.5,-8.037145614624023,-7.986984729766846,-7.976380825042725,9.950000000000001,9.91,0.0,11,19
1678489669.01961207,66031077,0.40280312299728394,0.0,0.4111688733100891,0.5,-8.0114164352417,-7.9595794677734375,-8.056289672851562,9.950000000000001,9.950000000000001,0.0,9,16
1678489669.11957216,66131037,0.4311177432537079,0.0,0.4107649028301239,0.5,-7.987874984741211,-7.942319393157959,-8.014039993286133,9.950000000000001,9.92,0.0,8,12
1678489669.21953225,66230997,0.47208738327026367,0.0,0.4397556781768799,0.5,-7.966475963592529,-7.933024883270264,-7.929201126098633,9.950000000000001,9.950000000000001,0.0,10,10
1678489669.31949210,66330957,0.5017494559288025,0.0,0.4751443862915039,0.5,-7.9471635818481445,-7.924901485443115,-7.99178409576416,9.950000000000001,9.93,0.0,11,9
1678489669.41945219,66430917,0.5368081331253052,0.0,0.5052131414413452,0.5,-7.929795742034912,-7.918924808502197,-8.050138473510742,9.950000000000001,9.93,0.0,13,9
1678489669.51941228,66530877,0.5956743955612183,0.0,0.55118727684021,0.5,-7.914182662963867,-7.917881965637207,-7.8962721824646,9.950000000000001,9.91,0.0,15,9
1678489669.61937213,66630837,0.6033255457878113,0.0,0.5906848907470703,0.5,-7.899958610534668,-7.913612365722656,-8.066771507263184,9.950000000000001,9.88,0.0,17,10
1678489669.71933222,66730797,0.6042566299438477,0.0,0.596966028213501,0.5,-7.886711597442627,-7.910684585571289,-8.071048736572266,9.950000000000001,9.870000000000001,0.0,20,13
1678489669.81929207,66830757,0.6305413246154785,0.0,0.6134560108184814,0.5,-7.8740386962890625,-7.9102373123168945,-8.016420364379883,9.950000000000001,9.84,0.0,23,15
1678489669.91925216,66930717,0.6452248096466064,0.0,0.6348006129264832,0.5,-7.86143684387207,-7.907899379730225,-7.83555793762207,9.950000000000001,9.83,0.0,26,18
1678489670.02004528,67031510,0.6236639022827148,0.0,0.6381341814994812,0.5,-7.848237991333008,-7.893887042999268,-7.70860481262207,9.950000000000001,9.790000000000001,0.0,27,23
1678489670.12000513,67131470,0.5776188373565674,0.0,0.6157324314117432,0.5,-7.834211349487305,-7.864383220672607,-7.99724006652832,9.950000000000001,9.77,0.0,23,25
1678489670.21996522,67231430,0.5673631429672241,0.0,0.5821114182472229,0.5,-7.818753719329834,-7.837109088897705,-7.920598030090332,9.950000000000001,9.790000000000001,0.0,21,25
1678489670.31992507,67331390,0.5992435216903687,0.0,0.5858708620071411,0.5,-7.801620960235596,-7.816617488861084,-7.917810916900635,9.950000000000001,9.76,0.0,22,23
1678489670.41988516,67431350,0.6378598809242249,0.0,0.6148960590362549,0.5,-7.782712459564209,-7.800474643707275,-7.634796142578125,9.950000000000001,9.8,0.0,25,22
1678489670.51984525,67531310,0.6184887886047363,0.0,0.6296648979187012,0.5,-7.761991500854492,-7.7762932777404785,-7.603868007659912,9.950000000000001,9.77,0.0,25,25
1678489670.61980510,67631270,0.5767667293548584,0.0,0.6091384291648865,0.5,-7.73965311050415,-7.740013122558594,-7.712904930114746,9.950000000000001,9.75,0.0,23,26
1678489670.71976519,67731230,0.5490764379501343,0.0,0.5754947066307068,0.5,-7.715688705444336,-7.701752662658691,-7.6066484451293945,9.950000000000001,9.790000000000001,0.0,20,26
1678489670.81972528,67831190,0.5285243391990662,0.0,0.549889087677002,0.5,-7.690204620361328,-7.664238929748535,-7.725253582000732,9.950000000000001,9.75,0.0,18,24
1678489670.91968513,67931150,0.5406906008720398,0.0,0.5380165576934814,0.5,-7.663384914398193,-7.632584571838379,-7.655068397521973,9.950000000000001,9.83,0.0,18,22
1678489671.01964521,68031110,0.5701850652694702,0.0,0.5499151349067688,0.5,-7.635411262512207,-7.607211589813232,-7.608494758605957,9.950000000000001,9.790000000000001,0.0,19,21
1678489671.11960506,68131070,0.6039847731590271,0.0,0.5808103084564209,0.5,-7.6067609786987305,-7.584017753601074,-7.621135234832764,9.950000000000001,9.84,0.0,22,20
1678489671.21956515,68231030,0.6152411103248596,0.0,0.6003419756889343,0.5,-7.577676296234131,-7.562153339385986,-7.684678077697754,9.950000000000001,9.81,0.0,24,21
1678489671.31952524,68330990,0.6355800628662109,0.0,0.6169138550758362,0.5,-7.548342227935791,-7.543704509735107,-7.477067947387695,9.950000000000001,9.790000000000001,0.0,28,23
1678489671.41948509,68430950,0.634464681148529,0.0,0.6344192028045654,0.5,-7.518822193145752,-7.520785808563232,-7.67508602142334,9.950000000000001,9.790000000000001,0.0,30,26
1678489671.51944518,68530910,0.6433403491973877,0.0,0.6344631910324097,0.5,-7.489068984985352,-7.498064994812012,-7.295103549957275,9.950000000000001,9.81,0.0,32,28
1678489671.61940527,68630870,0.6203551888465881,0.0,0.6378209590911865,0.5,-7.459160327911377,-7.4663519859313965,-7.418455123901367,9.950000000000001,9.790000000000001,0.0,32,30
1678489671.71936512,68730830,0.5852459073066711,0.0,0.6099550724029541,0.5,-7.4291090965271,-7.427020072937012,-7.480963230133057,9.950000000000001,9.83,0.0,29,31
1678489671.81932521,68830790,0.577904462814331,0.0,0.5861243605613708,0.5,-7.3990936279296875,-7.390949726104736,-7.276946544647217,9.950000000000001,9.8,0.0,27,30
1678489671.91928506,68930750,0.5701086521148682,0.0,0.5805203318595886,0.5,-7.369147300720215,-7.354380130767822,-7.261481285095215,9.950000000000001,9.8,0.0,25,28
1678489672.01924515,69030710,0.5348084568977356,0.0,0.5591861009597778,0.5,-7.339191913604736,-7.315274715423584,-7.336970806121826,9.950000000000001,9.85,0.0,22,27
1678489672.12003827,69131503,0.5130535960197449,0.0,0.5280843377113342,0.5,-7.309258937835693,-7.27960205078125,-7.40229606628418,9.950000000000001,9.83,0.0,20,25
