timestamp,TimeUS,ThI,ABst,ThO,ThH,DAlt,Alt,BAlt,DSAlt,SAlt,TAlt,DCRt,CRt
1678286654.92003202,69932849,0.0,0.0,0.5,0.5,0.0,-0.2103305459022522,-0.09802854061126709,0.0,0.0,0.0,0,-1
1678286655.01999211,70032809,0.0,0.0,0.5,0.5,0.0,-0.21001863479614258,-0.03462531790137291,0.0,0.0,0.0,0,-1
1678286655.11995220,70132769,0.0,0.0,0.5,0.5,0.0,-0.20108594000339508,-0.25998446345329285,0.0,0.0,0.0,0,0
1678286655.21991205,70232729,0.0,0.0,0.5,0.5,0.0,-0.19368870556354523,-0.3345288634300232,0.0,0.0,0.0,0,0
1678286655.31987214,70332689,0.0,0.0,0.5,0.5,0.0,-0.1953432559967041,-0.3503734767436981,0.0,0.0,0.0,0,0
1678286655.41983199,70432649,0.0,0.0,0.5,0.5,0.0,-0.20562875270843506,-0.22210060060024261,0.0,0.0,0.0,0,0
1678286655.52062511,70533442,0.0,0.0,0.5,0.5,0.0,-0.2180512249469757,-0.33352160453796387,0.0,0.0,0.0,0,-1
1678286655.62058520,70633402,0.0,0.0,0.5,0.5,0.0,-0.23174771666526794,-0.10652423650026321,0.0,0.0,0.0,0,-2
1678286655.72054505,70733362,0.0,0.0,0.5,0.5,0.0,-0.23802311718463898,-0.16919563710689545,0.0,0.0,0.0,0,-3
1678286655.82050514,70833322,0.0,0.0,0.5,0.5,0.0,-0.23843728005886078,-0.3852674663066864,0.0,0.0,0.0,0,-2
1678286655.92046499,70933282,0.0,0.0,0.5,0.5,0.0,-0.24527858197689056,-0.20353315770626068,0.0,0.0,0.0,0,-3
1678286656.02042508,71033242,0.0,0.0,0.5,0.5,0.0,-0.2511890232563019,-0.18829479813575745,0.0,0.0,0.0,0,-3
1678286656.12038517,71133202,0.0,0.0,0.5,0.5,0.0,-0.25297775864601135,-0.40332669019699097,0.0,0.0,0.0,0,-3
1678286656.22034502,71233162,0.0,0.0,0.5,0.5,0.0,-0.26129335165023804,-0.3999549448490143,0.0,0.0,0.0,0,-3
1678286656.32030511,71333122,0.0,0.0,0.5,0.5,0.0,-0.2766883671283722,-0.2957306206226349,0.0,0.0,0.0,0,-4
1678286656.42026520,71433082,0.0,0.0,0.5,0.5,0.0,-0.2918280363082886,-0.23663106560707092,0.0,0.0,0.0,0,-5
1678286656.52022505,71533042,0.0,0.0,0.5,0.5,0.0,-0.30194953083992004,-0.2862791121006012,0.0,0.0,0.0,0,-5
1678286656.62018514,71633002,0.0,0.0,0.5,0.5,0.0,-0.3094690442085266,-0.4081804156303406,0.0,0.0,0.0,0,-5
1678286656.72014499,71732962,0.0,0.0,0.5,0.5,0.0,-0.32102030515670776,-0.19973891973495483,0.0,0.0,0.0,0,-6
1678286656.82010508,71832922,0.0,0.0,0.5,0.5,0.0,-0.32711073756217957,-0.06675661355257034,0.0,0.0,0.0,0,-6
1678286656.92006516,71932882,0.0,0.0,0.5,0.5,0.0,-0.3200836181640625,-0.08370734751224518,0.0,0.0,0.0,0,-5
1678286657.02002501,72032842,0.0,0.0,0.5,0.5,0.0,-0.302812784910202,-0.2660479247570038,0.0,0.0,0.0,0,-3
1678286657.11998510,72132802,0.0,0.0,0.5,0.5,0.0,-0.28732290863990784,-0.07639548927545547,0.0,0.0,0.0,0,-2
1678286657.21994519,72232762,0.0,0.0,0.5,0.5,0.0,-0.26757627725601196,-0.2938392758369446,0.0,0.0,0.0,0,0
1678286657.31990504,72332722,0.0,0.0,0.5,0.5,0.0,-0.25276491045951843,-0.15665458142757416,0.0,0.0,0.0,0,0
1678286657.41986513,72432682,0.0,0.0,0.5,0.5,0.0,-0.2387457937002182,-0.17877112329006195,0.0,0.0,0.0,0,1
1678286657.51982498,72532642,0.0,0.0,0.5,0.5,0.0,-0.22490930557250977,-0.09827646613121033,0.0,0.0,0.0,0,2
1678286657.62061810,72633435,0.0,0.0,0.5,0.5,0.0,-0.20831847190856934,-0.07991231232881546,0.0,0.0,0.0,0,3
1678286657.72057819,72733395,0.0,0.0,0.5,0.5,0.0,-0.1884683221578598,-0.3333824872970581,0.0,0.0,0.0,0,4
1678286657.82053804,72833355,0.0,0.0,0.5,0.5,0.0,-0.17812605202198029,-0.30205756425857544,0.0,0.0,0.0,0,4
1678286657.92049813,72933315,0.0,0.0,0.5,0.5,0.0,-0.17731542885303497,-0.10104512423276901,0.0,0.0,0.0,0,3
1678286658.02045798,73033275,0.0,0.0,0.5,0.5,0.0,-0.17425328493118286,-0.23848693072795868,0.0,0.0,0.0,0,3
1678286658.12041807,73133235,0.0,0.0,0.5,0.5,0.0,-0.17274993658065796,-0.05532605201005936,0.0,0.0,0.0,0,3
1678286658.22037816,73233195,0.0,0.0,0.5,0.5,0.0,-0.1660432368516922,-0.14983497560024261,0.0,0.0,0.0,0,3
1678286658.32033801,73333155,0.0,0.0,0.5,0.5,0.0,-0.15767228603363037,-0.16684988141059875,0.0,0.0,0.0,0,3
1678286658.42029810,73433115,0.0,0.0,0.5,0.5,0.0,-0.15051427483558655,-0.038290418684482574,0.0,0.0,0.0,0,4
1678286658.52025819,73533075,0.0,0.0,0.5,0.5,0.0,-0.13900355994701385,-0.4003571569919586,0.0,0.0,0.0,0,4
1678286658.62021804,73633035,0.0,0.0,0.5,0.5,0.0,-0.1392800509929657,-0.15758968889713287,0.0,0.0,0.0,0,4
1678286658.72017813,73732995,0.0,0.0,0.5,0.5,0.0,-0.14210471510887146,-0.22008848190307617,0.0,0.0,0.0,0,3
1678286658.82013798,73832955,0.0,0.0,0.5,0.5,0.0,-0.14618051052093506,-0.2713990807533264,0.0,0.0,0.0,0,3
1678286658.92009807,73932915,0.0,0.0,0.5,0.5,0.0,-0.15420164167881012,-0.3230125904083252,0.0,0.0,0.0,0,2
1678286659.02005816,74032875,0.0,0.0,0.5,0.5,0.0,-0.1677287220954895,-0.32369258999824524,0.0,0.0,0.0,0,1
1678286659.12001801,74132835,0.0,0.0,0.5,0.5,0.0,-0.18543937802314758,-0.13167370855808258,0.0,0.0,0.0,0,0
1678286659.21997809,74232795,0.0,0.0,0.5,0.5,0.0,-0.1969987452030182,-0.26762595772743225,0.0,0.0,0.0,0,0
1678286659.31993818,74332755,0.0,0.0,0.5,0.5,0.0,-0.2072061151266098,-0.1292470544576645,0.0,0.0,0.0,0,-1
1678286659.41989803,74432715,0.0,0.0,0.5,0.5,0.0,-0.2117842584848404,-0.03496173396706581,0.0,0.0,0.0,0,-1
1678286659.51985812,74532675,0.0,0.0,0.5,0.5,0.0,-0.20620553195476532,-0.17396005988121033,0.0,0.0,0.0,0,0
1678286659.62065101,74633468,0.0,0.0,0.5,0.5,0.0,-0.19850336015224457,-0.350678026676178,0.0,0.0,0.0,0,0
1678286659.72061110,74733428,0.0,0.0,0.5,0.5,0.0,-0.1992768794298172,-0.264173299074173,0.0,0.0,0.0,0,0
1678286659.82057118,74833388,0.0,0.0,0.5,0.5,0.0,-0.2042771875858307,-0.013264110311865807,0.0,0.0,0.0,0,0
1678286659.92053103,74933348,0.0,0.0,0.5,0.5,0.0,-0.2019454687833786,-0.0913974791765213,0.0,0.0,0.0,0,0
1678286660.02049112,75033308,0.0,0.0,0.5,0.5,0.0,-0.19226408004760742,-0.13408760726451874,0.0,0.0,0.0,0,0
1678286660.12045121,75133268,0.0,0.0,0.5,0.5,0.0,-0.18090176582336426,-0.35572904348373413,0.0,0.0,0.0,0,1
1678286660.22041106,75233228,0.0,0.0,0.5,0.5,0.0,-0.17791764438152313,-0.2239692211151123,0.0,0.0,0.0,0,1
1678286660.32037115,75333188,0.0,0.0,0.5,0.5,0.0,-0.18062976002693176,-0.2155141830444336,0.0,0.0,0.0,0,1
1678286660.42033100,75433148,0.0,0.0,0.5,0.5,0.0,-0.1843172162771225,-0.32789182662963867,0.0,0.0,0.0,0,0
1678286660.52029109,75533108,0.0,0.0,0.5,0.5,0.0,-0.19252541661262512,-0.01588488556444645,0.0,0.0,0.0,0,0
1678286660.62025118,75633068,0.0,0.0,0.5,0.5,0.0,-0.19435037672519684,-0.06543885171413422,0.0,0.0,0.0,0,0
1678286660.72021103,75733028,0.0,0.0,0.5,0.5,0.0,-0.18711793422698975,-0.30775392055511475,0.0,0.0,0.0,0,0
1678286660.82017112,75832988,0.0,0.0,0.5,0.5,0.0,-0.18361081182956696,-0.11762874573469162,0.0,0.0,0.0,0,1
1678286660.92013121,75932948,0.0,0.0,0.5,0.5,0.0,-0.18077436089515686,-0.4086124897003174,0.0,0.0,0.0,0,1
1678286661.02009106,76032908,0.0,0.0,0.5,0.5,0.0,-0.1854867935180664,-0.3051016330718994,0.0,0.0,0.0,0,0
1678286661.12005115,76132868,0.0,0.0,0.5,0.5,0.0,-0.197408989071846,-0.05930245667695999,0.0,0.0,0.0,0,0
1678286661.22001100,76232828,0.0,0.0,0.5,0.5,0.0,-0.20291705429553986,-0.16309788823127747,0.0,0.0,0.0,0,0
1678286661.31997108,76332788,0.0,0.0,0.5,0.5,0.0,-0.2025165557861328,-0.04487324506044388,0.0,0.0,0.0,0,0
1678286661.41993117,76432748,0.0,0.0,0.5,0.5,0.0,-0.19563007354736328,-0.3459606170654297,0.0,0.0,0.0,0,0
1678286661.51989102,76532708,0.0,0.0,0.5,0.5,0.0,-0.19310326874256134,-0.25695154070854187,0.0,0.0,0.0,0,0
1678286661.61985111,76632668,0.0,0.0,0.5,0.5,0.0,-0.19653569161891937,-0.049186863005161285,0.0,0.0,0.0,0,0
1678286661.72064400,76733461,0.0,0.0,0.5,0.5,0.0,-0.1947178840637207,-0.3214150071144104,0.0,0.0,0.0,0,0
1678286661.82060409,76833421,0.0,0.0,0.5,0.5,0.0,-0.19505739212036133,-0.19967633485794067,0.0,0.0,0.0,0,0
1678286661.92056417,76933381,0.0,0.0,0.5,0.5,0.0,-0.19786392152309418,-0.0874202772974968,0.0,0.0,0.0,0,0
1678286662.02052402,77033341,0.0,0.0,0.5,0.5,0.0,-0.19579485058784485,-0.19437699019908905,0.0,0.0,0.0,0,0
1678286662.12048411,77133301,0.0,0.0,0.5,0.5,0.0,-0.1920003890991211,-0.3720758855342865,0.0,0.0,0.0,0,0
1678286662.22044420,77233261,0.0,0.0,0.5,0.5,0.0,-0.19575278460979462,-0.3990728557109833,0.0,0.0,0.0,0,0
1678286662.32040405,77333221,0.0,0.0,0.5,0.5,0.0,-0.2092854231595993,-0.3311694860458374,0.0,0.0,0.0,0,0
1678286662.42036414,77433181,0.0,0.0,0.5,0.5,0.0,-0.22734679281711578,-0.0764194056391716,0.0,0.0,0.0,0,-2
1678286662.52032399,77533141,0.0,0.0,0.5,0.5,0.0,-0.23723891377449036,-0.38877391815185547,0.0,0.0,0.0,0,-2
1678286662.62028408,77633101,0.0,0.0,0.5,0.5,0.0,-0.24730215966701508,-0.1206684485077858,0.0,0.0,0.0,0,-2
1678286662.72024417,77733061,0.0,0.0,0.5,0.5,0.0,-0.25347885489463806,-0.1979025900363922,0.0,0.0,0.0,0,-3
1678286662.82020402,77833021,0.0,0.0,0.5,0.5,0.0,-0.25419142842292786,-0.18306082487106323,0.0,0.0,0.0,0,-2
1678286662.92016411,77932981,0.0,0.0,0.5,0.5,0.0,-0.251932293176651,-0.20252470672130585,0.0,0.0,0.0,0,-2
1678286663.02012420,78032941,0.0,0.0,0.5,0.5,0.0,-0.24807557463645935,-0.2492303103208542,0.0,0.0,0.0,0,-1
1678286663.12008405,78132901,0.0,0.0,0.5,0.5,0.0,-0.24526210129261017,-0.3881815969944,0.0,0.0,0.0,0,-1
1678286663.22004414,78232861,0.0,0.0,0.5,0.5,0.0,-0.24928469955921173,-0.25357383489608765,0.0,0.0,0.0,0,-1
1678286663.32000399,78332821,0.0,0.0,0.5,0.5,0.0,-0.2558385729789734,-0.1767207384109497,0.0,0.0,0.0,0,-2
1678286663.41996408,78432781,0.0,0.0,0.5,0.5,0.0,-0.25847312808036804,-0.21034717559814453,0.0,0.0,0.0,0,-2
1678286663.51992416,78532741,0.0,0.0,0.5,0.5,0.0,-0.2578500211238861,-0.0337543860077858,0.0,0.0,0.0,0,-2
1678286663.61988401,78632701,0.0,0.0,0.5,0.5,0.0,-0.2491292506456375,-0.151607945561409,0.0,0.0,0.0,0,-1
1678286663.71984410,78732661,0.0,0.0,0.5,0.5,0.0,-0.23572856187820435,-0.26873165369033813,0.0,0.0,0.0,0,0
1678286663.82063699,78833454,0.0,0.0,0.5,0.5,0.0,-0.22604508697986603,-0.02657645009458065,0.0,0.0,0.0,0,0
1678286663.92059708,78933414,0.0,0.0,0.5,0.5,0.0,-0.2129024714231491,-0.35398077964782715,0.0,0.0,0.0,0,1
1678286664.02055717,79033374,0.0,0.0,0.5,0.5,0.0,-0.20485253632068634,-0.2734861373901367,0.0,0.0,0.0,0,1
1678286664.12051702,79133334,0.0,0.0,0.5,0.5,0.0,-0.20423555374145508,-0.06375159323215485,0.0,0.0,0.0,0,1
1678286664.22047710,79233294,0.0,0.0,0.5,0.5,0.0,-0.19975852966308594,-0.17534996569156647,0.0,0.0,0.0,0,1
1678286664.32043719,79333254,0.0,0.0,0.5,0.5,0.0,-0.19258376955986023,-0.10103874653577805,0.0,0.0,0.0,0,1
1678286664.42039704,79433214,0.0,0.0,0.5,0.5,0.0,-0.18401305377483368,-0.38638633489608765,0.0,0.0,0.0,0,0
1678286664.52035713,79533174,0.0,0.0,0.5,0.5,0.0,-0.1839802861213684,-0.32927775382995605,0.0,0.0,0.0,0,0
1678286664.62031698,79633134,0.0,0.0,0.5,0.5,0.0,-0.1929871141910553,-0.08090999722480774,0.0,0.0,0.0,0,0
1678286664.72027707,79733094,0.0,0.0,0.5,0.5,0.0,-0.19797740876674652,-0.1595475971698761,0.0,0.0,0.0,0,0
1678286664.82023716,79833054,0.0,0.0,0.5,0.5,0.0,-0.1978590488433838,-0.4062320590019226,0.0,0.0,0.0,0,0
1678286664.92019701,79933014,0.0,0.0,0.5,0.5,0.0,-0.20453418791294098,-0.40057796239852905,0.0,0.0,0.0,0,0
1678286665.02015710,80032974,0.0,0.0,0.5,0.5,0.0,-0.2204623520374298,-0.13185666501522064,0.0,0.0,0.0,0,-1
1678286665.12011719,80132934,0.0,0.0,0.5,0.5,0.0,-0.2325371652841568,-0.10643016546964645,0.0,0.0,0.0,0,-2
1678286665.22007704,80232894,0.0,0.0,0.5,0.5,0.0,-0.23521561920642853,-0.1312476098537445,0.0,0.0,0.0,0,-2
1678286665.32003713,80332854,0.0,0.0,0.5,0.5,0.0,-0.23143735527992249,-0.25945112109184265,0.0,0.0,0.0,0,-1
1678286665.41999698,80432814,0.0,0.0,0.5,0.5,0.0,-0.2283211052417755,-0.2463592141866684,0.0,0.0,0.0,0,-1
1678286665.51995707,80532774,0.0,0.0,0.5,0.5,0.0,-0.22783473134040833,-0.19205835461616516,0.0,0.0,0.0,0,-1
1678286665.61991715,80632734,0.0,0.0,0.5,0.5,0.0,-0.2270178496837616,-0.08131656795740128,0.0,0.0,0.0,0,-1
1678286665.71987700,80732694,0.0,0.0,0.5,0.5,0.0,-0.22090014815330505,-0.06009845435619354,0.0,0.0,0.0,0,0
1678286665.81983709,80832654,0.0,0.0,0.5,0.5,0.0,-0.20824971795082092,-0.22872009873390198,0.0,0.0,0.0,0,0
1678286665.92062998,80933447,0.0,0.0,0.5,0.5,0.0,-0.19707059860229492,-0.18505938351154327,0.0,0.0,0.0,0,1
1678286666.02059007,81033407,0.0,0.0,0.5,0.5,0.0,-0.18905717134475708,-0.30566367506980896,0.0,0.0,0.0,0,1
1678286666.12055016,81133367,0.0,0.0,0.5,0.5,0.0,-0.1870911717414856,-0.3721567988395691,0.0,0.0,0.0,0,1
1678286666.22051001,81233327,0.0,0.0,0.5,0.5,0.0,-0.19422687590122223,-0.4181780219078064,0.0,0.0,0.0,0,0
1678286666.32047009,81333287,0.0,0.0,0.5,0.5,0.0,-0.21052789688110352,-0.12499920278787613,0.0,0.0,0.0,0,0
1678286666.42043018,81433247,0.0,0.0,0.5,0.5,0.0,-0.22306860983371735,-0.3137149214744568,0.0,0.0,0.0,0,-1
1678286666.52039003,81533207,0.0,0.0,0.5,0.5,0.0,-0.2334921807050705,-0.19930844008922577,0.0,0.0,0.0,0,-1
1678286666.62035012,81633167,0.0,0.0,0.5,0.5,0.0,-0.24155698716640472,-0.06882015615701675,0.0,0.0,0.0,0,-2
1678286666.72031021,81733127,0.0,0.0,0.5,0.5,0.0,-0.24067561328411102,-0.38709142804145813,0.0,0.0,0.0,0,-1
1678286666.82027006,81833087,0.0,0.0,0.5,0.5,0.0,-0.24240107834339142,-0.3074473738670349,0.0,0.0,0.0,0,-1
1678286666.92023015,81933047,0.0,0.0,0.5,0.5,0.0,-0.24924789369106293,-0.1403742879629135,0.0,0.0,0.0,0,-1
1678286667.02019000,82033007,0.0,0.0,0.5,0.5,0.0,-0.25194495916366577,-0.3559630215167999,0.0,0.0,0.0,0,-1
1678286667.12015009,82132967,0.0,0.0,0.5,0.5,0.0,-0.25605934858322144,-0.3800506293773651,0.0,0.0,0.0,0,-2
1678286667.22011018,82232927,0.0,0.0,0.5,0.5,0.0,-0.2660590410232544,-0.22205635905265808,0.0,0.0,0.0,0,-2
1678286667.32007003,82332887,0.0,0.0,0.5,0.5,0.0,-0.27462446689605713,-0.0908709317445755,0.0,0.0,0.0,0,-3
1678286667.42003012,82432847,0.0,0.0,0.5,0.5,0.0,-0.2740064859390259,-0.10282246768474579,0.0,0.0,0.0,0,-2
1678286667.51999021,82532807,0.0,0.0,0.5,0.5,0.0,-0.26466718316078186,-0.29908642172813416,0.0,0.0,0.0,0,-1
1678286667.61995006,82632767,0.0,0.0,0.5,0.5,0.0,-0.25674086809158325,-0.22869698703289032,0.0,0.0,0.0,0,0
1678286667.71991014,82732727,0.0,0.0,0.5,0.5,0.0,-0.251394659280777,-0.19541773200035095,0.0,0.0,0.0,0,0
1678286667.81987000,82832687,0.0,0.0,0.5,0.5,0.0,-0.2454938292503357,-0.39783960580825806,0.0,0.0,0.0,0,0
1678286667.91983008,82932647,0.0,0.0,0.5,0.5,0.0,-0.24601344764232635,-0.03594467416405678,0.0,0.0,0.0,0,0
1678286668.02062321,83033440,0.0,0.0,0.5,0.5,0.0,-0.24095822870731354,-0.30378904938697815,0.0,0.0,0.0,0,0
1678286668.12058306,83133400,0.0,0.0,0.5,0.5,0.0,-0.23710259795188904,-0.15933793783187866,0.0,0.0,0.0,0,0
1678286668.22054315,83233360,0.0,0.0,0.5,0.5,0.0,-0.23183207213878632,-0.36328086256980896,0.0,0.0,0.0,0,0
1678286668.32050300,83333320,0.0,0.0,0.5,0.5,0.0,-0.23251664638519287,-0.20618143677711487,0.0,0.0,0.0,0,0
1678286668.42046309,83433280,0.0,0.0,0.5,0.5,0.0,-0.23335684835910797,-0.36670878529548645,0.0,0.0,0.0,0,0
1678286668.52042317,83533240,0.0,0.0,0.5,0.5,0.0,-0.23905013501644135,-0.16597656905651093,0.0,0.0,0.0,0,0
1678286668.62038302,83633200,0.0,0.0,0.5,0.5,0.0,-0.24152983725070953,-0.21363958716392517,0.0,0.0,0.0,0,0
1678286668.72034311,83733160,0.0,0.0,0.5,0.5,0.0,-0.24107928574085236,-0.16826172173023224,0.0,0.0,0.0,0,0
1678286668.82030320,83833120,0.0,0.0,0.5,0.5,0.0,-0.23722828924655914,-0.33625558018684387,0.0,0.0,0.0,0,0
1678286668.92026305,83933080,0.0,0.0,0.5,0.5,0.0,-0.2376120537519455,-0.1777028888463974,0.0,0.0,0.0,0,0
1678286669.02022314,84033040,0.0,0.0,0.5,0.5,0.0,-0.23645059764385223,-0.09770926088094711,0.0,0.0,0.0,0,0
1678286669.12018299,84133000,0.0,0.0,0.5,0.5,0.0,-0.22885005176067352,-0.09516821056604385,0.0,0.0,0.0,0,1
1678286669.22014308,84232960,0.0,0.0,0.5,0.5,0.0,-0.21578136086463928,-0.19531328976154327,0.0,0.0,0.0,0,1
1678286669.32010317,84332920,0.0,0.0,0.5,0.5,0.0,-0.20352809131145477,-0.04469666630029678,0.0,0.0,0.0,0,2
1678286669.42006302,84432880,0.0,0.0,0.5,0.5,0.0,-0.1872224360704422,-0.10473015159368515,0.0,0.0,0.0,0,3
1678286669.52002311,84532840,0.0,0.0,0.5,0.5,0.0,-0.1692925989627838,-0.3975904881954193,0.0,0.0,0.0,0,4
1678286669.61998320,84632800,0.0,0.0,0.5,0.5,0.0,-0.16399268805980682,-0.22901904582977295,0.0,0.0,0.0,0,4
1678286669.71994305,84732760,0.0,0.0,0.5,0.5,0.0,-0.16454079747200012,-0.19510921835899353,0.0,0.0,0.0,0,4
1678286669.81990314,84832720,0.0,0.0,0.5,0.5,0.0,-0.16568759083747864,-0.2873927652835846,0.0,0.0,0.0,0,3
1678286669.91986299,84932680,0.0,0.0,0.5,0.5,0.0,-0.1706974357366562,-0.2195579558610916,0.0,0.0,0.0,0,3
1678286670.02065611,85033473,0.0,0.0,0.5,0.5,0.0,-0.1765858680009842,-0.18984414637088776,0.0,0.0,0.0,0,2
1678286670.12061620,85133433,0.0,0.0,0.5,0.5,0.0,-0.1808493733406067,-0.2674465775489807,0.0,0.0,0.0,0,2
1678286670.22057605,85233393,0.0,0.0,0.5,0.5,0.0,-0.18672867119312286,-0.2457122951745987,0.0,0.0,0.0,0,1
1678286670.32053614,85333353,0.0,0.0,0.48374998569488525,0.5,0.0,-0.1936606913805008,-0.11150948703289032,0.0,0.0,0.0,0,1
1678286670.42049599,85433313,0.0,0.0,0.42500001192092896,0.5,0.0,-0.1954757124185562,-0.22702208161354065,0.0,0.0,0.0,0,0
1678286670.52045608,85533273,0.0,0.0,0.25,0.5,0.0,-0.20110751688480377,-0.40259605646133423,0.0,0.0,0.0,0,-9
1678286670.62041616,85633233,0.0,0.0,0.25,0.5,0.0,-0.23221799731254578,-0.050050221383571625,0.0,0.0,0.0,0,-31
1678286670.72037601,85733193,0.0,0.0,0.25,0.5,0.0,-0.2739197611808777,-0.18868941068649292,0.0,0.0,0.0,0,-46
1678286670.82033610,85833153,0.0,0.0,0.25,0.5,0.0,-0.3212467432022095,-0.5044555068016052,0.0,0.0,0.0,0,-53
1678286670.92029619,85933113,0.0,0.0,0.25,0.5,0.0,-0.3828432261943817,-0.18227040767669678,0.0,0.0,0.0,0,-57
1678286671.02025604,86033073,0.0,0.0,0.25,0.5,0.0,-0.4414699375629425,-0.24018894135951996,0.0,0.0,0.0,0,-59
1678286671.12021613,86133033,0.0,0.0,0.25,0.5,0.0,-0.4923223853111267,-0.36849889159202576,0.0,0.0,0.0,0,-59
1678286671.22017598,86232993,0.0,0.0,0.25,0.5,0.0,-0.5405768752098083,-0.6285156011581421,0.0,0.0,0.0,0,-59
1678286671.32013607,86332953,0.0,0.0,0.25,0.5,0.0,-0.5970907807350159,-0.728720486164093,0.0,0.0,0.0,0,-59
1678286671.42009616,86432913,0.0,0.0,0.25,0.5,0.0,-0.6629856824874878,-0.7662755250930786,0.0,0.0,0.0,0,-59
1678286671.52005601,86532873,0.0,0.0,0.25,0.5,0.0,-0.7352468967437744,-0.9372600317001343,0.0,0.0,0.0,0,-60
1678286671.62001610,86632833,0.0,0.0,0.25,0.5,0.0,-0.81596440076828,-0.8908892869949341,0.0,0.0,0.0,0,-62
1678286671.71997619,86732793,0.0,0.0,0.25,0.5,0.0,-0.8988155126571655,-0.7383713126182556,0.0,0.0,0.0,0,-63
1678286671.81993604,86832753,0.0,0.0,0.25,0.5,0.0,-0.9720396995544434,-1.0449652671813965,0.0,0.0,0.0,0,-64
1678286671.91989613,86932713,0.0,0.0,0.25,0.5,0.0,-1.045554280281067,-0.8313153982162476,0.0,0.0,0.0,0,-64
1678286672.01985598,87032673,0.0,0.0,0.25,0.5,0.0,-1.1103755235671997,-1.2248939275741577,0.0,0.0,0.0,0,-64
1678286672.12064910,87133466,0.0,0.0,0.25,0.5,0.0,-1.1799262762069702,-0.9950777292251587,0.0,0.0,0.0,0,-65
1678286672.22060919,87233426,0.0,0.0,0.25,0.5,0.0,-1.2435951232910156,-1.3113045692443848,0.0,0.0,0.0,0,-64
1678286672.32056904,87333386,0.0,0.0,0.25,0.5,0.0,-1.3104496002197266,-1.3363771438598633,0.0,0.0,0.0,0,-65
1678286672.42052913,87433346,0.0,0.0,0.25,0.5,0.0,-1.381063461303711,-1.2719132900238037,0.0,0.0,0.0,0,-65
1678286672.52048898,87533306,0.0,0.0,0.25,0.5,0.0,-1.448236346244812,-1.1731481552124023,0.0,0.0,0.0,0,-65
1678286672.62044907,87633266,0.0,0.0,0.25,0.5,0.0,-1.504389762878418,-1.4984757900238037,0.0,0.0,0.0,0,-64
1678286672.72040915,87733226,0.0,0.0,0.25,0.5,0.0,-1.5618799924850464,-1.3518295288085938,0.0,0.0,0.0,0,-64
1678286672.82036901,87833186,0.0,0.0,0.25,0.5,0.0,-1.6150141954421997,-1.5731229782104492,0.0,0.0,0.0,0,-63
1678286672.92032909,87933146,0.0,0.0,0.25,0.5,0.0,-1.6694107055664062,-1.6480129957199097,0.0,0.0,0.0,0,-63
1678286673.02028918,88033106,0.0,0.0,0.25,0.5,0.0,-1.726981282234192,-1.555387020111084,0.0,0.0,0.0,0,-62
1678286673.12024903,88133066,0.0,0.0,0.25,0.5,0.0,-1.7815062999725342,-1.7197396755218506,0.0,0.0,0.0,0,-62
1678286673.22020912,88233026,0.0,0.0,0.25,0.5,0.0,-1.836073398590088,-1.8048664331436157,0.0,0.0,0.0,0,-61
1678286673.32016921,88332986,0.0,0.0,0.25,0.5,0.0,-1.893157720565796,-2.050628900527954,0.0,0.0,0.0,0,-61
1678286673.42012906,88432946,0.0,0.0,0.25,0.5,0.0,-1.9607279300689697,-1.722933292388916,0.0,0.0,0.0,0,-62
1678286673.52008915,88532906,0.0,0.0,0.25,0.5,0.0,-2.0205817222595215,-1.8626577854156494,0.0,0.0,0.0,0,-62
1678286673.62004900,88632866,0.0,0.0,0.25,0.5,0.0,-2.073704481124878,-1.9729620218276978,0.0,0.0,0.0,0,-61
1678286673.72000909,88732826,0.0,0.0,0.25,0.5,0.0,-2.1253254413604736,-1.919327974319458,0.0,0.0,0.0,0,-60
1678286673.81996918,88832786,0.0,0.0,0.25,0.5,0.0,-2.172006368637085,-2.2477002143859863,0.0,0.0,0.0,0,-59
1678286673.91992903,88932746,0.0,0.0,0.25,0.5,0.0,-2.225497007369995,-2.388272523880005,0.0,0.0,0.0,0,-59
1678286674.01988912,89032706,0.0,0.0,0.25,0.5,0.0,-2.2908270359039307,-2.0942132472991943,0.0,0.0,0.0,0,-59
1678286674.11984921,89132666,0.0,0.0,0.25,0.5,0.0,-2.350507974624634,-2.539621353149414,0.0,0.0,0.0,0,-59
1678286674.22064209,89233459,0.0,0.0,0.25,0.5,0.0,-2.4183764457702637,-2.599318504333496,0.0,0.0,0.0,0,-60
1678286674.32060218,89333419,0.0,0.0,0.25,0.5,0.0,-2.4957375526428223,-2.4301602840423584,0.0,0.0,0.0,0,-61
1678286674.42056203,89433379,0.0,0.0,0.25,0.5,0.0,-2.5701210498809814,-2.6232972145080566,0.0,0.0,0.0,0,-62
1678286674.52052212,89533339,0.0,0.0,0.25,0.5,0.0,-2.6431405544281006,-2.488462209701538,0.0,0.0,0.0,0,-63
1678286674.62048221,89633299,0.0,0.0,0.25,0.5,0.0,-2.710289478302002,-2.816673994064331,0.0,0.0,0.0,0,-63
1678286674.72044206,89733259,0.0,0.0,0.25,0.5,0.0,-2.778792142868042,-2.679333448410034,0.0,0.0,0.0,0,-63
1678286674.82040215,89833219,0.0,0.0,0.25,0.5,0.0,-2.846081495285034,-2.7215394973754883,0.0,0.0,0.0,0,-63
1678286674.92036200,89933179,0.0,0.0,0.25,0.5,0.0,-2.9077682495117188,-2.6455237865448,0.0,0.0,0.0,0,-63
1678286675.02032208,90033139,0.0,0.0,0.25,0.5,0.0,-2.95967698097229,-2.967505693435669,0.0,0.0,0.0,0,-62
1678286675.12028217,90133099,0.0,0.0,0.25,0.5,0.0,-3.01247239112854,-2.7891812324523926,0.0,0.0,0.0,0,-62
1678286675.22024202,90233059,0.0,0.0,0.25,0.5,0.0,-3.0623629093170166,-2.980485439300537,0.0,0.0,0.0,0,-61
1678286675.32020211,90333019,0.0,0.0,0.25,0.5,0.0,-3.110623359680176,-2.918097972869873,0.0,0.0,0.0,0,-60
1678286675.42016220,90432979,0.0,0.0,0.25,0.5,0.0,-3.1562860012054443,-3.2898972034454346,0.0,0.0,0.0,0,-59
1678286675.52012205,90532939,0.0,0.0,0.25,0.5,0.0,-3.2097933292388916,-3.3086798191070557,0.0,0.0,0.0,0,-59
1678286675.62008214,90632899,0.0,0.0,0.25,0.5,0.0,-3.2727773189544678,-3.120365858078003,0.0,0.0,0.0,0,-59
1678286675.72004199,90732859,0.0,0.0,0.25,0.5,0.0,-3.3331151008605957,-3.4268312454223633,0.0,0.0,0.0,0,-59
1678286675.82000208,90832819,0.0,0.0,0.25,0.5,0.0,-3.395482301712036,-3.4232444763183594,0.0,0.0,0.0,0,-59
1678286675.91996217,90932779,0.0,0.0,0.25,0.5,0.0,-3.4616377353668213,-3.5568039417266846,0.0,0.0,0.0,0,-60
1678286676.01992202,91032739,0.0,0.0,0.25,0.5,0.0,-3.531649112701416,-3.6032581329345703,0.0,0.0,0.0,0,-61
1678286676.11988211,91132699,0.0,0.0,0.25,0.5,0.0,-3.6049416065216064,-3.5869874954223633,0.0,0.0,0.0,0,-61
1678286676.21984220,91232659,0.0,0.0,0.25,0.5,0.0,-3.677117109298706,-3.7847847938537598,0.0,0.0,0.0,0,-62
1678286676.32063508,91333452,0.0,0.0,0.25,0.5,0.0,-3.75195574760437,-3.5552830696105957,0.0,0.0,0.0,0,-63
1678286676.42059517,91433412,0.0,0.0,0.25,0.5,0.0,-3.8196675777435303,-3.8013744354248047,0.0,0.0,0.0,0,-63
1678286676.52055502,91533372,0.0,0.0,0.25,0.5,0.0,-3.883434295654297,-3.970078229904175,0.0,0.0,0.0,0,-63
1678286676.62051511,91633332,0.0,0.0,0.25,0.5,0.0,-3.95168137550354,-4.096219539642334,0.0,0.0,0.0,0,-63
1678286676.72047520,91733292,0.0,0.0,0.25,0.5,0.0,-4.027219295501709,-4.152926445007324,0.0,0.0,0.0,0,-64
1678286676.82043505,91833252,0.0,0.0,0.25,0.5,0.0,-4.10854959487915,-4.0315728187561035,0.0,0.0,0.0,0,-65
1678286676.92039514,91933212,0.0,0.0,0.25,0.5,0.0,-4.186652183532715,-4.076529026031494,0.0,0.0,0.0,0,-66
1678286677.02035499,92033172,0.0,0.0,0.25,0.5,0.0,-4.257757663726807,-4.324402332305908,0.0,0.0,0.0,0,-66
1678286677.12031507,92133132,0.0,0.0,0.25,0.5,0.0,-4.329159736633301,-4.182966232299805,0.0,0.0,0.0,0,-67
1678286677.22027516,92233092,0.0,0.0,0.25,0.5,0.0,-4.397737503051758,-4.230082035064697,0.0,0.0,0.0,0,-67
1678286677.32023501,92333052,0.0,0.0,0.25,0.5,0.0,-4.459179878234863,-4.247140407562256,0.0,0.0,0.0,0,-66
1678286677.42019510,92433012,0.0,0.0,0.25,0.5,0.0,-4.51366662979126,-4.4977288246154785,0.0,0.0,0.0,0,-65
1678286677.52015519,92532972,0.0,0.0,0.25,0.5,0.0,-4.569762706756592,-4.346296310424805,0.0,0.0,0.0,0,-65
1678286677.62011504,92632932,0.0,0.0,0.25,0.5,0.0,-4.62233304977417,-4.312351703643799,0.0,0.0,0.0,0,-64
1678286677.72007513,92732892,0.0,0.0,0.25,0.5,0.0,-4.6655778884887695,-4.456204414367676,0.0,0.0,0.0,0,-62
1678286677.82003498,92832852,0.0,0.0,0.25,0.5,0.0,-4.703864097595215,-4.480275630950928,0.0,0.0,0.0,0,-61
1678286677.91999507,92932812,0.0,0.0,0.25,0.5,0.0,-4.739668846130371,-4.8605523109436035,0.0,0.0,0.0,0,-59
1678286678.01995516,93032772,0.0,0.0,0.25,0.5,0.0,-4.785174369812012,-4.825789928436279,0.0,0.0,0.0,0,-58
1678286678.11991501,93132732,0.0,0.0,0.25,0.5,0.0,-4.840843677520752,-4.929769039154053,0.0,0.0,0.0,0,-58
1678286678.21987510,93232692,0.0,0.0,0.25,0.5,0.0,-4.903586387634277,-4.943843364715576,0.0,0.0,0.0,0,-59
1678286678.31983519,93332652,0.0,0.0,0.25,0.5,0.0,-4.970396041870117,-5.088132381439209,0.0,0.0,0.0,0,-59
1678286678.42062807,93433445,0.0,0.0,0.25,0.5,0.0,-5.042405605316162,-5.054299354553223,0.0,0.0,0.0,0,-60
1678286678.52058816,93533405,0.0,0.0,0.25,0.5,0.0,-5.115041732788086,-4.876855850219727,0.0,0.0,0.0,0,-61
1678286678.62054801,93633365,0.0,0.0,0.25,0.5,0.0,-5.177752494812012,-5.304399013519287,0.0,0.0,0.0,0,-61
1678286678.72050810,93733325,0.0,0.0,0.25,0.5,0.0,-5.241743564605713,-5.045384407043457,0.0,0.0,0.0,0,-61
1678286678.82046819,93833285,0.0,0.0,0.25,0.5,0.0,-5.302231788635254,-5.155781269073486,0.0,0.0,0.0,0,-61
1678286678.92042804,93933245,0.0,0.0,0.25,0.5,0.0,-5.3558878898620605,-5.40651798248291,0.0,0.0,0.0,0,-60
1678286679.02038813,94033205,0.0,0.0,0.25,0.5,0.0,-5.412624835968018,-5.275665760040283,0.0,0.0,0.0,0,-60
1678286679.12034798,94133165,0.0,0.0,0.25,0.5,0.0,-5.468571186065674,-5.351896286010742,0.0,0.0,0.0,0,-60
1678286679.22030807,94233125,0.0,0.0,0.25,0.5,0.0,-5.520521640777588,-5.480418682098389,0.0,0.0,0.0,0,-59
1678286679.32026815,94333085,0.0,0.0,0.25,0.5,0.0,-5.57348108291626,-5.702142238616943,0.0,0.0,0.0,0,-59
1678286679.42022800,94433045,0.0,0.0,0.25,0.5,0.0,-5.634083271026611,-5.461533069610596,0.0,0.0,0.0,0,-59
1678286679.52018809,94533005,0.0,0.0,0.25,0.5,0.0,-5.692561626434326,-5.653098106384277,0.0,0.0,0.0,0,-59
1678286679.62014818,94632965,0.0,0.0,0.25,0.5,0.0,-5.74896240234375,-5.760298252105713,0.0,0.0,0.0,0,-59
1678286679.72010803,94732925,0.0,0.0,0.25,0.5,0.0,-5.807352542877197,-5.69500732421875,0.0,0.0,0.0,0,-59
1678286679.82006812,94832885,0.0,0.0,0.25,0.5,0.0,-5.864035129547119,-5.993172645568848,0.0,0.0,0.0,0,-59
1678286679.92002821,94932845,0.0,0.0,0.25,0.5,0.0,-5.925670623779297,-6.086699485778809,0.0,0.0,0.0,0,-59
1678286680.01998806,95032805,0.0,0.0,0.25,0.5,0.0,-5.996518611907959,-5.992143630981445,0.0,0.0,0.0,0,-60
1678286680.11994815,95132765,0.0,0.0,0.25,0.5,0.0,-6.06870174407959,-5.988771438598633,0.0,0.0,0.0,0,-60
1678286680.21990800,95232725,0.0,0.0,0.25,0.5,0.0,-6.136192321777344,-5.922739028930664,0.0,0.0,0.0,0,-61
1678286680.31986809,95332685,0.0,0.0,0.25,0.5,0.0,-6.194364547729492,-6.000726222991943,0.0,0.0,0.0,0,-60
1678286680.41982818,95432645,0.0,0.0,0.25,0.5,0.0,-6.244194984436035,-6.133819580078125,0.0,0.0,0.0,0,-60
1678286680.52062106,95533438,0.0,0.0,0.25,0.5,0.0,-6.291916370391846,-6.387925624847412,0.0,0.0,0.0,0,-59
1678286680.62058115,95633398,0.0,0.0,0.25,0.5,0.0,-6.3460588455200195,-6.1944499015808105,0.0,0.0,0.0,0,-58
1678286680.72054100,95733358,0.0,0.0,0.25,0.5,0.0,-6.400153636932373,-6.30686616897583,0.0,0.0,0.0,0,-58
1678286680.82050109,95833318,0.0,0.0,0.25,0.5,0.0,-6.451433181762695,-6.673399448394775,0.0,0.0,0.0,0,-58
1678286680.92046118,95933278,0.0,0.0,0.25,0.5,0.0,-6.512857913970947,-6.467970371246338,0.0,0.0,0.0,0,-58
1678286681.02042103,96033238,0.0,0.0,0.25,0.5,0.0,-6.5779314041137695,-6.481875896453857,0.0,0.0,0.0,0,-58
1678286681.12038112,96133198,0.0,0.0,0.25,0.5,0.0,-6.638726711273193,-6.83510684967041,0.0,0.0,0.0,0,-59
1678286681.22034121,96233158,0.0,0.0,0.25,0.5,0.0,-6.7059197425842285,-6.563915729522705,0.0,0.0,0.0,0,-59
1678286681.32030106,96333118,0.0,0.0,0.25,0.5,0.0,-6.7708024978637695,-6.982763767242432,0.0,0.0,0.0,0,-59
1678286681.42026114,96433078,0.0,0.0,0.25,0.5,0.0,-6.841098308563232,-7.00808048248291,0.0,0.0,0.0,0,-60
1678286681.52022099,96533038,0.0,0.0,0.25,0.5,0.0,-6.920153617858887,-6.9256391525268555,0.0,0.0,0.0,0,-61
1678286681.62018108,96632998,0.0,0.0,0.25,0.5,0.0,-6.999101638793945,-6.955517292022705,0.0,0.0,0.0,0,-63
1678286681.72014117,96732958,0.0,0.0,0.25,0.5,0.0,-7.0739874839782715,-6.991896629333496,0.0,0.0,0.0,0,-63
1678286681.82010102,96832918,0.0,0.0,0.25,0.5,0.0,-7.143145561218262,-6.969605445861816,0.0,0.0,0.0,0,-63
1678286681.92006111,96932878,0.0,0.0,0.25,0.5,0.0,-7.204845905303955,-7.139553546905518,0.0,0.0,0.0,0,-63
1678286682.02002120,97032838,0.0,0.0,0.25,0.5,0.0,-7.263495922088623,-7.384332656860352,0.0,0.0,0.0,0,-63
1678286682.11998105,97132798,0.0,0.0,0.25,0.5,0.0,-7.32865571975708,-7.316775321960449,0.0,0.0,0.0,0,-63
1678286682.21994114,97232758,0.0,0.0,0.25,0.5,0.0,-7.3972954750061035,-7.304760932922363,0.0,0.0,0.0,0,-63
1678286682.31990099,97332718,0.0,0.0,0.25,0.5,0.0,-7.463046550750732,-7.218852996826172,0.0,0.0,0.0,0,-63
1678286682.41986108,97432678,0.0,0.0,0.25,0.5,0.0,-7.5199456214904785,-7.37178897857666,0.0,0.0,0.0,0,-63
1678286682.52065420,97533471,0.0,0.0,0.25,0.5,0.0,-7.570130348205566,-7.696557521820068,0.0,0.0,0.0,0,-62
1678286682.62061405,97633431,0.0,0.0,0.25,0.5,0.0,-7.63015604019165,-7.627102851867676,0.0,0.0,0.0,0,-62
1678286682.72057414,97733391,0.0,0.0,0.25,0.5,0.0,-7.694596767425537,-7.538797855377197,0.0,0.0,0.0,0,-62
1678286682.82053399,97833351,0.0,0.0,0.25,0.5,0.0,-7.754238128662109,-7.881895065307617,0.0,0.0,0.0,0,-62
1678286682.92049408,97933311,0.0,0.0,0.25,0.5,0.0,-7.820293426513672,-7.634819984436035,0.0,0.0,0.0,0,-62
1678286683.02045417,98033271,0.0,0.0,0.25,0.5,0.0,-7.88141393661499,-7.639496326446533,0.0,0.0,0.0,0,-62
1678286683.12041402,98133231,0.0,0.0,0.25,0.5,0.0,-7.93279504776001,-7.795959949493408,0.0,0.0,0.0,0,-61
1678286683.22037411,98233191,0.0,0.0,0.25,0.5,0.0,-7.9808030128479,-7.9222235679626465,0.0,0.0,0.0,0,-60
1678286683.32033420,98333151,0.0,0.0,0.25,0.5,0.0,-8.030766487121582,-7.961052417755127,0.0,0.0,0.0,0,-60
1678286683.42029405,98433111,0.0,0.0,0.25,0.5,0.0,-8.08191967010498,-8.127907752990723,0.0,0.0,0.0,0,-59
1678286683.52025414,98533071,0.0,0.0,0.25,0.5,0.0,-8.139226913452148,-8.010891914367676,0.0,0.0,0.0,0,-59
1678286683.62021399,98633031,0.0,0.0,0.25,0.5,0.0,-8.194598197937012,-8.19002628326416,0.0,0.0,0.0,0,-59
1678286683.72017407,98732991,0.0,0.0,0.25,0.5,0.0,-8.251474380493164,-8.289234161376953,0.0,0.0,0.0,0,-59
1678286683.82013416,98832951,0.0,0.0,0.25,0.5,0.0,-8.313104629516602,-8.143295288085938,0.0,0.0,0.0,0,-59
1678286683.92009401,98932911,0.0,0.0,0.25,0.5,0.0,-8.369145393371582,-8.225141525268555,0.0,0.0,0.0,0,-59
1678286684.02005410,99032871,0.0,0.0,0.25,0.5,0.0,-8.420016288757324,-8.597073554992676,0.0,0.0,0.0,0,-58
1678286684.12001419,99132831,0.0,0.0,0.25,0.5,0.0,-8.480786323547363,-8.423009872436523,0.0,0.0,0.0,0,-58
1678286684.21997404,99232791,0.0,0.0,0.25,0.5,0.0,-8.54273796081543,-8.42042350769043,0.0,0.0,0.0,0,-59
1678286684.31993413,99332751,0.0,0.0,0.25,0.5,0.0,-8.599958419799805,-8.78280258178711,0.0,0.0,0.0,0,-58
1678286684.41989398,99432711,0.0,0.0,0.25,0.5,0.0,-8.665692329406738,-8.793739318847656,0.0,0.0,0.0,0,-59
1678286684.51985407,99532671,0.0,0.0,0.25,0.5,0.0,-8.73902702331543,-8.659838676452637,0.0,0.0,0.0,0,-60
1678286684.62064719,99633464,0.0,0.0,0.25,0.5,0.0,-8.8091402053833,-8.633913040161133,0.0,0.0,0.0,0,-61
1678286684.72060704,99733424,0.0,0.0,0.25,0.5,0.0,-8.869733810424805,-8.931575775146484,0.0,0.0,0.0,0,-60
1678286684.82056713,99833384,0.0,0.0,0.25,0.5,0.0,-8.932730674743652,-9.09061336517334,0.0,0.0,0.0,0,-60
1678286684.92052698,99933344,0.0,0.0,0.25,0.5,0.0,-9.004433631896973,-8.986080169677734,0.0,0.0,0.0,0,-61
1678286685.02048707,100033304,0.0,0.0,0.25,0.5,0.0,-9.076356887817383,-9.011797904968262,0.0,0.0,0.0,0,-62
1678286685.12044716,100133264,0.0,0.0,0.25,0.5,0.0,-9.144515037536621,-9.184981346130371,0.0,0.0,0.0,0,-62
1678286685.22040701,100233224,0.0,0.0,0.25,0.5,0.0,-9.213958740234375,-9.148076057434082,0.0,0.0,0.0,0,-63
1678286685.32036710,100333184,0.0,0.0,0.25,0.5,0.0,-9.281331062316895,-9.1582612991333,0.0,0.0,0.0,0,-63
1678286685.42032719,100433144,0.0,0.0,0.25,0.5,0.0,-9.343681335449219,-9.328707695007324,0.0,0.0,0.0,0,-63
1678286685.52028704,100533104,0.0,0.0,0.25,0.5,0.0,-9.40577507019043,-9.568116188049316,0.0,0.0,0.0,0,-63
1678286685.62024713,100633064,0.0,0.0,0.25,0.5,0.0,-9.477336883544922,-9.54189682006836,0.0,0.0,0.0,0,-63
1678286685.72020698,100733024,0.0,0.0,0.25,0.5,0.0,-9.553470611572266,-9.430327415466309,0.0,0.0,0.0,0,-64
1678286685.82016706,100832984,0.0,0.0,0.25,0.5,0.0,-9.624043464660645,-9.630863189697266,0.0,0.0,0.0,0,-65
1678286685.92012715,100932944,0.0,0.0,0.25,0.5,0.0,-9.69443416595459,-9.611592292785645,0.0,0.0,0.0,0,-65
1678286686.02008700,101032904,0.0,0.0,0.25,0.5,0.0,-9.761786460876465,-9.691248893737793,0.0,0.0,0.0,0,-65
1678286686.12004709,101132864,0.0,0.0,0.25,0.5,0.0,-9.826845169067383,-9.930292129516602,0.0,0.0,0.0,0,-65
1678286686.22000718,101232824,0.0,0.0,0.25,0.5,0.0,-9.89775276184082,-9.831225395202637,0.0,0.0,0.0,0,-65
1678286686.31996703,101332784,0.0,0.0,0.25,0.5,0.0,-9.967950820922852,-9.767619132995605,0.0,0.0,0.0,0,-66
1678286686.41992712,101432744,0.0,0.0,0.25,0.5,0.0,-10.030097007751465,-9.743396759033203,0.0,0.0,0.0,0,-65
1678286686.51988721,101532704,0.0,0.0,0.25,0.5,0.0,-10.081257820129395,-9.883734703063965,0.0,0.0,0.0,0,-64
1678286686.61984706,101632664,0.0,0.0,0.25,0.5,0.0,-10.127138137817383,-10.16820240020752,0.0,0.0,0.0,0,-63
1678286686.72064018,101733457,0.0,0.0,0.25,0.5,0.0,-10.18057632446289,-10.3041410446167,0.0,0.0,0.0,0,-62
1678286686.82060003,101833417,0.0,0.0,0.25,0.5,0.0,-10.244682312011719,-10.37413501739502,0.0,0.0,0.0,0,-63
1678286686.92056012,101933377,0.0,0.0,0.25,0.5,0.0,-10.31788158416748,-10.421823501586914,0.0,0.0,0.0,0,-63
1678286687.02052021,102033337,0.0,0.0,0.25,0.5,0.0,-10.396596908569336,-10.338069915771484,0.0,0.0,0.0,0,-65
1678286687.12048006,102133297,0.0,0.0,0.25,0.5,0.0,-10.472269058227539,-10.432744979858398,0.0,0.0,0.0,0,-65
1678286687.22044015,102233257,0.0,0.0,0.4962500035762787,0.5,0.0,-10.537872314453125,-10.280349731445312,0.0,0.0,0.0,0,-50
1678286687.32040000,102333217,0.0,0.0,0.5,0.5,0.0,-10.577960968017578,-10.553139686584473,0.0,0.0,0.0,0,-39
1678286687.42036009,102433177,0.0,0.0,0.5,0.5,0.0,-10.60817813873291,-10.41948413848877,0.0,0.0,0.0,0,-32
1678286687.52032018,102533137,0.0,0.0,0.5,0.5,0.0,-10.627277374267578,-10.423860549926758,0.0,0.0,0.0,0,-26
1678286687.62028003,102633097,0.0,0.0,0.5,0.5,0.0,-10.635905265808105,-10.493821144104004,0.0,0.0,0.0,0,-22
1678286687.72024012,102733057,0.0,0.0,0.5,0.5,0.0,-10.6387300491333,-10.463661193847656,0.0,0.0,0.0,0,-18
1678286687.82020020,102833017,0.0,0.0,0.5,0.5,0.0,-10.636178016662598,-10.75597858428955,0.0,0.0,0.0,0,-14
1678286687.92016006,102932977,0.0,0.0,0.5,0.5,0.0,-10.640975952148438,-10.710554122924805,0.0,0.0,0.0,0,-12
1678286688.02012014,103032937,0.0,0.0,0.5,0.5,0.0,-10.652039527893066,-10.516278266906738,0.0,0.0,0.0,0,-11
1678286688.12007999,103132897,0.0,0.0,0.5,0.5,0.0,-10.657758712768555,-10.420390129089355,0.0,0.0,0.0,0,-9
1678286688.22004008,103232857,0.0,0.0,0.5,0.5,0.0,-10.652559280395508,-10.559181213378906,0.0,0.0,0.0,0,-7
1678286688.32000017,103332817,0.0,0.0,0.5,0.5,0.0,-10.643865585327148,-10.615335464477539,0.0,0.0,0.0,0,-5
1678286688.41996002,103432777,0.0,0.0,0.5,0.5,0.0,-10.63663387298584,-10.638419151306152,0.0,0.0,0.0,0,-3
1678286688.51992011,103532737,0.0,0.0,0.5,0.5,0.0,-10.632020950317383,-10.579313278198242,0.0,0.0,0.0,0,-2
1678286688.61988020,103632697,0.0,0.0,0.5,0.5,0.0,-10.626906394958496,-10.698171615600586,0.0,0.0,0.0,0,-1
1678286688.71984005,103732657,0.0,0.0,0.5,0.5,0.0,-10.625532150268555,-10.671875953674316,0.0,0.0,0.0,0,0
1678286688.82063317,103833450,0.0,0.0,0.5,0.5,0.0,-10.626954078674316,-10.675582885742188,0.0,0.0,0.0,0,0
1678286688.92059302,103933410,0.0,0.0,0.5,0.5,0.0,-10.629883766174316,-10.548145294189453,0.0,0.0,0.0,0,0
1678286689.02055311,104033370,0.0,0.0,0.5,0.5,0.0,-10.62885856628418,-10.807697296142578,0.0,0.0,0.0,0,1
1678286689.12051320,104133330,0.0,0.0,0.5,0.5,0.0,-10.631841659545898,-10.491413116455078,0.0,0.0,0.0,0,1
1678286689.22047305,104233290,0.0,0.0,0.5,0.5,0.0,-10.631125450134277,-10.508052825927734,0.0,0.0,0.0,0,2
1678286689.32043314,104333250,0.0,0.0,0.5,0.5,0.0,-10.622176170349121,-10.818438529968262,0.0,0.0,0.0,0,3
1678286689.42039299,104433210,0.0,0.0,0.5,0.5,0.0,-10.618818283081055,-10.622143745422363,0.0,0.0,0.0,0,3
1678286689.52035308,104533170,0.0,0.0,0.5,0.5,0.0,-10.618438720703125,-10.523853302001953,0.0,0.0,0.0,0,4
1678286689.62031317,104633130,0.0,0.0,0.5,0.5,0.0,-10.612893104553223,-10.703315734863281,0.0,0.0,0.0,0,4
1678286689.72027302,104733090,0.0,0.0,0.5,0.5,0.0,-10.60814094543457,-10.52832317352295,0.0,0.0,0.0,0,5
1678286689.82023311,104833050,0.0,0.0,0.5,0.5,0.0,-10.601298332214355,-10.476890563964844,0.0,0.0,0.0,0,6
1678286689.92019320,104933010,0.0,0.0,0.5,0.5,0.0,-10.588027000427246,-10.83500862121582,0.0,0.0,0.0,0,7
1678286690.02015305,105032970,0.0,0.0,0.5,0.5,0.0,-10.582124710083008,-10.804463386535645,0.0,0.0,0.0,0,7
1678286690.12011313,105132930,0.0,0.0,0.5,0.5,0.0,-10.587512969970703,-10.548808097839355,0.0,0.0,0.0,0,7
1678286690.22007298,105232890,0.0,0.0,0.5,0.5,0.0,-10.591121673583984,-10.736227035522461,0.0,0.0,0.0,0,6
1678286690.32003307,105332850,0.0,0.0,0.5,0.5,0.0,-10.595041275024414,-10.820241928100586,0.0,0.0,0.0,0,6
1678286690.41999316,105432810,0.0,0.0,0.5,0.5,0.0,-10.605542182922363,-10.674365997314453,0.0,0.0,0.0,0,5
1678286690.51995301,105532770,0.0,0.0,0.5,0.5,0.0,-10.616844177246094,-10.455979347229004,0.0,0.0,0.0,0,5
1678286690.61991310,105632730,0.0,0.0,0.5,0.5,0.0,-10.617904663085938,-10.444954872131348,0.0,0.0,0.0,0,5
1678286690.71987319,105732690,0.0,0.0,0.5,0.5,0.0,-10.60712718963623,-10.670724868774414,0.0,0.0,0.0,0,6
1678286690.81983304,105832650,0.0,0.0,0.5,0.5,0.0,-10.596101760864258,-10.782180786132812,0.0,0.0,0.0,0,6
1678286690.92062616,105933443,0.0,0.0,0.5,0.5,0.0,-10.59354305267334,-10.515097618103027,0.0,0.0,0.0,0,6
1678286691.02058601,106033403,0.0,0.0,0.5,0.5,0.0,-10.590047836303711,-10.708510398864746,0.0,0.0,0.0,0,6
1678286691.12054610,106133363,0.0,0.0,0.5,0.5,0.0,-10.58776569366455,-10.605799674987793,0.0,0.0,0.0,0,6
1678286691.22050619,106233323,0.0,0.0,0.5,0.5,0.0,-10.586562156677246,-10.78305721282959,0.0,0.0,0.0,0,6
1678286691.32046604,106333283,0.0,0.0,0.5,0.5,0.0,-10.590524673461914,-10.448923110961914,0.0,0.0,0.0,0,6
1678286691.42042613,106433243,0.0,0.0,0.5,0.5,0.0,-10.58974838256836,-10.561375617980957,0.0,0.0,0.0,0,5
1678286691.52038598,106533203,0.0,0.0,0.5,0.5,0.0,-10.583309173583984,-10.550748825073242,0.0,0.0,0.0,0,6
1678286691.62034607,106633163,0.0,0.0,0.5,0.5,0.0,-10.574926376342773,-10.407670974731445,0.0,0.0,0.0,0,6
1678286691.72030616,106733123,0.0,0.0,0.5,0.5,0.0,-10.560403823852539,-10.397993087768555,0.0,0.0,0.0,0,7
1678286691.82026601,106833083,0.0,0.0,0.5,0.5,0.0,-10.539002418518066,-10.36000919342041,0.0,0.0,0.0,0,8
1678286691.92022610,106933043,0.0,0.0,0.5,0.5,0.0,-10.512124061584473,-10.672805786132812,0.0,0.0,0.0,0,9
1678286692.02018619,107033003,0.0,0.0,0.5,0.5,0.0,-10.492698669433594,-10.372243881225586,0.0,0.0,0.0,0,10
1678286692.12014604,107132963,0.0,0.0,0.5,0.5,0.0,-10.474729537963867,-10.717923164367676,0.0,0.0,0.0,0,10
1678286692.22010612,107232923,0.0,0.0,0.5,0.5,0.0,-10.46517562866211,-10.630139350891113,0.0,0.0,0.0,0,10
1678286692.32006598,107332883,0.0,0.0,0.5,0.5,0.0,-10.465493202209473,-10.491218566894531,0.0,0.0,0.0,0,9
1678286692.42002606,107432843,0.0,0.0,0.5,0.5,0.0,-10.466413497924805,-10.423248291015625,0.0,0.0,0.0,0,9
1678286692.51998615,107532803,0.0,0.0,0.5,0.5,0.0,-10.46280288696289,-10.494516372680664,0.0,9.41,0.0,0,8
1678286692.61994600,107632763,0.0,0.0,0.5,0.5,0.0,-10.457448959350586,-10.269762992858887,0.0,9.41,0.0,0,8
1678286692.71990609,107732723,0.0,0.0,0.5,0.5,0.0,-10.444653511047363,-10.495309829711914,0.0,9.42,0.0,0,9
1678286692.81986618,107832683,0.0,0.0,0.5,0.5,0.0,-10.43085765838623,-10.250048637390137,0.0,9.42,0.0,0,9
1678286692.91982603,107932643,0.0,0.0,0.5,0.5,0.0,-10.41268539428711,-10.430991172790527,0.0,9.41,0.0,0,10
1678286693.02061915,108033436,0.0,0.0,0.5,0.5,0.0,-10.393861770629883,-10.509310722351074,0.0,9.450000000000001,0.0,0,10
1678286693.12057900,108133396,0.0,0.0,0.5,0.5,0.0,-10.381759643554688,-10.362969398498535,0.0,9.450000000000001,0.0,0,10
1678286693.22053909,108233356,0.0,0.0,0.5,0.5,0.0,-10.371339797973633,-10.27148151397705,0.0,9.5,0.0,0,10
1678286693.32049918,108333316,0.0,0.0,0.5,0.5,0.0,-10.35667610168457,-10.229619979858398,0.0,9.5,0.0,0,11
1678286693.42045903,108433276,0.0,0.0,0.5,0.5,0.0,-10.336457252502441,-10.25629997253418,0.0,9.5,0.0,0,11
1678286693.52041912,108533236,0.0,0.0,0.5,0.5,0.0,-10.313347816467285,-10.179947853088379,0.0,9.540000000000001,0.0,0,12
1678286693.62037921,108633196,0.0,0.0,0.5,0.5,0.0,-10.287002563476562,-10.23082160949707,0.0,9.540000000000001,0.0,0,13
1678286693.72033906,108733156,0.0,0.0,0.5,0.5,0.0,-10.259883880615234,-10.50660514831543,0.0,9.59,0.0,0,14
1678286693.82029915,108833116,0.0,0.0,0.5,0.5,0.0,-10.244154930114746,-10.289607048034668,0.0,9.59,0.0,0,14
1678286693.92025900,108933076,0.0,0.0,0.5,0.5,0.0,-10.234747886657715,-10.291581153869629,0.0,9.64,0.0,0,13
1678286694.02021909,109033036,0.0,0.0,0.5,0.5,0.0,-10.226401329040527,-10.515555381774902,0.0,9.64,0.0,0,13
1678286694.12017918,109132996,0.0,0.0,0.5,0.5,0.0,-10.227218627929688,-10.243213653564453,0.0,9.64,0.0,0,12
1678286694.22013903,109232956,0.0,0.0,0.5,0.5,0.0,-10.229317665100098,-10.460110664367676,0.0,9.66,0.0,0,11
1678286694.32009912,109332916,0.0,0.0,0.5,0.5,0.0,-10.235097885131836,-10.332685470581055,0.0,9.66,0.0,0,10
1678286694.42005920,109432876,0.0,0.0,0.5,0.5,0.0,-10.243060111999512,-10.38686466217041,0.0,9.64,0.0,0,9
1678286694.52001905,109532836,0.0,0.0,0.5,0.5,0.0,-10.251980781555176,-10.152084350585938,0.0,9.64,0.0,0,7
1678286694.61997914,109632796,0.0,0.0,0.5,0.5,0.0,-10.254247665405273,-10.393051147460938,0.0,9.64,0.0,0,7
1678286694.71993899,109732756,0.0,0.0,0.5,0.5,0.0,-10.255908012390137,-10.282447814941406,0.0,9.63,0.0,0,6
1678286694.81989908,109832716,0.0,0.0,0.5,0.5,0.0,-10.257984161376953,-10.323312759399414,0.0,9.63,0.0,0,6
1678286694.91985917,109932676,0.0,0.0,0.5,0.5,0.0,-10.259806632995605,-10.175725936889648,0.0,9.620000000000001,0.0,0,5
1678286695.02065206,110033469,0.0,0.0,0.5,0.5,0.0,-10.25711441040039,-10.055112838745117,0.0,9.620000000000001,0.0,0,5
1678286695.12061214,110133429,0.0,0.0,0.5,0.5,0.0,-10.244473457336426,-10.126218795776367,0.0,9.620000000000001,0.0,0,6
1678286695.22057199,110233389,0.0,0.0,0.5,0.5,0.0,-10.22554874420166,-10.027631759643555,0.0,9.63,0.0,0,7
1678286695.32053208,110333349,0.0,0.0,0.5,0.5,0.0,-10.200884819030762,-10.370332717895508,0.0,9.63,0.0,0,8
1678286695.42049217,110433309,0.0,0.0,0.5,0.5,0.0,-10.183411598205566,-10.040290832519531,0.0,9.620000000000001,0.0,0,9
1678286695.52045202,110533269,0.0,0.0,0.5,0.5,0.0,-10.166735649108887,-10.192727088928223,0.0,9.700000000000001,0.0,0,9
1678286695.62041211,110633229,0.0,0.0,0.5,0.5,0.0,-10.15046501159668,-10.267950057983398,0.0,9.700000000000001,0.0,0,9
1678286695.72037220,110733189,0.0,0.0,0.5,0.5,0.0,-10.140748977661133,-10.182201385498047,0.0,9.74,0.0,0,9
1678286695.82033205,110833149,0.0,0.0,0.5,0.5,0.0,-10.13459587097168,-10.004783630371094,0.0,9.74,0.0,0,9
1678286695.92029214,110933109,0.0,0.0,0.5,0.5,0.0,-10.123536109924316,-9.977724075317383,0.0,9.74,0.0,0,9
1678286696.02025199,111033069,0.0,0.0,0.5,0.5,0.0,-10.105061531066895,-10.03332805633545,0.0,9.75,0.0,0,10
1678286696.12021208,111133029,0.0,0.0,0.5,0.5,0.0,-10.083639144897461,-9.93996524810791,0.0,9.75,0.0,0,10
1678286696.22017217,111232989,0.0,0.0,0.5,0.5,0.0,-10.058820724487305,-10.196295738220215,0.0,9.790000000000001,0.0,0,11
1678286696.32013202,111332949,0.0,0.0,0.5,0.5,0.0,-10.039835929870605,-9.96387004852295,0.0,9.790000000000001,0.0,0,12
1678286696.42009211,111432909,0.0,0.0,0.5,0.5,0.0,-10.022716522216797,-10.304610252380371,0.0,9.790000000000001,0.0,0,12
1678286696.52005219,111532869,0.0,0.0,0.5,0.5,0.0,-10.015274047851562,-10.24899673461914,0.0,9.84,0.0,0,12
1678286696.62001204,111632829,0.0,0.0,0.5,0.5,0.0,-10.019664764404297,-10.20598316192627,0.0,9.84,0.0,0,10
1678286696.71997213,111732789,0.0,0.0,0.5,0.5,0.0,-10.029922485351562,-10.219168663024902,0.0,9.870000000000001,0.0,0,9
1678286696.81993198,111832749,0.0,0.0,0.5,0.5,0.0,-10.043802261352539,-10.131247520446777,0.0,9.870000000000001,0.0,0,7
1678286696.91989207,111932709,0.0,0.0,0.5,0.5,0.0,-10.057037353515625,-9.864455223083496,0.0,9.870000000000001,0.0,0,6
1678286697.01985216,112032669,0.0,0.0,0.5,0.5,0.0,-10.058469772338867,-9.853294372558594,0.0,9.83,0.0,0,6
1678286697.12064505,112133462,0.0,0.0,0.5,0.5,0.0,-10.044892311096191,-10.039040565490723,0.0,9.83,0.0,0,6
1678286697.22060513,112233422,0.0,0.0,0.5,0.5,0.0,-10.03009033203125,-10.029224395751953,0.0,9.83,0.0,0,7
1678286697.32056499,112333382,0.0,0.0,0.5,0.5,0.0,-10.01714038848877,-10.163803100585938,0.0,9.83,0.0,0,7
1678286697.42052507,112433342,0.33125075697898865,0.0,0.4421502947807312,0.5,-10.009510040283203,-10.011608123779297,-9.804704666137695,9.81,9.870000000000001,0.0,7,7
1678286697.52048516,112533302,0.3915866017341614,0.0,0.395486444234848,0.5,-10.003835678100586,-10.00006103515625,-10.159001350402832,9.81,9.870000000000001,0.0,3,4
1678286697.62044501,112633262,0.41438016295433044,0.0,0.3945707678794861,0.5,-10.00068187713623,-9.997773170471191,-10.187786102294922,9.81,9.870000000000001,0.0,1,0
1678286697.72040510,112733222,0.476728618144989,0.0,0.43035000562667847,0.5,-9.999650001525879,-10.008756637573242,-9.89921760559082,9.81,9.88,0.0,2,-2
1678286697.82036519,112833182,0.5074704885482788,0.0,0.4806669354438782,0.5,-10.000448226928711,-10.016217231750488,-9.811896324157715,9.81,9.88,0.0,3,-3
1678286697.92032504,112933142,0.467028945684433,0.0,0.48922842741012573,0.5,-10.002866744995117,-10.012301445007324,-10.128667831420898,9.81,9.870000000000001,0.0,0,-2
1678286698.02028513,113033102,0.4047132134437561,0.0,0.4381324350833893,0.5,-10.006661415100098,-10.012203216552734,-9.84432315826416,9.81,9.870000000000001,0.0,-2,-1
1678286698.12024498,113133062,0.3929499685764313,0.0,0.41203051805496216,0.5,-10.011595726013184,-10.008072853088379,-10.124759674072266,9.81,9.870000000000001,0.0,-6,-3
1678286698.22020507,113233022,0.4075004458427429,0.0,0.3982963562011719,0.5,-10.017484664916992,-10.011130332946777,-9.943288803100586,9.81,9.870000000000001,0.0,-8,-6
1678286698.32016516,113332982,0.42685890197753906,0.0,0.4151742458343506,0.5,-10.024175643920898,-10.016525268554688,-9.808892250061035,9.81,9.870000000000001,0.0,-9,-8
1678286698.42012501,113432942,0.3997381329536438,0.0,0.41606754064559937,0.5,-10.031540870666504,-10.015474319458008,-9.923501968383789,9.81,9.870000000000001,0.0,-12,-9
1678286698.52008510,113532902,0.3720863461494446,0.0,0.3905019164085388,0.5,-10.039478302001953,-10.013118743896484,-9.927624702453613,9.81,9.870000000000001,0.0,-16,-10
1678286698.62004519,113632862,0.3722476065158844,0.0,0.3771212697029114,0.5,-10.047903060913086,-10.013285636901855,-9.950812339782715,9.81,9.870000000000001,0.0,-19,-13
1678286698.72000504,113732822,0.3782883882522583,0.0,0.37588077783584595,0.5,-10.056744575500488,-10.017681121826172,-10.143777847290039,9.81,9.870000000000001,0.0,-20,-16
1678286698.81996512,113832782,0.4122636616230011,0.0,0.38792410492897034,0.5,-10.06594181060791,-10.03352165222168,-10.241145133972168,9.81,9.870000000000001,0.0,-19,-19
1678286698.91992521,113932742,0.47915294766426086,0.0,0.4289216101169586,0.5,-10.075440406799316,-10.06229305267334,-9.95302677154541,9.81,9.870000000000001,0.0,-13,-19
1678286699.01988506,114032702,0.5393717288970947,0.0,0.4933486580848694,0.5,-10.085179328918457,-10.085868835449219,-10.13289737701416,9.81,9.84,0.0,-9,-17
1678286699.11984515,114132662,0.58538818359375,0.0,0.5491189360618591,0.5,-10.094935417175293,-10.10658073425293,-10.236241340637207,9.81,9.84,0.0,-6,-15
1678286699.22063804,114233455,0.6121176481246948,0.0,0.5857266187667847,0.5,-10.104545593261719,-10.129446983337402,-10.237634658813477,9.81,9.790000000000001,0.0,-1,-12
1678286699.32059813,114333415,0.6252802610397339,0.0,0.6131880879402161,0.5,-10.113433837890625,-10.151548385620117,-10.145137786865234,9.81,9.790000000000001,0.0,2,-7
1678286699.42055798,114433375,0.6015883684158325,0.0,0.6161479949951172,0.5,-10.121321678161621,-10.165586471557617,-10.10905647277832,9.81,9.790000000000001,0.0,5,-2
1678286699.52051806,114533335,0.5643550157546997,0.0,0.5932680368423462,0.5,-10.128026962280273,-10.168760299682617,-10.028951644897461,9.81,9.74,0.0,6,2
1678286699.62047815,114633295,0.510384738445282,0.0,0.5559644103050232,0.5,-10.133211135864258,-10.16029167175293,-10.281002044677734,9.81,9.74,0.0,3,5
1678286699.72043800,114733255,0.4777648150920868,0.0,0.5086761116981506,0.5,-10.136589050292969,-10.154401779174805,-10.028913497924805,9.81,9.72,0.0,2,6
1678286699.82039809,114833215,0.4478597342967987,0.0,0.48019304871559143,0.5,-10.13796615600586,-10.14419937133789,-10.15559196472168,9.81,9.72,0.0,1,6
1678286699.92035818,114933175,0.42366477847099304,0.0,0.4454203248023987,0.5,-10.13726806640625,-10.13369369506836,-10.202585220336914,9.81,9.72,0.0,0,6
1678286700.02031803,115033135,0.44459059834480286,0.0,0.4378945827484131,0.5,-10.134561538696289,-10.127897262573242,-10.31493854522705,9.81,9.75,0.0,1,5
1678286700.12027812,115133095,0.5069027543067932,0.0,0.4650880992412567,0.5,-10.130157470703125,-10.131434440612793,-10.081493377685547,9.81,9.75,0.0,5,4
1678286700.22023821,115233055,0.5901071429252625,0.0,0.5300829410552979,0.5,-10.124399185180664,-10.132768630981445,-9.988358497619629,9.81,9.75,0.0,8,4
1678286700.32019806,115333015,0.5739702582359314,0.0,0.5745278000831604,0.5,-10.117552757263184,-10.124862670898438,-10.043795585632324,9.81,9.75,0.0,9,6
1678286700.42015815,115432975,0.5226908922195435,0.0,0.5530884265899658,0.5,-10.109807968139648,-10.110306739807129,-10.125672340393066,9.81,9.75,0.0,8,8
1678286700.52011800,115532935,0.49161890149116516,0.0,0.5169040560722351,0.5,-10.101325988769531,-10.096116065979004,-10.076255798339844,9.81,9.76,0.0,7,9
1678286700.62007809,115632895,0.45613956451416016,0.0,0.48411980271339417,0.5,-10.092262268066406,-10.082534790039062,-10.19839859008789,9.81,9.76,0.0,6,9
1678286700.72003818,115732855,0.46058306097984314,0.0,0.4596857726573944,0.5,-10.08279037475586,-10.074650764465332,-10.184235572814941,9.81,9.790000000000001,0.0,7,8
1678286700.81999803,115832815,0.498384952545166,0.0,0.47427278757095337,0.5,-10.07312297821045,-10.07260799407959,-10.189471244812012,9.81,9.790000000000001,0.0,9,8
1678286700.91995811,115932775,0.5760231018066406,0.0,0.5194146037101746,0.5,-10.063565254211426,-10.074774742126465,-10.021445274353027,9.81,9.81,0.0,12,7
1678286701.01991820,116032735,0.5994614958763123,0.0,0.5763949155807495,0.5,-10.054361343383789,-10.072653770446777,-9.951552391052246,9.81,9.81,0.0,14,8
1678286701.11987805,116132695,0.5474421381950378,0.0,0.5723658204078674,0.5,-10.045751571655273,-10.061020851135254,-9.996258735656738,9.81,9.81,0.0,12,10
1678286701.21983814,116232655,0.4839649200439453,0.0,0.5281007289886475,0.5,-10.037856101989746,-10.04393482208252,-10.105177879333496,9.81,9.83,0.0,9,11
1678286701.32063103,116333448,0.406874418258667,0.0,0.46292781829833984,0.5,-10.030714988708496,-10.029934883117676,-9.871315956115723,9.81,9.83,0.0,6,11
1678286701.42059112,116433408,0.37380123138427734,0.0,0.409239798784256,0.5,-10.024575233459473,-10.011720657348633,-9.850531578063965,9.81,9.85,0.0,1,9
1678286701.52055120,116533368,0.3533436059951782,0.0,0.37392106652259827,0.5,-10.019475936889648,-9.9910306930542,-10.096794128417969,9.81,9.85,0.0,-3,6
1678286701.62051105,116633328,0.3847886919975281,0.0,0.3651069700717926,0.5,-10.015542984008789,-9.980375289916992,-10.030461311340332,9.81,9.91,0.0,-7,0
1678286701.72047114,116733288,0.42844587564468384,0.0,0.3942503333091736,0.5,-10.012943267822266,-9.982059478759766,-9.967497825622559,9.81,9.91,0.0,-7,-5
1678286701.82043099,116833248,0.44752001762390137,0.0,0.42430633306503296,0.5,-10.011884689331055,-9.988454818725586,-10.113080024719238,9.81,9.91,0.0,-6,-7
1678286701.92039108,116933208,0.4705612361431122,0.0,0.44484034180641174,0.5,-10.012625694274902,-10.000642776489258,-10.139693260192871,9.81,9.91,0.0,-5,-8
1678286702.02035117,117033168,0.5178946852684021,0.0,0.47958433628082275,0.5,-10.015257835388184,-10.01924991607666,-10.013436317443848,9.81,9.89,0.0,-2,-8
1678286702.12031102,117133128,0.5911266803741455,0.0,0.5378638505935669,0.5,-10.019624710083008,-10.036652565002441,-10.172253608703613,9.81,9.89,0.0,0,-8
1678286702.22027111,117233088,0.6008527278900146,0.0,0.5779465436935425,0.5,-10.025472640991211,-10.05473804473877,-10.06098461151123,9.81,9.85,0.0,2,-6
1678286702.32023120,117333048,0.5894865393638611,0.0,0.5926195383071899,0.5,-10.032354354858398,-10.069497108459473,-10.060951232910156,9.81,9.85,0.0,3,-3
1678286702.42019105,117433008,0.55349200963974,0.0,0.5762019157409668,0.5,-10.039848327636719,-10.077427864074707,-9.916239738464355,9.81,9.85,0.0,3,0
1678286702.52015114,117532968,0.49587276577949524,0.0,0.5408905148506165,0.5,-10.047669410705566,-10.074804306030273,-10.164071083068848,9.81,9.81,0.0,0,1
1678286702.62011099,117632928,0.4141917824745178,0.0,0.476168155670166,0.5,-10.055388450622559,-10.07148265838623,-10.036469459533691,9.81,9.81,0.0,-2,2
1678286702.72007108,117732888,0.39357903599739075,0.0,0.42077744007110596,0.5,-10.062664031982422,-10.06881046295166,-9.960051536560059,9.81,9.81,0.0,-5,1
1678286702.82003117,117832848,0.3919682800769806,0.0,0.40384942293167114,0.5,-10.069316864013672,-10.06350326538086,-10.113678932189941,9.81,9.81,0.0,-8,0
1678286702.91999102,117932808,0.4072635769844055,0.0,0.3994572162628174,0.5,-10.075272560119629,-10.06225299835205,-9.915563583374023,9.81,9.81,0.0,-9,-3
1678286703.01995111,118032768,0.4225922226905823,0.0,0.4166935980319977,0.5,-10.080498695373535,-10.061033248901367,-9.9097261428833,9.81,9.77,0.0,-10,-5
1678286703.11991119,118132728,0.4102986454963684,0.0,0.4196750521659851,0.5,-10.084766387939453,-10.05585765838623,-10.027494430541992,9.81,9.75,0.0,-12,-6
1678286703.21987104,118232688,0.41516226530075073,0.0,0.41514402627944946,0.5,-10.087743759155273,-10.05227279663086,-10.152714729309082,9.81,9.72,0.0,-12,-7
1678286703.31983113,118332648,0.4636157155036926,0.0,0.4346432387828827,0.5,-10.089056968688965,-10.056958198547363,-9.828664779663086,9.81,9.700000000000001,0.0,-9,-8
1678286703.42062402,118433441,0.5087581872940063,0.0,0.48377373814582825,0.5,-10.088335990905762,-10.057635307312012,-9.885436058044434,9.81,9.67,0.0,-7,-7
1678286703.52058411,118533401,0.5208345055580139,0.0,0.5131767392158508,0.5,-10.085236549377441,-10.04975700378418,-9.998140335083008,9.81,9.64,0.0,-6,-5
1678286703.62054420,118633361,0.5259959697723389,0.0,0.5230440497398376,0.5,-10.079395294189453,-10.04061508178711,-10.15974235534668,9.81,9.620000000000001,0.0,-4,-4
1678286703.72050405,118733321,0.5759987831115723,0.0,0.5462029576301575,0.5,-10.070514678955078,-10.038293838500977,-9.889431953430176,9.81,9.620000000000001,0.0,0,-2
1678286703.82046413,118833281,0.6179736852645874,0.0,0.5971518754959106,0.5,-10.05849838256836,-10.033170700073242,-9.953211784362793,9.81,9.59,0.0,6,0
1678286703.92042398,118933241,0.591377854347229,0.0,0.6051024198532104,0.5,-10.043254852294922,-10.020397186279297,-10.10925579071045,9.81,9.58,0.0,10,6
1678286704.02038407,119033201,0.6008896231651306,0.0,0.5993184447288513,0.5,-10.024720191955566,-10.007196426391602,-10.148338317871094,9.81,9.55,0.0,14,10
1678286704.12034416,119133161,0.6424322724342346,0.0,0.6203406453132629,0.5,-10.002798080444336,-9.99743938446045,-10.221831321716309,9.81,9.52,0.0,22,15
1678286704.22030401,119233121,0.6832152605056763,0.0,0.655892550945282,0.5,-9.977324485778809,-9.991491317749023,-10.086874008178711,9.81,9.540000000000001,0.0,31,20
1678286704.32026410,119333081,0.698117196559906,0.0,0.6855812668800354,0.5,-9.94832992553711,-9.980935096740723,-9.974712371826172,9.81,9.5,0.0,40,28
1678286704.42022419,119433041,0.7000377178192139,0.0,0.7014118432998657,0.5,-9.916007041931152,-9.957578659057617,-9.884984970092773,9.81,9.5,0.0,46,37
1678286704.52018404,119533001,0.6907981038093567,0.0,0.702292799949646,0.5,-9.880400657653809,-9.919443130493164,-9.76788330078125,9.81,9.47,0.0,48,43
1678286704.62014413,119632961,0.6713276505470276,0.0,0.6938092112541199,0.5,-9.841582298278809,-9.86705493927002,-9.743918418884277,9.81,9.450000000000001,0.0,48,47
1678286704.72010398,119732921,0.6526005268096924,0.0,0.6758269667625427,0.5,-9.799520492553711,-9.806431770324707,-10.020059585571289,9.81,9.52,0.0,45,48
1678286704.82006407,119832881,0.6689715385437012,0.0,0.6610980033874512,0.5,-9.754469871520996,-9.754146575927734,-9.846263885498047,9.81,9.5,0.0,46,47
1678286704.92002416,119932841,0.7011449337005615,0.0,0.6825886964797974,0.5,-9.707012176513672,-9.710549354553223,-9.543076515197754,9.81,9.620000000000001,0.0,49,46
1678286705.01998401,120032801,0.6796560883522034,0.0,0.6877346038818359,0.5,-9.657851219177246,-9.65977954864502,-9.880341529846191,9.81,9.59,0.0,50,48
1678286705.11994410,120132761,0.6913707256317139,0.0,0.6805979609489441,0.5,-9.608050346374512,-9.612256050109863,-9.815543174743652,9.81,9.56,0.0,51,48
1678286705.21990418,120232721,0.7223817110061646,0.0,0.6992393732070923,0.5,-9.55807113647461,-9.574041366577148,-9.64323902130127,9.81,9.66,0.0,54,48
1678286705.31986403,120332681,0.7266590595245361,0.0,0.7140220403671265,0.5,-9.508344650268555,-9.535683631896973,-9.649017333984375,9.81,9.64,0.0,57,50
1678286705.41982412,120432641,0.7290070056915283,0.0,0.7206995487213135,0.5,-9.45956039428711,-9.494966506958008,-9.296669960021973,9.81,9.700000000000001,0.0,58,52
1678286705.52061701,120533434,0.69061279296875,0.0,0.7107173204421997,0.5,-9.411775588989258,-9.441961288452148,-9.651514053344727,9.81,9.67,0.0,55,53
1678286705.62057710,120633394,0.6847599148750305,0.0,0.6872833371162415,0.5,-9.366229057312012,-9.391274452209473,-9.520890235900879,9.81,9.77,0.0,52,51
1678286705.72053719,120733354,0.6901976466178894,0.0,0.68180251121521,0.5,-9.322768211364746,-9.349172592163086,-9.241153717041016,9.81,9.75,0.0,50,48
1678286705.82049704,120833314,0.6582095623016357,0.0,0.6721864342689514,0.5,-9.281634330749512,-9.303741455078125,-9.497036933898926,9.81,9.72,0.0,46,46
1678286705.92045712,120933274,0.6539468169212341,0.0,0.6535175442695618,0.5,-9.243036270141602,-9.262892723083496,-9.37393856048584,9.81,9.81,0.0,43,43
1678286706.02041698,121033234,0.6490405201911926,0.0,0.645184338092804,0.5,-9.207088470458984,-9.22952938079834,-9.052427291870117,9.81,9.790000000000001,0.0,41,40
1678286706.12037706,121133194,0.6110021471977234,0.0,0.6340449452400208,0.5,-9.174206733703613,-9.190390586853027,-9.293733596801758,9.81,9.790000000000001,0.0,36,38
1678286706.22033715,121233154,0.569627046585083,0.0,0.5935754776000977,0.5,-9.144452095031738,-9.15273380279541,-9.142778396606445,9.81,9.85,0.0,30,35
1678286706.32029700,121333114,0.5402228236198425,0.0,0.5611415505409241,0.5,-9.118027687072754,-9.120095252990723,-9.06890869140625,9.81,9.83,0.0,25,30
1678286706.42025709,121433074,0.49386781454086304,0.0,0.5247921943664551,0.5,-9.094972610473633,-9.088540077209473,-9.04432487487793,9.81,9.83,0.0,19,26
