,timestamp,TimeUS,ThI,ABst,ThO,ThH,DAlt,Alt,BAlt,DSAlt,SAlt,TAlt,DCRt,CRt,terrain_z,sub_z,rf
0,2023-03-08 06:44:14.920032024-08:00,69932849,0.0,0.0,0.5,0.5,0.0,-0.2103305459022522,-0.098028540611267,0.0,0.0,0.0,0,-1,,,
1,2023-03-08 06:44:15.019992113-08:00,70032809,0.0,0.0,0.5,0.5,0.0,-0.2100186347961425,-0.0346253179013729,0.0,0.0,0.0,0,-1,,,
2,2023-03-08 06:44:15.119952202-08:00,70132769,0.0,0.0,0.5,0.5,0.0,-0.201085940003395,-0.2599844634532928,0.0,0.0,0.0,0,0,,,
3,2023-03-08 06:44:15.219912052-08:00,70232729,0.0,0.0,0.5,0.5,0.0,-0.1936887055635452,-0.3345288634300232,0.0,0.0,0.0,0,0,,,
4,2023-03-08 06:44:15.319872141-08:00,70332689,0.0,0.0,0.5,0.5,0.0,-0.1953432559967041,-0.3503734767436981,0.0,0.0,0.0,0,0,,,
5,2023-03-08 06:44:15.419831991-08:00,70432649,0.0,0.0,0.5,0.5,0.0,-0.205628752708435,-0.2221006006002426,0.0,0.0,0.0,0,0,,,
6,2023-03-08 06:44:15.520625114-08:00,70533442,0.0,0.0,0.5,0.5,0.0,-0.2180512249469757,-0.3335216045379638,0.0,0.0,0.0,0,-1,,,
7,2023-03-08 06:44:15.620585203-08:00,70633402,0.0,0.0,0.5,0.5,0.0,-0.2317477166652679,-0.1065242365002632,0.0,0.0,0.0,0,-2,,,
8,2023-03-08 06:44:15.720545053-08:00,70733362,0.0,0.0,0.5,0.5,0.0,-0.2380231171846389,-0.1691956371068954,0.0,0.0,0.0,0,-3,,,
9,2023-03-08 06:44:15.820505142-08:00,70833322,0.0,0.0,0.5,0.5,0.0,-0.2384372800588607,-0.3852674663066864,0.0,0.0,0.0,0,-2,,,
10,2023-03-08 06:44:15.920464993-08:00,70933282,0.0,0.0,0.5,0.5,0.0,-0.2452785819768905,-0.2035331577062606,0.0,0.0,0.0,0,-3,,,
11,2023-03-08 06:44:16.020425081-08:00,71033242,0.0,0.0,0.5,0.5,0.0,-0.2511890232563019,-0.1882947981357574,0.0,0.0,0.0,0,-3,,,
12,2023-03-08 06:44:16.120385170-08:00,71133202,0.0,0.0,0.5,0.5,0.0,-0.2529777586460113,-0.4033266901969909,0.0,0.0,0.0,0,-3,,,
13,2023-03-08 06:44:16.220345020-08:00,71233162,0.0,0.0,0.5,0.5,0.0,-0.261293351650238,-0.3999549448490143,0.0,0.0,0.0,0,-3,,,
14,2023-03-08 06:44:16.320305109-08:00,71333122,0.0,0.0,0.5,0.5,0.0,-0.2766883671283722,-0.2957306206226349,0.0,0.0,0.0,0,-4,,,
15,2023-03-08 06:44:16.420265198-08:00,71433082,0.0,0.0,0.5,0.5,0.0,-0.2918280363082886,-0.2366310656070709,0.0,0.0,0.0,0,-5,,,
16,2023-03-08 06:44:16.520225048-08:00,71533042,0.0,0.0,0.5,0.5,0.0,-0.30194953083992,-0.2862791121006012,0.0,0.0,0.0,0,-5,,,
17,2023-03-08 06:44:16.620185137-08:00,71633002,0.0,0.0,0.5,0.5,0.0,-0.3094690442085266,-0.4081804156303406,0.0,0.0,0.0,0,-5,,,
18,2023-03-08 06:44:16.720144987-08:00,71732962,0.0,0.0,0.5,0.5,0.0,-0.3210203051567077,-0.1997389197349548,0.0,0.0,0.0,0,-6,,,
19,2023-03-08 06:44:16.820105076-08:00,71832922,0.0,0.0,0.5,0.5,0.0,-0.3271107375621795,-0.0667566135525703,0.0,0.0,0.0,0,-6,,,
20,2023-03-08 06:44:16.920065165-08:00,71932882,0.0,0.0,0.5,0.5,0.0,-0.3200836181640625,-0.0837073475122451,0.0,0.0,0.0,0,-5,,,
21,2023-03-08 06:44:17.020025015-08:00,72032842,0.0,0.0,0.5,0.5,0.0,-0.302812784910202,-0.2660479247570038,0.0,0.0,0.0,0,-3,,,
22,2023-03-08 06:44:17.119985104-08:00,72132802,0.0,0.0,0.5,0.5,0.0,-0.2873229086399078,-0.0763954892754554,0.0,0.0,0.0,0,-2,,,
23,2023-03-08 06:44:17.219945192-08:00,72232762,0.0,0.0,0.5,0.5,0.0,-0.2675762772560119,-0.2938392758369446,0.0,0.0,0.0,0,0,,,
24,2023-03-08 06:44:17.319905043-08:00,72332722,0.0,0.0,0.5,0.5,0.0,-0.2527649104595184,-0.1566545814275741,0.0,0.0,0.0,0,0,,,
25,2023-03-08 06:44:17.419865131-08:00,72432682,0.0,0.0,0.5,0.5,0.0,-0.2387457937002182,-0.1787711232900619,0.0,0.0,0.0,0,1,,,
26,2023-03-08 06:44:17.519824982-08:00,72532642,0.0,0.0,0.5,0.5,0.0,-0.2249093055725097,-0.0982764661312103,0.0,0.0,0.0,0,2,,,
27,2023-03-08 06:44:17.620618105-08:00,72633435,0.0,0.0,0.5,0.5,0.0,-0.2083184719085693,-0.0799123123288154,0.0,0.0,0.0,0,3,,,
28,2023-03-08 06:44:17.720578194-08:00,72733395,0.0,0.0,0.5,0.5,0.0,-0.1884683221578598,-0.3333824872970581,0.0,0.0,0.0,0,4,,,
29,2023-03-08 06:44:17.820538044-08:00,72833355,0.0,0.0,0.5,0.5,0.0,-0.1781260520219802,-0.3020575642585754,0.0,0.0,0.0,0,4,,,
30,2023-03-08 06:44:17.920498133-08:00,72933315,0.0,0.0,0.5,0.5,0.0,-0.1773154288530349,-0.101045124232769,0.0,0.0,0.0,0,3,,,
31,2023-03-08 06:44:18.020457983-08:00,73033275,0.0,0.0,0.5,0.5,0.0,-0.1742532849311828,-0.2384869307279586,0.0,0.0,0.0,0,3,,,
32,2023-03-08 06:44:18.120418072-08:00,73133235,0.0,0.0,0.5,0.5,0.0,-0.1727499365806579,-0.0553260520100593,0.0,0.0,0.0,0,3,,,
33,2023-03-08 06:44:18.220378160-08:00,73233195,0.0,0.0,0.5,0.5,0.0,-0.1660432368516922,-0.1498349756002426,0.0,0.0,0.0,0,3,,,
34,2023-03-08 06:44:18.320338011-08:00,73333155,0.0,0.0,0.5,0.5,0.0,-0.1576722860336303,-0.1668498814105987,0.0,0.0,0.0,0,3,,,
35,2023-03-08 06:44:18.420298100-08:00,73433115,0.0,0.0,0.5,0.5,0.0,-0.1505142748355865,-0.0382904186844825,0.0,0.0,0.0,0,4,,,
36,2023-03-08 06:44:18.520258188-08:00,73533075,0.0,0.0,0.5,0.5,0.0,-0.1390035599470138,-0.4003571569919586,0.0,0.0,0.0,0,4,,,
37,2023-03-08 06:44:18.620218039-08:00,73633035,0.0,0.0,0.5,0.5,0.0,-0.1392800509929657,-0.1575896888971328,0.0,0.0,0.0,0,4,,,
38,2023-03-08 06:44:18.720178127-08:00,73732995,0.0,0.0,0.5,0.5,0.0,-0.1421047151088714,-0.2200884819030761,0.0,0.0,0.0,0,3,,,
39,2023-03-08 06:44:18.820137978-08:00,73832955,0.0,0.0,0.5,0.5,0.0,-0.146180510520935,-0.2713990807533264,0.0,0.0,0.0,0,3,,,
40,2023-03-08 06:44:18.920098066-08:00,73932915,0.0,0.0,0.5,0.5,0.0,-0.1542016416788101,-0.3230125904083252,0.0,0.0,0.0,0,2,,,
41,2023-03-08 06:44:19.020058155-08:00,74032875,0.0,0.0,0.5,0.5,0.0,-0.1677287220954895,-0.3236925899982452,0.0,0.0,0.0,0,1,,,
42,2023-03-08 06:44:19.120018005-08:00,74132835,0.0,0.0,0.5,0.5,0.0,-0.1854393780231475,-0.1316737085580825,0.0,0.0,0.0,0,0,,,
43,2023-03-08 06:44:19.219978094-08:00,74232795,0.0,0.0,0.5,0.5,0.0,-0.1969987452030182,-0.2676259577274322,0.0,0.0,0.0,0,0,,,
44,2023-03-08 06:44:19.319938183-08:00,74332755,0.0,0.0,0.5,0.5,0.0,-0.2072061151266098,-0.1292470544576645,0.0,0.0,0.0,0,-1,,,
45,2023-03-08 06:44:19.419898033-08:00,74432715,0.0,0.0,0.5,0.5,0.0,-0.2117842584848404,-0.0349617339670658,0.0,0.0,0.0,0,-1,,,
46,2023-03-08 06:44:19.519858122-08:00,74532675,0.0,0.0,0.5,0.5,0.0,-0.2062055319547653,-0.1739600598812103,0.0,0.0,0.0,0,0,,,
47,2023-03-08 06:44:19.620651007-08:00,74633468,0.0,0.0,0.5,0.5,0.0,-0.1985033601522445,-0.350678026676178,0.0,0.0,0.0,0,0,,,
48,2023-03-08 06:44:19.720611095-08:00,74733428,0.0,0.0,0.5,0.5,0.0,-0.1992768794298172,-0.264173299074173,0.0,0.0,0.0,0,0,,,
49,2023-03-08 06:44:19.820571184-08:00,74833388,0.0,0.0,0.5,0.5,0.0,-0.2042771875858307,-0.0132641103118658,0.0,0.0,0.0,0,0,,,
50,2023-03-08 06:44:19.920531034-08:00,74933348,0.0,0.0,0.5,0.5,0.0,-0.2019454687833786,-0.0913974791765213,0.0,0.0,0.0,0,0,,,
51,2023-03-08 06:44:20.020491123-08:00,75033308,0.0,0.0,0.5,0.5,0.0,-0.1922640800476074,-0.1340876072645187,0.0,0.0,0.0,0,0,,,
52,2023-03-08 06:44:20.120451212-08:00,75133268,0.0,0.0,0.5,0.5,0.0,-0.1809017658233642,-0.3557290434837341,0.0,0.0,0.0,0,1,,,
53,2023-03-08 06:44:20.220411062-08:00,75233228,0.0,0.0,0.5,0.5,0.0,-0.1779176443815231,-0.2239692211151123,0.0,0.0,0.0,0,1,,,
54,2023-03-08 06:44:20.320371151-08:00,75333188,0.0,0.0,0.5,0.5,0.0,-0.1806297600269317,-0.2155141830444336,0.0,0.0,0.0,0,1,,,
55,2023-03-08 06:44:20.420331001-08:00,75433148,0.0,0.0,0.5,0.5,0.0,-0.1843172162771225,-0.3278918266296386,0.0,0.0,0.0,0,0,,,
56,2023-03-08 06:44:20.520291089-08:00,75533108,0.0,0.0,0.5,0.5,0.0,-0.1925254166126251,-0.0158848855644464,0.0,0.0,0.0,0,0,,,
57,2023-03-08 06:44:20.620251179-08:00,75633068,0.0,0.0,0.5,0.5,0.0,-0.1943503767251968,-0.0654388517141342,0.0,0.0,0.0,0,0,,,
58,2023-03-08 06:44:20.720211029-08:00,75733028,0.0,0.0,0.5,0.5,0.0,-0.1871179342269897,-0.3077539205551147,0.0,0.0,0.0,0,0,,,
59,2023-03-08 06:44:20.820171118-08:00,75832988,0.0,0.0,0.5,0.5,0.0,-0.1836108118295669,-0.1176287457346916,0.0,0.0,0.0,0,1,,,
60,2023-03-08 06:44:20.920131207-08:00,75932948,0.0,0.0,0.5,0.5,0.0,-0.1807743608951568,-0.4086124897003174,0.0,0.0,0.0,0,1,,,
61,2023-03-08 06:44:21.020091057-08:00,76032908,0.0,0.0,0.5,0.5,0.0,-0.1854867935180664,-0.3051016330718994,0.0,0.0,0.0,0,0,,,
62,2023-03-08 06:44:21.120051146-08:00,76132868,0.0,0.0,0.5,0.5,0.0,-0.197408989071846,-0.0593024566769599,0.0,0.0,0.0,0,0,,,
63,2023-03-08 06:44:21.220010996-08:00,76232828,0.0,0.0,0.5,0.5,0.0,-0.2029170542955398,-0.1630978882312774,0.0,0.0,0.0,0,0,,,
64,2023-03-08 06:44:21.319971085-08:00,76332788,0.0,0.0,0.5,0.5,0.0,-0.2025165557861328,-0.0448732450604438,0.0,0.0,0.0,0,0,,,
65,2023-03-08 06:44:21.419931173-08:00,76432748,0.0,0.0,0.5,0.5,0.0,-0.1956300735473632,-0.3459606170654297,0.0,0.0,0.0,0,0,,,
66,2023-03-08 06:44:21.519891024-08:00,76532708,0.0,0.0,0.5,0.5,0.0,-0.1931032687425613,-0.2569515407085418,0.0,0.0,0.0,0,0,,,
67,2023-03-08 06:44:21.619851112-08:00,76632668,0.0,0.0,0.5,0.5,0.0,-0.1965356916189193,-0.0491868630051612,0.0,0.0,0.0,0,0,,,
68,2023-03-08 06:44:21.720643997-08:00,76733461,0.0,0.0,0.5,0.5,0.0,-0.1947178840637207,-0.3214150071144104,0.0,0.0,0.0,0,0,,,
69,2023-03-08 06:44:21.820604086-08:00,76833421,0.0,0.0,0.5,0.5,0.0,-0.1950573921203613,-0.1996763348579406,0.0,0.0,0.0,0,0,,,
70,2023-03-08 06:44:21.920564175-08:00,76933381,0.0,0.0,0.5,0.5,0.0,-0.1978639215230941,-0.0874202772974968,0.0,0.0,0.0,0,0,,,
71,2023-03-08 06:44:22.020524025-08:00,77033341,0.0,0.0,0.5,0.5,0.0,-0.1957948505878448,-0.194376990199089,0.0,0.0,0.0,0,0,,,
72,2023-03-08 06:44:22.120484114-08:00,77133301,0.0,0.0,0.5,0.5,0.0,-0.1920003890991211,-0.3720758855342865,0.0,0.0,0.0,0,0,,,
73,2023-03-08 06:44:22.220444202-08:00,77233261,0.0,0.0,0.5,0.5,0.0,-0.1957527846097946,-0.3990728557109833,0.0,0.0,0.0,0,0,,,
74,2023-03-08 06:44:22.320404053-08:00,77333221,0.0,0.0,0.5,0.5,0.0,-0.2092854231595993,-0.3311694860458374,0.0,0.0,0.0,0,0,,,
75,2023-03-08 06:44:22.420364141-08:00,77433181,0.0,0.0,0.5,0.5,0.0,-0.2273467928171157,-0.0764194056391716,0.0,0.0,0.0,0,-2,,,
76,2023-03-08 06:44:22.520323992-08:00,77533141,0.0,0.0,0.5,0.5,0.0,-0.2372389137744903,-0.3887739181518554,0.0,0.0,0.0,0,-2,,,
77,2023-03-08 06:44:22.620284081-08:00,77633101,0.0,0.0,0.5,0.5,0.0,-0.247302159667015,-0.1206684485077858,0.0,0.0,0.0,0,-2,,,
78,2023-03-08 06:44:22.720244169-08:00,77733061,0.0,0.0,0.5,0.5,0.0,-0.253478854894638,-0.1979025900363922,0.0,0.0,0.0,0,-3,,,
79,2023-03-08 06:44:22.820204020-08:00,77833021,0.0,0.0,0.5,0.5,0.0,-0.2541914284229278,-0.1830608248710632,0.0,0.0,0.0,0,-2,,,
80,2023-03-08 06:44:22.920164108-08:00,77932981,0.0,0.0,0.5,0.5,0.0,-0.251932293176651,-0.2025247067213058,0.0,0.0,0.0,0,-2,,,
81,2023-03-08 06:44:23.020124197-08:00,78032941,0.0,0.0,0.5,0.5,0.0,-0.2480755746364593,-0.2492303103208542,0.0,0.0,0.0,0,-1,,,
82,2023-03-08 06:44:23.120084047-08:00,78132901,0.0,0.0,0.5,0.5,0.0,-0.2452621012926101,-0.3881815969944,0.0,0.0,0.0,0,-1,,,
83,2023-03-08 06:44:23.220044136-08:00,78232861,0.0,0.0,0.5,0.5,0.0,-0.2492846995592117,-0.2535738348960876,0.0,0.0,0.0,0,-1,,,
84,2023-03-08 06:44:23.320003986-08:00,78332821,0.0,0.0,0.5,0.5,0.0,-0.2558385729789734,-0.1767207384109497,0.0,0.0,0.0,0,-2,,,
85,2023-03-08 06:44:23.419964075-08:00,78432781,0.0,0.0,0.5,0.5,0.0,-0.258473128080368,-0.2103471755981445,0.0,0.0,0.0,0,-2,,,
86,2023-03-08 06:44:23.519924163-08:00,78532741,0.0,0.0,0.5,0.5,0.0,-0.2578500211238861,-0.0337543860077858,0.0,0.0,0.0,0,-2,,,
87,2023-03-08 06:44:23.619884014-08:00,78632701,0.0,0.0,0.5,0.5,0.0,-0.2491292506456375,-0.151607945561409,0.0,0.0,0.0,0,-1,,,
88,2023-03-08 06:44:23.719844103-08:00,78732661,0.0,0.0,0.5,0.5,0.0,-0.2357285618782043,-0.2687316536903381,0.0,0.0,0.0,0,0,,,
89,2023-03-08 06:44:23.820636988-08:00,78833454,0.0,0.0,0.5,0.5,0.0,-0.226045086979866,-0.0265764500945806,0.0,0.0,0.0,0,0,,,
90,2023-03-08 06:44:23.920597076-08:00,78933414,0.0,0.0,0.5,0.5,0.0,-0.2129024714231491,-0.3539807796478271,0.0,0.0,0.0,0,1,,,
91,2023-03-08 06:44:24.020557165-08:00,79033374,0.0,0.0,0.5,0.5,0.0,-0.2048525363206863,-0.2734861373901367,0.0,0.0,0.0,0,1,,,
92,2023-03-08 06:44:24.120517015-08:00,79133334,0.0,0.0,0.5,0.5,0.0,-0.204235553741455,-0.0637515932321548,0.0,0.0,0.0,0,1,,,
93,2023-03-08 06:44:24.220477104-08:00,79233294,0.0,0.0,0.5,0.5,0.0,-0.1997585296630859,-0.1753499656915664,0.0,0.0,0.0,0,1,,,
94,2023-03-08 06:44:24.320437193-08:00,79333254,0.0,0.0,0.5,0.5,0.0,-0.1925837695598602,-0.101038746535778,0.0,0.0,0.0,0,1,,,
95,2023-03-08 06:44:24.420397043-08:00,79433214,0.0,0.0,0.5,0.5,0.0,-0.1840130537748336,-0.3863863348960876,0.0,0.0,0.0,0,0,,,
96,2023-03-08 06:44:24.520357132-08:00,79533174,0.0,0.0,0.5,0.5,0.0,-0.1839802861213684,-0.329277753829956,0.0,0.0,0.0,0,0,,,
97,2023-03-08 06:44:24.620316982-08:00,79633134,0.0,0.0,0.5,0.5,0.0,-0.1929871141910553,-0.0809099972248077,0.0,0.0,0.0,0,0,,,
98,2023-03-08 06:44:24.720277071-08:00,79733094,0.0,0.0,0.5,0.5,0.0,-0.1979774087667465,-0.1595475971698761,0.0,0.0,0.0,0,0,,,
99,2023-03-08 06:44:24.820237160-08:00,79833054,0.0,0.0,0.5,0.5,0.0,-0.1978590488433838,-0.4062320590019226,0.0,0.0,0.0,0,0,,,
100,2023-03-08 06:44:24.920197010-08:00,79933014,0.0,0.0,0.5,0.5,0.0,-0.2045341879129409,-0.400577962398529,0.0,0.0,0.0,0,0,,,
101,2023-03-08 06:44:25.020157099-08:00,80032974,0.0,0.0,0.5,0.5,0.0,-0.2204623520374298,-0.1318566650152206,0.0,0.0,0.0,0,-1,,,
102,2023-03-08 06:44:25.120117188-08:00,80132934,0.0,0.0,0.5,0.5,0.0,-0.2325371652841568,-0.1064301654696464,0.0,0.0,0.0,0,-2,,,
103,2023-03-08 06:44:25.220077038-08:00,80232894,0.0,0.0,0.5,0.5,0.0,-0.2352156192064285,-0.1312476098537445,0.0,0.0,0.0,0,-2,,,
104,2023-03-08 06:44:25.320037127-08:00,80332854,0.0,0.0,0.5,0.5,0.0,-0.2314373552799224,-0.2594511210918426,0.0,0.0,0.0,0,-1,,,
105,2023-03-08 06:44:25.419996977-08:00,80432814,0.0,0.0,0.5,0.5,0.0,-0.2283211052417755,-0.2463592141866684,0.0,0.0,0.0,0,-1,,,
106,2023-03-08 06:44:25.519957066-08:00,80532774,0.0,0.0,0.5,0.5,0.0,-0.2278347313404083,-0.1920583546161651,0.0,0.0,0.0,0,-1,,,
107,2023-03-08 06:44:25.619917154-08:00,80632734,0.0,0.0,0.5,0.5,0.0,-0.2270178496837616,-0.0813165679574012,0.0,0.0,0.0,0,-1,,,
108,2023-03-08 06:44:25.719877005-08:00,80732694,0.0,0.0,0.5,0.5,0.0,-0.220900148153305,-0.0600984543561935,0.0,0.0,0.0,0,0,,,
109,2023-03-08 06:44:25.819837093-08:00,80832654,0.0,0.0,0.5,0.5,0.0,-0.2082497179508209,-0.2287200987339019,0.0,0.0,0.0,0,0,,,
110,2023-03-08 06:44:25.920629978-08:00,80933447,0.0,0.0,0.5,0.5,0.0,-0.1970705986022949,-0.1850593835115432,0.0,0.0,0.0,0,1,,,
111,2023-03-08 06:44:26.020590067-08:00,81033407,0.0,0.0,0.5,0.5,0.0,-0.189057171344757,-0.3056636750698089,0.0,0.0,0.0,0,1,,,
112,2023-03-08 06:44:26.120550156-08:00,81133367,0.0,0.0,0.5,0.5,0.0,-0.1870911717414856,-0.3721567988395691,0.0,0.0,0.0,0,1,,,
113,2023-03-08 06:44:26.220510006-08:00,81233327,0.0,0.0,0.5,0.5,0.0,-0.1942268759012222,-0.4181780219078064,0.0,0.0,0.0,0,0,,,
114,2023-03-08 06:44:26.320470095-08:00,81333287,0.0,0.0,0.5,0.5,0.0,-0.2105278968811035,-0.1249992027878761,0.0,0.0,0.0,0,0,,,
115,2023-03-08 06:44:26.420430183-08:00,81433247,0.0,0.0,0.5,0.5,0.0,-0.2230686098337173,-0.3137149214744568,0.0,0.0,0.0,0,-1,,,
116,2023-03-08 06:44:26.520390033-08:00,81533207,0.0,0.0,0.5,0.5,0.0,-0.2334921807050705,-0.1993084400892257,0.0,0.0,0.0,0,-1,,,
117,2023-03-08 06:44:26.620350122-08:00,81633167,0.0,0.0,0.5,0.5,0.0,-0.2415569871664047,-0.0688201561570167,0.0,0.0,0.0,0,-2,,,
118,2023-03-08 06:44:26.720310211-08:00,81733127,0.0,0.0,0.5,0.5,0.0,-0.240675613284111,-0.3870914280414581,0.0,0.0,0.0,0,-1,,,
119,2023-03-08 06:44:26.820270061-08:00,81833087,0.0,0.0,0.5,0.5,0.0,-0.2424010783433914,-0.3074473738670349,0.0,0.0,0.0,0,-1,,,
120,2023-03-08 06:44:26.920230150-08:00,81933047,0.0,0.0,0.5,0.5,0.0,-0.2492478936910629,-0.1403742879629135,0.0,0.0,0.0,0,-1,,,
121,2023-03-08 06:44:27.020190001-08:00,82033007,0.0,0.0,0.5,0.5,0.0,-0.2519449591636657,-0.3559630215167999,0.0,0.0,0.0,0,-1,,,
122,2023-03-08 06:44:27.120150089-08:00,82132967,0.0,0.0,0.5,0.5,0.0,-0.2560593485832214,-0.3800506293773651,0.0,0.0,0.0,0,-2,,,
123,2023-03-08 06:44:27.220110178-08:00,82232927,0.0,0.0,0.5,0.5,0.0,-0.2660590410232544,-0.222056359052658,0.0,0.0,0.0,0,-2,,,
124,2023-03-08 06:44:27.320070028-08:00,82332887,0.0,0.0,0.5,0.5,0.0,-0.2746244668960571,-0.0908709317445755,0.0,0.0,0.0,0,-3,,,
125,2023-03-08 06:44:27.420030117-08:00,82432847,0.0,0.0,0.5,0.5,0.0,-0.2740064859390259,-0.1028224676847457,0.0,0.0,0.0,0,-2,,,
126,2023-03-08 06:44:27.519990206-08:00,82532807,0.0,0.0,0.5,0.5,0.0,-0.2646671831607818,-0.2990864217281341,0.0,0.0,0.0,0,-1,,,
127,2023-03-08 06:44:27.619950056-08:00,82632767,0.0,0.0,0.5,0.5,0.0,-0.2567408680915832,-0.2286969870328903,0.0,0.0,0.0,0,0,,,
128,2023-03-08 06:44:27.719910145-08:00,82732727,0.0,0.0,0.5,0.5,0.0,-0.251394659280777,-0.1954177320003509,0.0,0.0,0.0,0,0,,,
129,2023-03-08 06:44:27.819869995-08:00,82832687,0.0,0.0,0.5,0.5,0.0,-0.2454938292503357,-0.397839605808258,0.0,0.0,0.0,0,0,,,
130,2023-03-08 06:44:27.919830084-08:00,82932647,0.0,0.0,0.5,0.5,0.0,-0.2460134476423263,-0.0359446741640567,0.0,0.0,0.0,0,0,,,
131,2023-03-08 06:44:28.020623207-08:00,83033440,0.0,0.0,0.5,0.5,0.0,-0.2409582287073135,-0.3037890493869781,0.0,0.0,0.0,0,0,,,
132,2023-03-08 06:44:28.120583057-08:00,83133400,0.0,0.0,0.5,0.5,0.0,-0.237102597951889,-0.1593379378318786,0.0,0.0,0.0,0,0,,,
133,2023-03-08 06:44:28.220543146-08:00,83233360,0.0,0.0,0.5,0.5,0.0,-0.2318320721387863,-0.3632808625698089,0.0,0.0,0.0,0,0,,,
134,2023-03-08 06:44:28.320502996-08:00,83333320,0.0,0.0,0.5,0.5,0.0,-0.2325166463851928,-0.2061814367771148,0.0,0.0,0.0,0,0,,,
135,2023-03-08 06:44:28.420463085-08:00,83433280,0.0,0.0,0.5,0.5,0.0,-0.2333568483591079,-0.3667087852954864,0.0,0.0,0.0,0,0,,,
136,2023-03-08 06:44:28.520423174-08:00,83533240,0.0,0.0,0.5,0.5,0.0,-0.2390501350164413,-0.1659765690565109,0.0,0.0,0.0,0,0,,,
137,2023-03-08 06:44:28.620383024-08:00,83633200,0.0,0.0,0.5,0.5,0.0,-0.2415298372507095,-0.2136395871639251,0.0,0.0,0.0,0,0,,,
138,2023-03-08 06:44:28.720343113-08:00,83733160,0.0,0.0,0.5,0.5,0.0,-0.2410792857408523,-0.1682617217302322,0.0,0.0,0.0,0,0,,,
139,2023-03-08 06:44:28.820303202-08:00,83833120,0.0,0.0,0.5,0.5,0.0,-0.2372282892465591,-0.3362555801868438,0.0,0.0,0.0,0,0,,,
140,2023-03-08 06:44:28.920263052-08:00,83933080,0.0,0.0,0.5,0.5,0.0,-0.2376120537519455,-0.1777028888463974,0.0,0.0,0.0,0,0,,,
141,2023-03-08 06:44:29.020223141-08:00,84033040,0.0,0.0,0.5,0.5,0.0,-0.2364505976438522,-0.0977092608809471,0.0,0.0,0.0,0,0,,,
142,2023-03-08 06:44:29.120182991-08:00,84133000,0.0,0.0,0.5,0.5,0.0,-0.2288500517606735,-0.0951682105660438,0.0,0.0,0.0,0,1,,,
143,2023-03-08 06:44:29.220143080-08:00,84232960,0.0,0.0,0.5,0.5,0.0,-0.2157813608646392,-0.1953132897615432,0.0,0.0,0.0,0,1,,,
144,2023-03-08 06:44:29.320103168-08:00,84332920,0.0,0.0,0.5,0.5,0.0,-0.2035280913114547,-0.0446966663002967,0.0,0.0,0.0,0,2,,,
145,2023-03-08 06:44:29.420063019-08:00,84432880,0.0,0.0,0.5,0.5,0.0,-0.1872224360704422,-0.1047301515936851,0.0,0.0,0.0,0,3,,,
146,2023-03-08 06:44:29.520023107-08:00,84532840,0.0,0.0,0.5,0.5,0.0,-0.1692925989627838,-0.3975904881954193,0.0,0.0,0.0,0,4,,,
147,2023-03-08 06:44:29.619983196-08:00,84632800,0.0,0.0,0.5,0.5,0.0,-0.1639926880598068,-0.2290190458297729,0.0,0.0,0.0,0,4,,,
148,2023-03-08 06:44:29.719943047-08:00,84732760,0.0,0.0,0.5,0.5,0.0,-0.1645407974720001,-0.1951092183589935,0.0,0.0,0.0,0,4,,,
149,2023-03-08 06:44:29.819903135-08:00,84832720,0.0,0.0,0.5,0.5,0.0,-0.1656875908374786,-0.2873927652835846,0.0,0.0,0.0,0,3,,,
150,2023-03-08 06:44:29.919862986-08:00,84932680,0.0,0.0,0.5,0.5,0.0,-0.1706974357366562,-0.2195579558610916,0.0,0.0,0.0,0,3,,,
151,2023-03-08 06:44:30.020656109-08:00,85033473,0.0,0.0,0.5,0.5,0.0,-0.1765858680009842,-0.1898441463708877,0.0,0.0,0.0,0,2,,,
152,2023-03-08 06:44:30.120616198-08:00,85133433,0.0,0.0,0.5,0.5,0.0,-0.1808493733406067,-0.2674465775489807,0.0,0.0,0.0,0,2,,,
153,2023-03-08 06:44:30.220576048-08:00,85233393,0.0,0.0,0.5,0.5,0.0,-0.1867286711931228,-0.2457122951745987,0.0,0.0,0.0,0,1,,,
154,2023-03-08 06:44:30.320536137-08:00,85333353,0.0,0.0,0.4837499856948852,0.5,0.0,-0.1936606913805008,-0.1115094870328903,0.0,0.0,0.0,0,1,,,
155,2023-03-08 06:44:30.420495987-08:00,85433313,0.0,0.0,0.4250000119209289,0.5,0.0,-0.1954757124185562,-0.2270220816135406,0.0,0.0,0.0,0,0,,,
156,2023-03-08 06:44:30.520456076-08:00,85533273,0.0,0.0,0.25,0.5,0.0,-0.2011075168848037,-0.4025960564613342,0.0,0.0,0.0,0,-9,,,
157,2023-03-08 06:44:30.620416164-08:00,85633233,0.0,0.0,0.25,0.5,0.0,-0.2322179973125457,-0.0500502213835716,0.0,0.0,0.0,0,-31,,,
158,2023-03-08 06:44:30.720376015-08:00,85733193,0.0,0.0,0.25,0.5,0.0,-0.2739197611808777,-0.1886894106864929,0.0,0.0,0.0,0,-46,,,
159,2023-03-08 06:44:30.820336103-08:00,85833153,0.0,0.0,0.25,0.5,0.0,-0.3212467432022095,-0.5044555068016052,0.0,0.0,0.0,0,-53,,,
160,2023-03-08 06:44:30.920296192-08:00,85933113,0.0,0.0,0.25,0.5,0.0,-0.3828432261943817,-0.1822704076766967,0.0,0.0,0.0,0,-57,,,
161,2023-03-08 06:44:31.020256042-08:00,86033073,0.0,0.0,0.25,0.5,0.0,-0.4414699375629425,-0.2401889413595199,0.0,0.0,0.0,0,-59,,,
162,2023-03-08 06:44:31.120216131-08:00,86133033,0.0,0.0,0.25,0.5,0.0,-0.4923223853111267,-0.3684988915920257,0.0,0.0,0.0,0,-59,,,
163,2023-03-08 06:44:31.220175982-08:00,86232993,0.0,0.0,0.25,0.5,0.0,-0.5405768752098083,-0.6285156011581421,0.0,0.0,0.0,0,-59,,,
164,2023-03-08 06:44:31.320136070-08:00,86332953,0.0,0.0,0.25,0.5,0.0,-0.5970907807350159,-0.728720486164093,0.0,0.0,0.0,0,-59,,,
165,2023-03-08 06:44:31.420096159-08:00,86432913,0.0,0.0,0.25,0.5,0.0,-0.6629856824874878,-0.7662755250930786,0.0,0.0,0.0,0,-59,,,
166,2023-03-08 06:44:31.520056009-08:00,86532873,0.0,0.0,0.25,0.5,0.0,-0.7352468967437744,-0.9372600317001344,0.0,0.0,0.0,0,-60,,,
167,2023-03-08 06:44:31.620016098-08:00,86632833,0.0,0.0,0.25,0.5,0.0,-0.81596440076828,-0.8908892869949341,0.0,0.0,0.0,0,-62,,,
168,2023-03-08 06:44:31.719976187-08:00,86732793,0.0,0.0,0.25,0.5,0.0,-0.8988155126571655,-0.7383713126182556,0.0,0.0,0.0,0,-63,,,
169,2023-03-08 06:44:31.819936037-08:00,86832753,0.0,0.0,0.25,0.5,0.0,-0.9720396995544434,-1.0449652671813965,0.0,0.0,0.0,0,-64,,,
170,2023-03-08 06:44:31.919896126-08:00,86932713,0.0,0.0,0.25,0.5,0.0,-1.045554280281067,-0.8313153982162476,0.0,0.0,0.0,0,-64,,,
171,2023-03-08 06:44:32.019855976-08:00,87032673,0.0,0.0,0.25,0.5,0.0,-1.1103755235671997,-1.2248939275741575,0.0,0.0,0.0,0,-64,,,
172,2023-03-08 06:44:32.120649099-08:00,87133466,0.0,0.0,0.25,0.5,0.0,-1.1799262762069702,-0.9950777292251588,0.0,0.0,0.0,0,-65,,,
173,2023-03-08 06:44:32.220609188-08:00,87233426,0.0,0.0,0.25,0.5,0.0,-1.2435951232910156,-1.3113045692443848,0.0,0.0,0.0,0,-64,,,
174,2023-03-08 06:44:32.320569038-08:00,87333386,0.0,0.0,0.25,0.5,0.0,-1.3104496002197266,-1.3363771438598633,0.0,0.0,0.0,0,-65,,,
175,2023-03-08 06:44:32.420529127-08:00,87433346,0.0,0.0,0.25,0.5,0.0,-1.381063461303711,-1.2719132900238037,0.0,0.0,0.0,0,-65,,,
176,2023-03-08 06:44:32.520488976-08:00,87533306,0.0,0.0,0.25,0.5,0.0,-1.448236346244812,-1.1731481552124023,0.0,0.0,0.0,0,-65,,,
177,2023-03-08 06:44:32.620449066-08:00,87633266,0.0,0.0,0.25,0.5,0.0,-1.504389762878418,-1.4984757900238037,0.0,0.0,0.0,0,-64,,,
178,2023-03-08 06:44:32.720409155-08:00,87733226,0.0,0.0,0.25,0.5,0.0,-1.5618799924850464,-1.3518295288085938,0.0,0.0,0.0,0,-64,,,
179,2023-03-08 06:44:32.820369005-08:00,87833186,0.0,0.0,0.25,0.5,0.0,-1.6150141954421997,-1.5731229782104492,0.0,0.0,0.0,0,-63,,,
180,2023-03-08 06:44:32.920329094-08:00,87933146,0.0,0.0,0.25,0.5,0.0,-1.6694107055664062,-1.6480129957199097,0.0,0.0,0.0,0,-63,,,
181,2023-03-08 06:44:33.020289183-08:00,88033106,0.0,0.0,0.25,0.5,0.0,-1.726981282234192,-1.555387020111084,0.0,0.0,0.0,0,-62,,,
182,2023-03-08 06:44:33.120249033-08:00,88133066,0.0,0.0,0.25,0.5,0.0,-1.7815062999725342,-1.7197396755218506,0.0,0.0,0.0,0,-62,,,
183,2023-03-08 06:44:33.220209122-08:00,88233026,0.0,0.0,0.25,0.5,0.0,-1.836073398590088,-1.804866433143616,0.0,0.0,0.0,0,-61,,,
184,2023-03-08 06:44:33.320169210-08:00,88332986,0.0,0.0,0.25,0.5,0.0,-1.893157720565796,-2.050628900527954,0.0,0.0,0.0,0,-61,,,
185,2023-03-08 06:44:33.420129061-08:00,88432946,0.0,0.0,0.25,0.5,0.0,-1.9607279300689695,-1.722933292388916,0.0,0.0,0.0,0,-62,,,
186,2023-03-08 06:44:33.520089149-08:00,88532906,0.0,0.0,0.25,0.5,0.0,-2.020581722259521,-1.8626577854156492,0.0,0.0,0.0,0,-62,,,
187,2023-03-08 06:44:33.620049-08:00,88632866,0.0,0.0,0.25,0.5,0.0,-2.073704481124878,-1.9729620218276975,0.0,0.0,0.0,0,-61,,,
188,2023-03-08 06:44:33.720009089-08:00,88732826,0.0,0.0,0.25,0.5,0.0,-2.1253254413604736,-1.919327974319458,0.0,0.0,0.0,0,-60,,,
189,2023-03-08 06:44:33.819969177-08:00,88832786,0.0,0.0,0.25,0.5,0.0,-2.172006368637085,-2.2477002143859863,0.0,0.0,0.0,0,-59,,,
190,2023-03-08 06:44:33.919929028-08:00,88932746,0.0,0.0,0.25,0.5,0.0,-2.225497007369995,-2.388272523880005,0.0,0.0,0.0,0,-59,,,
191,2023-03-08 06:44:34.019889116-08:00,89032706,0.0,0.0,0.25,0.5,0.0,-2.2908270359039307,-2.0942132472991943,0.0,0.0,0.0,0,-59,,,
192,2023-03-08 06:44:34.119849205-08:00,89132666,0.0,0.0,0.25,0.5,0.0,-2.350507974624634,-2.539621353149414,0.0,0.0,0.0,0,-59,,,
193,2023-03-08 06:44:34.220642090-08:00,89233459,0.0,0.0,0.25,0.5,0.0,-2.418376445770264,-2.599318504333496,0.0,0.0,0.0,0,-60,,,
194,2023-03-08 06:44:34.320602179-08:00,89333419,0.0,0.0,0.25,0.5,0.0,-2.4957375526428223,-2.4301602840423584,0.0,0.0,0.0,0,-61,,,
195,2023-03-08 06:44:34.420562029-08:00,89433379,0.0,0.0,0.25,0.5,0.0,-2.570121049880981,-2.6232972145080566,0.0,0.0,0.0,0,-62,,,
196,2023-03-08 06:44:34.520522118-08:00,89533339,0.0,0.0,0.25,0.5,0.0,-2.6431405544281006,-2.488462209701538,0.0,0.0,0.0,0,-63,,,
197,2023-03-08 06:44:34.620482206-08:00,89633299,0.0,0.0,0.25,0.5,0.0,-2.710289478302002,-2.816673994064331,0.0,0.0,0.0,0,-63,,,
198,2023-03-08 06:44:34.720442057-08:00,89733259,0.0,0.0,0.25,0.5,0.0,-2.778792142868042,-2.679333448410034,0.0,0.0,0.0,0,-63,,,
199,2023-03-08 06:44:34.820402145-08:00,89833219,0.0,0.0,0.25,0.5,0.0,-2.846081495285034,-2.7215394973754883,0.0,0.0,0.0,0,-63,,,
200,2023-03-08 06:44:34.920361996-08:00,89933179,0.0,0.0,0.25,0.5,0.0,-2.9077682495117188,-2.6455237865448,0.0,0.0,0.0,0,-63,,,
201,2023-03-08 06:44:35.020322084-08:00,90033139,0.0,0.0,0.25,0.5,0.0,-2.95967698097229,-2.967505693435669,0.0,0.0,0.0,0,-62,,,
202,2023-03-08 06:44:35.120282173-08:00,90133099,0.0,0.0,0.25,0.5,0.0,-3.01247239112854,-2.7891812324523926,0.0,0.0,0.0,0,-62,,,
203,2023-03-08 06:44:35.220242023-08:00,90233059,0.0,0.0,0.25,0.5,0.0,-3.0623629093170166,-2.980485439300537,0.0,0.0,0.0,0,-61,,,
204,2023-03-08 06:44:35.320202112-08:00,90333019,0.0,0.0,0.25,0.5,0.0,-3.110623359680176,-2.918097972869873,0.0,0.0,0.0,0,-60,,,
205,2023-03-08 06:44:35.420162201-08:00,90432979,0.0,0.0,0.25,0.5,0.0,-3.1562860012054443,-3.2898972034454346,0.0,0.0,0.0,0,-59,,,
206,2023-03-08 06:44:35.520122051-08:00,90532939,0.0,0.0,0.25,0.5,0.0,-3.209793329238892,-3.308679819107056,0.0,0.0,0.0,0,-59,,,
207,2023-03-08 06:44:35.620082140-08:00,90632899,0.0,0.0,0.25,0.5,0.0,-3.272777318954468,-3.120365858078003,0.0,0.0,0.0,0,-59,,,
208,2023-03-08 06:44:35.720041990-08:00,90732859,0.0,0.0,0.25,0.5,0.0,-3.333115100860596,-3.4268312454223637,0.0,0.0,0.0,0,-59,,,
209,2023-03-08 06:44:35.820002079-08:00,90832819,0.0,0.0,0.25,0.5,0.0,-3.395482301712036,-3.42324447631836,0.0,0.0,0.0,0,-59,,,
210,2023-03-08 06:44:35.919962168-08:00,90932779,0.0,0.0,0.25,0.5,0.0,-3.4616377353668213,-3.556803941726685,0.0,0.0,0.0,0,-60,,,
211,2023-03-08 06:44:36.019922018-08:00,91032739,0.0,0.0,0.25,0.5,0.0,-3.531649112701416,-3.6032581329345694,0.0,0.0,0.0,0,-61,,,
212,2023-03-08 06:44:36.119882107-08:00,91132699,0.0,0.0,0.25,0.5,0.0,-3.6049416065216064,-3.5869874954223637,0.0,0.0,0.0,0,-61,,,
213,2023-03-08 06:44:36.219842196-08:00,91232659,0.0,0.0,0.25,0.5,0.0,-3.677117109298706,-3.78478479385376,0.0,0.0,0.0,0,-62,,,
214,2023-03-08 06:44:36.320635080-08:00,91333452,0.0,0.0,0.25,0.5,0.0,-3.75195574760437,-3.555283069610596,0.0,0.0,0.0,0,-63,,,
215,2023-03-08 06:44:36.420595169-08:00,91433412,0.0,0.0,0.25,0.5,0.0,-3.8196675777435294,-3.8013744354248047,0.0,0.0,0.0,0,-63,,,
216,2023-03-08 06:44:36.520555019-08:00,91533372,0.0,0.0,0.25,0.5,0.0,-3.883434295654297,-3.970078229904175,0.0,0.0,0.0,0,-63,,,
217,2023-03-08 06:44:36.620515108-08:00,91633332,0.0,0.0,0.25,0.5,0.0,-3.95168137550354,-4.096219539642334,0.0,0.0,0.0,0,-63,,,
218,2023-03-08 06:44:36.720475197-08:00,91733292,0.0,0.0,0.25,0.5,0.0,-4.027219295501709,-4.152926445007324,0.0,0.0,0.0,0,-64,,,
219,2023-03-08 06:44:36.820435047-08:00,91833252,0.0,0.0,0.25,0.5,0.0,-4.10854959487915,-4.031572818756104,0.0,0.0,0.0,0,-65,,,
220,2023-03-08 06:44:36.920395136-08:00,91933212,0.0,0.0,0.25,0.5,0.0,-4.186652183532715,-4.076529026031494,0.0,0.0,0.0,0,-66,,,
221,2023-03-08 06:44:37.020354986-08:00,92033172,0.0,0.0,0.25,0.5,0.0,-4.257757663726807,-4.324402332305908,0.0,0.0,0.0,0,-66,,,
222,2023-03-08 06:44:37.120315075-08:00,92133132,0.0,0.0,0.25,0.5,0.0,-4.329159736633301,-4.182966232299805,0.0,0.0,0.0,0,-67,,,
223,2023-03-08 06:44:37.220275164-08:00,92233092,0.0,0.0,0.25,0.5,0.0,-4.397737503051758,-4.230082035064697,0.0,0.0,0.0,0,-67,,,
224,2023-03-08 06:44:37.320235014-08:00,92333052,0.0,0.0,0.25,0.5,0.0,-4.459179878234863,-4.247140407562256,0.0,0.0,0.0,0,-66,,,
225,2023-03-08 06:44:37.420195103-08:00,92433012,0.0,0.0,0.25,0.5,0.0,-4.51366662979126,-4.497728824615479,0.0,0.0,0.0,0,-65,,,
226,2023-03-08 06:44:37.520155190-08:00,92532972,0.0,0.0,0.25,0.5,0.0,-4.569762706756592,-4.346296310424805,0.0,0.0,0.0,0,-65,,,
227,2023-03-08 06:44:37.620115042-08:00,92632932,0.0,0.0,0.25,0.5,0.0,-4.62233304977417,-4.312351703643799,0.0,0.0,0.0,0,-64,,,
228,2023-03-08 06:44:37.720075130-08:00,92732892,0.0,0.0,0.25,0.5,0.0,-4.6655778884887695,-4.456204414367676,0.0,0.0,0.0,0,-62,,,
229,2023-03-08 06:44:37.820034981-08:00,92832852,0.0,0.0,0.25,0.5,0.0,-4.703864097595215,-4.480275630950928,0.0,0.0,0.0,0,-61,,,
230,2023-03-08 06:44:37.919995070-08:00,92932812,0.0,0.0,0.25,0.5,0.0,-4.739668846130371,-4.860552310943604,0.0,0.0,0.0,0,-59,,,
231,2023-03-08 06:44:38.019955158-08:00,93032772,0.0,0.0,0.25,0.5,0.0,-4.785174369812012,-4.825789928436279,0.0,0.0,0.0,0,-58,,,
232,2023-03-08 06:44:38.119915009-08:00,93132732,0.0,0.0,0.25,0.5,0.0,-4.840843677520752,-4.929769039154053,0.0,0.0,0.0,0,-58,,,
233,2023-03-08 06:44:38.219875097-08:00,93232692,0.0,0.0,0.25,0.5,0.0,-4.903586387634277,-4.943843364715576,0.0,0.0,0.0,0,-59,,,
234,2023-03-08 06:44:38.319835186-08:00,93332652,0.0,0.0,0.25,0.5,0.0,-4.970396041870117,-5.088132381439209,0.0,0.0,0.0,0,-59,,,
235,2023-03-08 06:44:38.420628071-08:00,93433445,0.0,0.0,0.25,0.5,0.0,-5.042405605316162,-5.054299354553223,0.0,0.0,0.0,0,-60,,,
236,2023-03-08 06:44:38.520588159-08:00,93533405,0.0,0.0,0.25,0.5,0.0,-5.115041732788086,-4.876855850219727,0.0,0.0,0.0,0,-61,,,
237,2023-03-08 06:44:38.620548010-08:00,93633365,0.0,0.0,0.25,0.5,0.0,-5.177752494812012,-5.304399013519287,0.0,0.0,0.0,0,-61,,,
238,2023-03-08 06:44:38.720508099-08:00,93733325,0.0,0.0,0.25,0.5,0.0,-5.241743564605713,-5.045384407043457,0.0,0.0,0.0,0,-61,,,
239,2023-03-08 06:44:38.820468187-08:00,93833285,0.0,0.0,0.25,0.5,0.0,-5.302231788635254,-5.155781269073486,0.0,0.0,0.0,0,-61,,,
240,2023-03-08 06:44:38.920428038-08:00,93933245,0.0,0.0,0.25,0.5,0.0,-5.3558878898620605,-5.40651798248291,0.0,0.0,0.0,0,-60,,,
241,2023-03-08 06:44:39.020388126-08:00,94033205,0.0,0.0,0.25,0.5,0.0,-5.412624835968018,-5.275665760040283,0.0,0.0,0.0,0,-60,,,
242,2023-03-08 06:44:39.120347977-08:00,94133165,0.0,0.0,0.25,0.5,0.0,-5.468571186065674,-5.351896286010742,0.0,0.0,0.0,0,-60,,,
243,2023-03-08 06:44:39.220308065-08:00,94233125,0.0,0.0,0.25,0.5,0.0,-5.520521640777588,-5.480418682098389,0.0,0.0,0.0,0,-59,,,
244,2023-03-08 06:44:39.320268154-08:00,94333085,0.0,0.0,0.25,0.5,0.0,-5.57348108291626,-5.702142238616943,0.0,0.0,0.0,0,-59,,,
245,2023-03-08 06:44:39.420228004-08:00,94433045,0.0,0.0,0.25,0.5,0.0,-5.634083271026611,-5.461533069610596,0.0,0.0,0.0,0,-59,,,
246,2023-03-08 06:44:39.520188093-08:00,94533005,0.0,0.0,0.25,0.5,0.0,-5.692561626434326,-5.653098106384277,0.0,0.0,0.0,0,-59,,,
247,2023-03-08 06:44:39.620148182-08:00,94632965,0.0,0.0,0.25,0.5,0.0,-5.74896240234375,-5.760298252105713,0.0,0.0,0.0,0,-59,,,
248,2023-03-08 06:44:39.720108032-08:00,94732925,0.0,0.0,0.25,0.5,0.0,-5.807352542877197,-5.69500732421875,0.0,0.0,0.0,0,-59,,,
249,2023-03-08 06:44:39.820068121-08:00,94832885,0.0,0.0,0.25,0.5,0.0,-5.864035129547119,-5.993172645568848,0.0,0.0,0.0,0,-59,,,
250,2023-03-08 06:44:39.920028210-08:00,94932845,0.0,0.0,0.25,0.5,0.0,-5.925670623779297,-6.086699485778809,0.0,0.0,0.0,0,-59,,,
251,2023-03-08 06:44:40.019988060-08:00,95032805,0.0,0.0,0.25,0.5,0.0,-5.996518611907959,-5.992143630981445,0.0,0.0,0.0,0,-60,,,
252,2023-03-08 06:44:40.119948149-08:00,95132765,0.0,0.0,0.25,0.5,0.0,-6.06870174407959,-5.988771438598633,0.0,0.0,0.0,0,-60,,,
253,2023-03-08 06:44:40.219907999-08:00,95232725,0.0,0.0,0.25,0.5,0.0,-6.136192321777344,-5.922739028930664,0.0,0.0,0.0,0,-61,,,
254,2023-03-08 06:44:40.319868088-08:00,95332685,0.0,0.0,0.25,0.5,0.0,-6.194364547729492,-6.000726222991943,0.0,0.0,0.0,0,-60,,,
255,2023-03-08 06:44:40.419828176-08:00,95432645,0.0,0.0,0.25,0.5,0.0,-6.244194984436035,-6.133819580078125,0.0,0.0,0.0,0,-60,,,
256,2023-03-08 06:44:40.520621061-08:00,95533438,0.0,0.0,0.25,0.5,0.0,-6.291916370391846,-6.387925624847412,0.0,0.0,0.0,0,-59,,,
257,2023-03-08 06:44:40.620581150-08:00,95633398,0.0,0.0,0.25,0.5,0.0,-6.34605884552002,-6.1944499015808105,0.0,0.0,0.0,0,-58,,,
258,2023-03-08 06:44:40.720541-08:00,95733358,0.0,0.0,0.25,0.5,0.0,-6.400153636932373,-6.30686616897583,0.0,0.0,0.0,0,-58,,,
259,2023-03-08 06:44:40.820501089-08:00,95833318,0.0,0.0,0.25,0.5,0.0,-6.451433181762695,-6.673399448394775,0.0,0.0,0.0,0,-58,,,
260,2023-03-08 06:44:40.920461178-08:00,95933278,0.0,0.0,0.25,0.5,0.0,-6.512857913970947,-6.467970371246338,0.0,0.0,0.0,0,-58,,,
261,2023-03-08 06:44:41.020421028-08:00,96033238,0.0,0.0,0.25,0.5,0.0,-6.5779314041137695,-6.481875896453857,0.0,0.0,0.0,0,-58,,,
262,2023-03-08 06:44:41.120381117-08:00,96133198,0.0,0.0,0.25,0.5,0.0,-6.638726711273193,-6.83510684967041,0.0,0.0,0.0,0,-59,,,
263,2023-03-08 06:44:41.220341206-08:00,96233158,0.0,0.0,0.25,0.5,0.0,-6.7059197425842285,-6.563915729522705,0.0,0.0,0.0,0,-59,,,
264,2023-03-08 06:44:41.320301056-08:00,96333118,0.0,0.0,0.25,0.5,0.0,-6.7708024978637695,-6.982763767242432,0.0,0.0,0.0,0,-59,,,
265,2023-03-08 06:44:41.420261145-08:00,96433078,0.0,0.0,0.25,0.5,0.0,-6.841098308563232,-7.00808048248291,0.0,0.0,0.0,0,-60,,,
266,2023-03-08 06:44:41.520220994-08:00,96533038,0.0,0.0,0.25,0.5,0.0,-6.920153617858887,-6.925639152526856,0.0,0.0,0.0,0,-61,,,
267,2023-03-08 06:44:41.620181084-08:00,96632998,0.0,0.0,0.25,0.5,0.0,-6.999101638793945,-6.955517292022705,0.0,0.0,0.0,0,-63,,,
268,2023-03-08 06:44:41.720141172-08:00,96732958,0.0,0.0,0.25,0.5,0.0,-7.073987483978272,-6.991896629333496,0.0,0.0,0.0,0,-63,,,
269,2023-03-08 06:44:41.820101023-08:00,96832918,0.0,0.0,0.25,0.5,0.0,-7.143145561218262,-6.969605445861816,0.0,0.0,0.0,0,-63,,,
270,2023-03-08 06:44:41.920061111-08:00,96932878,0.0,0.0,0.25,0.5,0.0,-7.204845905303955,-7.139553546905518,0.0,0.0,0.0,0,-63,,,
271,2023-03-08 06:44:42.020021200-08:00,97032838,0.0,0.0,0.25,0.5,0.0,-7.263495922088623,-7.384332656860352,0.0,0.0,0.0,0,-63,,,
272,2023-03-08 06:44:42.119981050-08:00,97132798,0.0,0.0,0.25,0.5,0.0,-7.32865571975708,-7.316775321960449,0.0,0.0,0.0,0,-63,,,
273,2023-03-08 06:44:42.219941139-08:00,97232758,0.0,0.0,0.25,0.5,0.0,-7.397295475006103,-7.304760932922363,0.0,0.0,0.0,0,-63,,,
274,2023-03-08 06:44:42.319900990-08:00,97332718,0.0,0.0,0.25,0.5,0.0,-7.463046550750732,-7.218852996826172,0.0,0.0,0.0,0,-63,,,
275,2023-03-08 06:44:42.419861078-08:00,97432678,0.0,0.0,0.25,0.5,0.0,-7.5199456214904785,-7.37178897857666,0.0,0.0,0.0,0,-63,,,
276,2023-03-08 06:44:42.520654202-08:00,97533471,0.0,0.0,0.25,0.5,0.0,-7.570130348205566,-7.696557521820068,0.0,0.0,0.0,0,-62,,,
277,2023-03-08 06:44:42.620614052-08:00,97633431,0.0,0.0,0.25,0.5,0.0,-7.63015604019165,-7.627102851867676,0.0,0.0,0.0,0,-62,,,
278,2023-03-08 06:44:42.720574141-08:00,97733391,0.0,0.0,0.25,0.5,0.0,-7.694596767425537,-7.538797855377197,0.0,0.0,0.0,0,-62,,,
279,2023-03-08 06:44:42.820533991-08:00,97833351,0.0,0.0,0.25,0.5,0.0,-7.754238128662109,-7.881895065307617,0.0,0.0,0.0,0,-62,,,
280,2023-03-08 06:44:42.920494080-08:00,97933311,0.0,0.0,0.25,0.5,0.0,-7.820293426513672,-7.634819984436035,0.0,0.0,0.0,0,-62,,,
281,2023-03-08 06:44:43.020454168-08:00,98033271,0.0,0.0,0.25,0.5,0.0,-7.88141393661499,-7.639496326446533,0.0,0.0,0.0,0,-62,,,
282,2023-03-08 06:44:43.120414019-08:00,98133231,0.0,0.0,0.25,0.5,0.0,-7.93279504776001,-7.795959949493408,0.0,0.0,0.0,0,-61,,,
283,2023-03-08 06:44:43.220374107-08:00,98233191,0.0,0.0,0.25,0.5,0.0,-7.9808030128479,-7.9222235679626465,0.0,0.0,0.0,0,-60,,,
284,2023-03-08 06:44:43.320334196-08:00,98333151,0.0,0.0,0.25,0.5,0.0,-8.030766487121582,-7.961052417755127,0.0,0.0,0.0,0,-60,,,
285,2023-03-08 06:44:43.420294046-08:00,98433111,0.0,0.0,0.25,0.5,0.0,-8.08191967010498,-8.127907752990723,0.0,0.0,0.0,0,-59,,,
286,2023-03-08 06:44:43.520254134-08:00,98533071,0.0,0.0,0.25,0.5,0.0,-8.139226913452148,-8.010891914367676,0.0,0.0,0.0,0,-59,,,
287,2023-03-08 06:44:43.620213985-08:00,98633031,0.0,0.0,0.25,0.5,0.0,-8.194598197937012,-8.19002628326416,0.0,0.0,0.0,0,-59,,,
288,2023-03-08 06:44:43.720174074-08:00,98732991,0.0,0.0,0.25,0.5,0.0,-8.251474380493164,-8.289234161376953,0.0,0.0,0.0,0,-59,,,
289,2023-03-08 06:44:43.820134163-08:00,98832951,0.0,0.0,0.25,0.5,0.0,-8.313104629516602,-8.143295288085938,0.0,0.0,0.0,0,-59,,,
290,2023-03-08 06:44:43.920094013-08:00,98932911,0.0,0.0,0.25,0.5,0.0,-8.369145393371582,-8.225141525268555,0.0,0.0,0.0,0,-59,,,
291,2023-03-08 06:44:44.020054102-08:00,99032871,0.0,0.0,0.25,0.5,0.0,-8.420016288757324,-8.597073554992676,0.0,0.0,0.0,0,-58,,,
292,2023-03-08 06:44:44.120014191-08:00,99132831,0.0,0.0,0.25,0.5,0.0,-8.480786323547363,-8.423009872436523,0.0,0.0,0.0,0,-58,,,
293,2023-03-08 06:44:44.219974041-08:00,99232791,0.0,0.0,0.25,0.5,0.0,-8.54273796081543,-8.42042350769043,0.0,0.0,0.0,0,-59,,,
294,2023-03-08 06:44:44.319934130-08:00,99332751,0.0,0.0,0.25,0.5,0.0,-8.599958419799805,-8.78280258178711,0.0,0.0,0.0,0,-58,,,
295,2023-03-08 06:44:44.419893980-08:00,99432711,0.0,0.0,0.25,0.5,0.0,-8.665692329406738,-8.793739318847656,0.0,0.0,0.0,0,-59,,,
296,2023-03-08 06:44:44.519854069-08:00,99532671,0.0,0.0,0.25,0.5,0.0,-8.73902702331543,-8.659838676452637,0.0,0.0,0.0,0,-60,,,
297,2023-03-08 06:44:44.620647192-08:00,99633464,0.0,0.0,0.25,0.5,0.0,-8.8091402053833,-8.633913040161133,0.0,0.0,0.0,0,-61,,,
298,2023-03-08 06:44:44.720607042-08:00,99733424,0.0,0.0,0.25,0.5,0.0,-8.869733810424805,-8.931575775146484,0.0,0.0,0.0,0,-60,,,
299,2023-03-08 06:44:44.820567131-08:00,99833384,0.0,0.0,0.25,0.5,0.0,-8.932730674743652,-9.09061336517334,0.0,0.0,0.0,0,-60,,,
300,2023-03-08 06:44:44.920526981-08:00,99933344,0.0,0.0,0.25,0.5,0.0,-9.004433631896973,-8.986080169677734,0.0,0.0,0.0,0,-61,,,
301,2023-03-08 06:44:45.020487070-08:00,100033304,0.0,0.0,0.25,0.5,0.0,-9.076356887817385,-9.011797904968262,0.0,0.0,0.0,0,-62,,,
302,2023-03-08 06:44:45.120447159-08:00,100133264,0.0,0.0,0.25,0.5,0.0,-9.14451503753662,-9.184981346130373,0.0,0.0,0.0,0,-62,,,
303,2023-03-08 06:44:45.220407009-08:00,100233224,0.0,0.0,0.25,0.5,0.0,-9.213958740234377,-9.148076057434082,0.0,0.0,0.0,0,-63,,,
304,2023-03-08 06:44:45.320367098-08:00,100333184,0.0,0.0,0.25,0.5,0.0,-9.281331062316896,-9.1582612991333,0.0,0.0,0.0,0,-63,,,
305,2023-03-08 06:44:45.420327187-08:00,100433144,0.0,0.0,0.25,0.5,0.0,-9.34368133544922,-9.328707695007324,0.0,0.0,0.0,0,-63,,,
306,2023-03-08 06:44:45.520287037-08:00,100533104,0.0,0.0,0.25,0.5,0.0,-9.40577507019043,-9.568116188049316,0.0,0.0,0.0,0,-63,,,
307,2023-03-08 06:44:45.620247126-08:00,100633064,0.0,0.0,0.25,0.5,0.0,-9.477336883544922,-9.54189682006836,0.0,0.0,0.0,0,-63,,,
308,2023-03-08 06:44:45.720206976-08:00,100733024,0.0,0.0,0.25,0.5,0.0,-9.553470611572266,-9.430327415466309,0.0,0.0,0.0,0,-64,,,
309,2023-03-08 06:44:45.820167065-08:00,100832984,0.0,0.0,0.25,0.5,0.0,-9.624043464660645,-9.630863189697266,0.0,0.0,0.0,0,-65,,,
310,2023-03-08 06:44:45.920127153-08:00,100932944,0.0,0.0,0.25,0.5,0.0,-9.69443416595459,-9.611592292785645,0.0,0.0,0.0,0,-65,,,
311,2023-03-08 06:44:46.020087004-08:00,101032904,0.0,0.0,0.25,0.5,0.0,-9.761786460876465,-9.691248893737791,0.0,0.0,0.0,0,-65,,,
312,2023-03-08 06:44:46.120047092-08:00,101132864,0.0,0.0,0.25,0.5,0.0,-9.826845169067385,-9.930292129516602,0.0,0.0,0.0,0,-65,,,
313,2023-03-08 06:44:46.220007181-08:00,101232824,0.0,0.0,0.25,0.5,0.0,-9.89775276184082,-9.831225395202637,0.0,0.0,0.0,0,-65,,,
314,2023-03-08 06:44:46.319967031-08:00,101332784,0.0,0.0,0.25,0.5,0.0,-9.967950820922852,-9.767619132995604,0.0,0.0,0.0,0,-66,,,
315,2023-03-08 06:44:46.419927120-08:00,101432744,0.0,0.0,0.25,0.5,0.0,-10.030097007751465,-9.743396759033203,0.0,0.0,0.0,0,-65,,,
316,2023-03-08 06:44:46.519887208-08:00,101532704,0.0,0.0,0.25,0.5,0.0,-10.081257820129396,-9.883734703063965,0.0,0.0,0.0,0,-64,,,
317,2023-03-08 06:44:46.619847059-08:00,101632664,0.0,0.0,0.25,0.5,0.0,-10.127138137817385,-10.16820240020752,0.0,0.0,0.0,0,-63,,,
318,2023-03-08 06:44:46.720640182-08:00,101733457,0.0,0.0,0.25,0.5,0.0,-10.18057632446289,-10.3041410446167,0.0,0.0,0.0,0,-62,,,
319,2023-03-08 06:44:46.820600033-08:00,101833417,0.0,0.0,0.25,0.5,0.0,-10.24468231201172,-10.37413501739502,0.0,0.0,0.0,0,-63,,,
320,2023-03-08 06:44:46.920560122-08:00,101933377,0.0,0.0,0.25,0.5,0.0,-10.31788158416748,-10.421823501586914,0.0,0.0,0.0,0,-63,,,
321,2023-03-08 06:44:47.020520210-08:00,102033337,0.0,0.0,0.25,0.5,0.0,-10.396596908569336,-10.338069915771484,0.0,0.0,0.0,0,-65,,,
322,2023-03-08 06:44:47.120480061-08:00,102133297,0.0,0.0,0.25,0.5,0.0,-10.47226905822754,-10.432744979858398,0.0,0.0,0.0,0,-65,,,
323,2023-03-08 06:44:47.220440149-08:00,102233257,0.0,0.0,0.4962500035762787,0.5,0.0,-10.537872314453123,-10.280349731445312,0.0,0.0,0.0,0,-50,,,
324,2023-03-08 06:44:47.320400-08:00,102333217,0.0,0.0,0.5,0.5,0.0,-10.577960968017578,-10.553139686584473,0.0,0.0,0.0,0,-39,,,
325,2023-03-08 06:44:47.420360088-08:00,102433177,0.0,0.0,0.5,0.5,0.0,-10.60817813873291,-10.41948413848877,0.0,0.0,0.0,0,-32,,,
326,2023-03-08 06:44:47.520320177-08:00,102533137,0.0,0.0,0.5,0.5,0.0,-10.627277374267578,-10.423860549926758,0.0,0.0,0.0,0,-26,,,
327,2023-03-08 06:44:47.620280027-08:00,102633097,0.0,0.0,0.5,0.5,0.0,-10.635905265808104,-10.493821144104004,0.0,0.0,0.0,0,-22,,,
328,2023-03-08 06:44:47.720240116-08:00,102733057,0.0,0.0,0.5,0.5,0.0,-10.6387300491333,-10.463661193847656,0.0,0.0,0.0,0,-18,,,
329,2023-03-08 06:44:47.820200205-08:00,102833017,0.0,0.0,0.5,0.5,0.0,-10.636178016662598,-10.75597858428955,0.0,0.0,0.0,0,-14,,,
330,2023-03-08 06:44:47.920160055-08:00,102932977,0.0,0.0,0.5,0.5,0.0,-10.640975952148438,-10.710554122924805,0.0,0.0,0.0,0,-12,,,
331,2023-03-08 06:44:48.020120144-08:00,103032937,0.0,0.0,0.5,0.5,0.0,-10.652039527893066,-10.516278266906738,0.0,0.0,0.0,0,-11,,,
332,2023-03-08 06:44:48.120079994-08:00,103132897,0.0,0.0,0.5,0.5,0.0,-10.657758712768556,-10.420390129089355,0.0,0.0,0.0,0,-9,,,
333,2023-03-08 06:44:48.220040083-08:00,103232857,0.0,0.0,0.5,0.5,0.0,-10.652559280395508,-10.559181213378906,0.0,0.0,0.0,0,-7,,,
334,2023-03-08 06:44:48.320000172-08:00,103332817,0.0,0.0,0.5,0.5,0.0,-10.643865585327148,-10.61533546447754,0.0,0.0,0.0,0,-5,,,
335,2023-03-08 06:44:48.419960022-08:00,103432777,0.0,0.0,0.5,0.5,0.0,-10.63663387298584,-10.638419151306152,0.0,0.0,0.0,0,-3,,,
336,2023-03-08 06:44:48.519920111-08:00,103532737,0.0,0.0,0.5,0.5,0.0,-10.632020950317385,-10.579313278198242,0.0,0.0,0.0,0,-2,,,
337,2023-03-08 06:44:48.619880199-08:00,103632697,0.0,0.0,0.5,0.5,0.0,-10.626906394958496,-10.698171615600586,0.0,0.0,0.0,0,-1,,,
338,2023-03-08 06:44:48.719840050-08:00,103732657,0.0,0.0,0.5,0.5,0.0,-10.625532150268556,-10.671875953674316,0.0,0.0,0.0,0,0,,,
339,2023-03-08 06:44:48.820633173-08:00,103833450,0.0,0.0,0.5,0.5,0.0,-10.626954078674316,-10.675582885742188,0.0,0.0,0.0,0,0,,,
340,2023-03-08 06:44:48.920593023-08:00,103933410,0.0,0.0,0.5,0.5,0.0,-10.629883766174316,-10.548145294189451,0.0,0.0,0.0,0,0,,,
341,2023-03-08 06:44:49.020553112-08:00,104033370,0.0,0.0,0.5,0.5,0.0,-10.62885856628418,-10.807697296142578,0.0,0.0,0.0,0,1,,,
342,2023-03-08 06:44:49.120513201-08:00,104133330,0.0,0.0,0.5,0.5,0.0,-10.631841659545898,-10.491413116455078,0.0,0.0,0.0,0,1,,,
343,2023-03-08 06:44:49.220473051-08:00,104233290,0.0,0.0,0.5,0.5,0.0,-10.631125450134276,-10.508052825927734,0.0,0.0,0.0,0,2,,,
344,2023-03-08 06:44:49.320433140-08:00,104333250,0.0,0.0,0.5,0.5,0.0,-10.62217617034912,-10.818438529968262,0.0,0.0,0.0,0,3,,,
345,2023-03-08 06:44:49.420392990-08:00,104433210,0.0,0.0,0.5,0.5,0.0,-10.618818283081056,-10.622143745422363,0.0,0.0,0.0,0,3,,,
346,2023-03-08 06:44:49.520353079-08:00,104533170,0.0,0.0,0.5,0.5,0.0,-10.618438720703123,-10.523853302001951,0.0,0.0,0.0,0,4,,,
347,2023-03-08 06:44:49.620313168-08:00,104633130,0.0,0.0,0.5,0.5,0.0,-10.612893104553224,-10.70331573486328,0.0,0.0,0.0,0,4,,,
348,2023-03-08 06:44:49.720273018-08:00,104733090,0.0,0.0,0.5,0.5,0.0,-10.60814094543457,-10.52832317352295,0.0,0.0,0.0,0,5,,,
349,2023-03-08 06:44:49.820233107-08:00,104833050,0.0,0.0,0.5,0.5,0.0,-10.601298332214355,-10.476890563964844,0.0,0.0,0.0,0,6,,,
350,2023-03-08 06:44:49.920193195-08:00,104933010,0.0,0.0,0.5,0.5,0.0,-10.588027000427246,-10.83500862121582,0.0,0.0,0.0,0,7,,,
351,2023-03-08 06:44:50.020153046-08:00,105032970,0.0,0.0,0.5,0.5,0.0,-10.582124710083008,-10.804463386535645,0.0,0.0,0.0,0,7,,,
352,2023-03-08 06:44:50.120113134-08:00,105132930,0.0,0.0,0.5,0.5,0.0,-10.587512969970703,-10.548808097839355,0.0,0.0,0.0,0,7,,,
353,2023-03-08 06:44:50.220072985-08:00,105232890,0.0,0.0,0.5,0.5,0.0,-10.591121673583984,-10.73622703552246,0.0,0.0,0.0,0,6,,,
354,2023-03-08 06:44:50.320033073-08:00,105332850,0.0,0.0,0.5,0.5,0.0,-10.595041275024414,-10.820241928100586,0.0,0.0,0.0,0,6,,,
355,2023-03-08 06:44:50.419993162-08:00,105432810,0.0,0.0,0.5,0.5,0.0,-10.605542182922363,-10.674365997314451,0.0,0.0,0.0,0,5,,,
356,2023-03-08 06:44:50.519953012-08:00,105532770,0.0,0.0,0.5,0.5,0.0,-10.616844177246094,-10.455979347229004,0.0,0.0,0.0,0,5,,,
357,2023-03-08 06:44:50.619913101-08:00,105632730,0.0,0.0,0.5,0.5,0.0,-10.617904663085938,-10.444954872131348,0.0,0.0,0.0,0,5,,,
358,2023-03-08 06:44:50.719873190-08:00,105732690,0.0,0.0,0.5,0.5,0.0,-10.60712718963623,-10.670724868774414,0.0,0.0,0.0,0,6,,,
359,2023-03-08 06:44:50.819833040-08:00,105832650,0.0,0.0,0.5,0.5,0.0,-10.596101760864258,-10.782180786132812,0.0,0.0,0.0,0,6,,,
360,2023-03-08 06:44:50.920626163-08:00,105933443,0.0,0.0,0.5,0.5,0.0,-10.59354305267334,-10.515097618103027,0.0,0.0,0.0,0,6,,,
361,2023-03-08 06:44:51.020586014-08:00,106033403,0.0,0.0,0.5,0.5,0.0,-10.590047836303713,-10.708510398864746,0.0,0.0,0.0,0,6,,,
362,2023-03-08 06:44:51.120546103-08:00,106133363,0.0,0.0,0.5,0.5,0.0,-10.58776569366455,-10.605799674987791,0.0,0.0,0.0,0,6,,,
363,2023-03-08 06:44:51.220506191-08:00,106233323,0.0,0.0,0.5,0.5,0.0,-10.586562156677246,-10.78305721282959,0.0,0.0,0.0,0,6,,,
364,2023-03-08 06:44:51.320466042-08:00,106333283,0.0,0.0,0.5,0.5,0.0,-10.590524673461914,-10.448923110961914,0.0,0.0,0.0,0,6,,,
365,2023-03-08 06:44:51.420426130-08:00,106433243,0.0,0.0,0.5,0.5,0.0,-10.58974838256836,-10.561375617980955,0.0,0.0,0.0,0,5,,,
366,2023-03-08 06:44:51.520385981-08:00,106533203,0.0,0.0,0.5,0.5,0.0,-10.583309173583984,-10.550748825073242,0.0,0.0,0.0,0,6,,,
367,2023-03-08 06:44:51.620346069-08:00,106633163,0.0,0.0,0.5,0.5,0.0,-10.574926376342772,-10.407670974731444,0.0,0.0,0.0,0,6,,,
368,2023-03-08 06:44:51.720306158-08:00,106733123,0.0,0.0,0.5,0.5,0.0,-10.56040382385254,-10.397993087768556,0.0,0.0,0.0,0,7,,,
369,2023-03-08 06:44:51.820266008-08:00,106833083,0.0,0.0,0.5,0.5,0.0,-10.539002418518066,-10.36000919342041,0.0,0.0,0.0,0,8,,,
370,2023-03-08 06:44:51.920226097-08:00,106933043,0.0,0.0,0.5,0.5,0.0,-10.512124061584473,-10.672805786132812,0.0,0.0,0.0,0,9,,,
371,2023-03-08 06:44:52.020186186-08:00,107033003,0.0,0.0,0.5,0.5,0.0,-10.492698669433594,-10.372243881225586,0.0,0.0,0.0,0,10,,,
372,2023-03-08 06:44:52.120146036-08:00,107132963,0.0,0.0,0.5,0.5,0.0,-10.474729537963867,-10.717923164367676,0.0,0.0,0.0,0,10,,,
373,2023-03-08 06:44:52.220106125-08:00,107232923,0.0,0.0,0.5,0.5,0.0,-10.46517562866211,-10.630139350891112,0.0,0.0,0.0,0,10,,,
374,2023-03-08 06:44:52.320065975-08:00,107332883,0.0,0.0,0.5,0.5,0.0,-10.465493202209473,-10.491218566894531,0.0,0.0,0.0,0,9,,,
375,2023-03-08 06:44:52.420026064-08:00,107432843,0.0,0.0,0.5,0.5,0.0,-10.466413497924805,-10.423248291015623,0.0,0.0,0.0,0,9,,,
376,2023-03-08 06:44:52.519986152-08:00,107532803,0.0,0.0,0.5,0.5,0.0,-10.46280288696289,-10.494516372680664,0.0,9.41,0.0,0,8,,,
377,2023-03-08 06:44:52.619946003-08:00,107632763,0.0,0.0,0.5,0.5,0.0,-10.457448959350586,-10.269762992858888,0.0,9.41,0.0,0,8,,,
378,2023-03-08 06:44:52.719906092-08:00,107732723,0.0,0.0,0.5,0.5,0.0,-10.444653511047363,-10.495309829711914,0.0,9.42,0.0,0,9,,,
379,2023-03-08 06:44:52.819866180-08:00,107832683,0.0,0.0,0.5,0.5,0.0,-10.43085765838623,-10.250048637390137,0.0,9.42,0.0,0,9,,,
380,2023-03-08 06:44:52.919826031-08:00,107932643,0.0,0.0,0.5,0.5,0.0,-10.41268539428711,-10.430991172790527,0.0,9.41,0.0,0,10,,,
381,2023-03-08 06:44:52.964737892-08:00,107932643,0.0,0.0,0.5,0.5,0.0,-10.41268539428711,-10.430991172790527,0.0,9.41,0.0,0,10,-20.0,-10.46626091003418,9.43873908996582
382,2023-03-08 06:44:52.964737892-08:00,107932643,0.0,0.0,0.5,0.5,0.0,-10.41268539428711,-10.430991172790527,0.0,9.41,0.0,0,10,-20.0,-10.46626091003418,9.43873908996582
383,2023-03-08 06:44:53.020619154-08:00,108033436,0.0,0.0,0.5,0.5,0.0,-10.393861770629885,-10.509310722351074,0.0,9.45,0.0,0,10,-20.0,-10.46626091003418,9.43873908996582
384,2023-03-08 06:44:53.120579004-08:00,108133396,0.0,0.0,0.5,0.5,0.0,-10.381759643554688,-10.362969398498535,0.0,9.45,0.0,0,10,-20.0,-10.46626091003418,9.43873908996582
385,2023-03-08 06:44:53.170057058-08:00,108133396,0.0,0.0,0.5,0.5,0.0,-10.381759643554688,-10.362969398498535,0.0,9.45,0.0,0,10,-20.0,-10.45898151397705,9.446018486022949
386,2023-03-08 06:44:53.170057058-08:00,108133396,0.0,0.0,0.5,0.5,0.0,-10.381759643554688,-10.362969398498535,0.0,9.45,0.0,0,10,-20.0,-10.45898151397705,9.446018486022949
387,2023-03-08 06:44:53.170057058-08:00,108133396,0.0,0.0,0.5,0.5,0.0,-10.381759643554688,-10.362969398498535,0.0,9.45,0.0,0,10,-20.0,-10.45898151397705,9.446018486022949
388,2023-03-08 06:44:53.220539093-08:00,108233356,0.0,0.0,0.5,0.5,0.0,-10.371339797973633,-10.27148151397705,0.0,9.5,0.0,0,10,-20.0,-10.45898151397705,9.446018486022949
389,2023-03-08 06:44:53.320499182-08:00,108333316,0.0,0.0,0.5,0.5,0.0,-10.35667610168457,-10.229619979858398,0.0,9.5,0.0,0,11,-20.0,-10.45898151397705,9.446018486022949
390,2023-03-08 06:44:53.420459032-08:00,108433276,0.0,0.0,0.5,0.5,0.0,-10.33645725250244,-10.25629997253418,0.0,9.5,0.0,0,11,-20.0,-10.45898151397705,9.446018486022949
391,2023-03-08 06:44:53.477220774-08:00,108433276,0.0,0.0,0.5,0.5,0.0,-10.33645725250244,-10.25629997253418,0.0,9.5,0.0,0,11,-20.0,-10.428091049194336,9.476908950805663
392,2023-03-08 06:44:53.477220774-08:00,108433276,0.0,0.0,0.5,0.5,0.0,-10.33645725250244,-10.25629997253418,0.0,9.5,0.0,0,11,-20.0,-10.428091049194336,9.476908950805663
393,2023-03-08 06:44:53.520419121-08:00,108533236,0.0,0.0,0.5,0.5,0.0,-10.313347816467283,-10.17994785308838,0.0,9.54,0.0,0,12,-20.0,-10.428091049194336,9.476908950805663
394,2023-03-08 06:44:53.620379210-08:00,108633196,0.0,0.0,0.5,0.5,0.0,-10.287002563476562,-10.23082160949707,0.0,9.54,0.0,0,13,-20.0,-10.428091049194336,9.476908950805663
395,2023-03-08 06:44:53.683524847-08:00,108633196,0.0,0.0,0.5,0.5,0.0,-10.287002563476562,-10.23082160949707,0.0,9.54,0.0,0,13,-20.0,-10.384624481201172,9.520375518798827
396,2023-03-08 06:44:53.683524847-08:00,108633196,0.0,0.0,0.5,0.5,0.0,-10.287002563476562,-10.23082160949707,0.0,9.54,0.0,0,13,-20.0,-10.384624481201172,9.520375518798827
397,2023-03-08 06:44:53.683524847-08:00,108633196,0.0,0.0,0.5,0.5,0.0,-10.287002563476562,-10.23082160949707,0.0,9.54,0.0,0,13,-20.0,-10.384624481201172,9.520375518798827
398,2023-03-08 06:44:53.720339060-08:00,108733156,0.0,0.0,0.5,0.5,0.0,-10.259883880615234,-10.50660514831543,0.0,9.59,0.0,0,14,-20.0,-10.384624481201172,9.520375518798827
399,2023-03-08 06:44:53.820299149-08:00,108833116,0.0,0.0,0.5,0.5,0.0,-10.244154930114746,-10.289607048034668,0.0,9.59,0.0,0,14,-20.0,-10.384624481201172,9.520375518798827
400,2023-03-08 06:44:53.920258999-08:00,108933076,0.0,0.0,0.5,0.5,0.0,-10.234747886657717,-10.291581153869627,0.0,9.64,0.0,0,13,-20.0,-10.384624481201172,9.520375518798827
401,2023-03-08 06:44:53.993482590-08:00,108933076,0.0,0.0,0.5,0.5,0.0,-10.234747886657717,-10.291581153869627,0.0,9.64,0.0,0,13,-20.0,-10.353145599365234,9.551854400634763
402,2023-03-08 06:44:53.993482590-08:00,108933076,0.0,0.0,0.5,0.5,0.0,-10.234747886657717,-10.291581153869627,0.0,9.64,0.0,0,13,-20.0,-10.353145599365234,9.551854400634763
403,2023-03-08 06:44:54.020219088-08:00,109033036,0.0,0.0,0.5,0.5,0.0,-10.226401329040527,-10.515555381774902,0.0,9.64,0.0,0,13,-20.0,-10.353145599365234,9.551854400634763
404,2023-03-08 06:44:54.120179176-08:00,109132996,0.0,0.0,0.5,0.5,0.0,-10.227218627929688,-10.243213653564451,0.0,9.64,0.0,0,12,-20.0,-10.353145599365234,9.551854400634763
405,2023-03-08 06:44:54.201209307-08:00,109132996,0.0,0.0,0.5,0.5,0.0,-10.227218627929688,-10.243213653564451,0.0,9.64,0.0,0,12,-20.0,-10.294605255126951,9.610394744873046
406,2023-03-08 06:44:54.201209307-08:00,109132996,0.0,0.0,0.5,0.5,0.0,-10.227218627929688,-10.243213653564451,0.0,9.64,0.0,0,12,-20.0,-10.294605255126951,9.610394744873046
407,2023-03-08 06:44:54.220139027-08:00,109232956,0.0,0.0,0.5,0.5,0.0,-10.229317665100098,-10.460110664367676,0.0,9.66,0.0,0,11,-20.0,-10.294605255126951,9.610394744873046
408,2023-03-08 06:44:54.320099115-08:00,109332916,0.0,0.0,0.5,0.5,0.0,-10.235097885131836,-10.332685470581056,0.0,9.66,0.0,0,10,-20.0,-10.294605255126951,9.610394744873046
409,2023-03-08 06:44:54.409849405-08:00,109332916,0.0,0.0,0.5,0.5,0.0,-10.235097885131836,-10.332685470581056,0.0,9.66,0.0,0,10,-20.0,-10.242364883422852,9.662635116577148
410,2023-03-08 06:44:54.409849405-08:00,109332916,0.0,0.0,0.5,0.5,0.0,-10.235097885131836,-10.332685470581056,0.0,9.66,0.0,0,10,-20.0,-10.242364883422852,9.662635116577148
411,2023-03-08 06:44:54.409849405-08:00,109332916,0.0,0.0,0.5,0.5,0.0,-10.235097885131836,-10.332685470581056,0.0,9.66,0.0,0,10,-20.0,-10.242364883422852,9.662635116577148
412,2023-03-08 06:44:54.420059204-08:00,109432876,0.0,0.0,0.5,0.5,0.0,-10.243060111999512,-10.38686466217041,0.0,9.64,0.0,0,9,-20.0,-10.242364883422852,9.662635116577148
413,2023-03-08 06:44:54.520019054-08:00,109532836,0.0,0.0,0.5,0.5,0.0,-10.251980781555176,-10.152084350585938,0.0,9.64,0.0,0,7,-20.0,-10.242364883422852,9.662635116577148
414,2023-03-08 06:44:54.619979143-08:00,109632796,0.0,0.0,0.5,0.5,0.0,-10.254247665405272,-10.393051147460938,0.0,9.64,0.0,0,7,-20.0,-10.242364883422852,9.662635116577148
415,2023-03-08 06:44:54.718738079-08:00,109632796,0.0,0.0,0.5,0.5,0.0,-10.254247665405272,-10.393051147460938,0.0,9.64,0.0,0,7,-20.0,-10.226473808288574,9.678526191711423
416,2023-03-08 06:44:54.718738079-08:00,109632796,0.0,0.0,0.5,0.5,0.0,-10.254247665405272,-10.393051147460938,0.0,9.64,0.0,0,7,-20.0,-10.226473808288574,9.678526191711423
417,2023-03-08 06:44:54.719938993-08:00,109732756,0.0,0.0,0.5,0.5,0.0,-10.255908012390137,-10.282447814941406,0.0,9.63,0.0,0,6,-20.0,-10.226473808288574,9.678526191711423
418,2023-03-08 06:44:54.819899082-08:00,109832716,0.0,0.0,0.5,0.5,0.0,-10.257984161376951,-10.323312759399414,0.0,9.63,0.0,0,6,-20.0,-10.226473808288574,9.678526191711423
419,2023-03-08 06:44:54.919859171-08:00,109932676,0.0,0.0,0.5,0.5,0.0,-10.259806632995604,-10.175725936889648,0.0,9.62,0.0,0,5,-20.0,-10.226473808288574,9.678526191711423
420,2023-03-08 06:44:54.924322605-08:00,109932676,0.0,0.0,0.5,0.5,0.0,-10.259806632995604,-10.175725936889648,0.0,9.62,0.0,0,5,-20.0,-10.237269401550291,9.667730598449706
421,2023-03-08 06:44:54.924322605-08:00,109932676,0.0,0.0,0.5,0.5,0.0,-10.259806632995604,-10.175725936889648,0.0,9.62,0.0,0,5,-20.0,-10.237269401550291,9.667730598449706
422,2023-03-08 06:44:54.924322605-08:00,109932676,0.0,0.0,0.5,0.5,0.0,-10.259806632995604,-10.175725936889648,0.0,9.62,0.0,0,5,-20.0,-10.237269401550291,9.667730598449706
423,2023-03-08 06:44:55.020652056-08:00,110033469,0.0,0.0,0.5,0.5,0.0,-10.25711441040039,-10.055112838745115,0.0,9.62,0.0,0,5,-20.0,-10.237269401550291,9.667730598449706
424,2023-03-08 06:44:55.120612144-08:00,110133429,0.0,0.0,0.5,0.5,0.0,-10.244473457336426,-10.126218795776367,0.0,9.62,0.0,0,6,-20.0,-10.237269401550291,9.667730598449706
425,2023-03-08 06:44:55.220571995-08:00,110233389,0.0,0.0,0.5,0.5,0.0,-10.22554874420166,-10.027631759643556,0.0,9.63,0.0,0,7,-20.0,-10.237269401550291,9.667730598449706
426,2023-03-08 06:44:55.231323242-08:00,110233389,0.0,0.0,0.5,0.5,0.0,-10.22554874420166,-10.027631759643556,0.0,9.63,0.0,0,7,-20.0,-10.254875183105469,9.65012481689453
427,2023-03-08 06:44:55.231323242-08:00,110233389,0.0,0.0,0.5,0.5,0.0,-10.22554874420166,-10.027631759643556,0.0,9.63,0.0,0,7,-20.0,-10.254875183105469,9.65012481689453
428,2023-03-08 06:44:55.320532084-08:00,110333349,0.0,0.0,0.5,0.5,0.0,-10.200884819030762,-10.370332717895508,0.0,9.63,0.0,0,8,-20.0,-10.254875183105469,9.65012481689453
429,2023-03-08 06:44:55.420492172-08:00,110433309,0.0,0.0,0.5,0.5,0.0,-10.183411598205566,-10.040290832519531,0.0,9.62,0.0,0,9,-20.0,-10.254875183105469,9.65012481689453
430,2023-03-08 06:44:55.440162420-08:00,110433309,0.0,0.0,0.5,0.5,0.0,-10.183411598205566,-10.040290832519531,0.0,9.62,0.0,0,9,-20.0,-10.258338928222656,9.646661071777345
431,2023-03-08 06:44:55.440162420-08:00,110433309,0.0,0.0,0.5,0.5,0.0,-10.183411598205566,-10.040290832519531,0.0,9.62,0.0,0,9,-20.0,-10.258338928222656,9.646661071777345
432,2023-03-08 06:44:55.520452023-08:00,110533269,0.0,0.0,0.5,0.5,0.0,-10.166735649108888,-10.192727088928224,0.0,9.7,0.0,0,9,-20.0,-10.258338928222656,9.646661071777345
433,2023-03-08 06:44:55.620412111-08:00,110633229,0.0,0.0,0.5,0.5,0.0,-10.15046501159668,-10.267950057983398,0.0,9.7,0.0,0,9,-20.0,-10.258338928222656,9.646661071777345
434,2023-03-08 06:44:55.648289680-08:00,110633229,0.0,0.0,0.5,0.5,0.0,-10.15046501159668,-10.267950057983398,0.0,9.7,0.0,0,9,-20.0,-10.248946189880373,9.656053810119628
435,2023-03-08 06:44:55.648289680-08:00,110633229,0.0,0.0,0.5,0.5,0.0,-10.15046501159668,-10.267950057983398,0.0,9.7,0.0,0,9,-20.0,-10.248946189880373,9.656053810119628
436,2023-03-08 06:44:55.648289680-08:00,110633229,0.0,0.0,0.5,0.5,0.0,-10.15046501159668,-10.267950057983398,0.0,9.7,0.0,0,9,-20.0,-10.248946189880373,9.656053810119628
437,2023-03-08 06:44:55.720372200-08:00,110733189,0.0,0.0,0.5,0.5,0.0,-10.140748977661133,-10.182201385498049,0.0,9.74,0.0,0,9,-20.0,-10.248946189880373,9.656053810119628
438,2023-03-08 06:44:55.820332050-08:00,110833149,0.0,0.0,0.5,0.5,0.0,-10.13459587097168,-10.004783630371094,0.0,9.74,0.0,0,9,-20.0,-10.248946189880373,9.656053810119628
439,2023-03-08 06:44:55.920292139-08:00,110933109,0.0,0.0,0.5,0.5,0.0,-10.123536109924316,-9.977724075317385,0.0,9.74,0.0,0,9,-20.0,-10.248946189880373,9.656053810119628
440,2023-03-08 06:44:55.957186699-08:00,110933109,0.0,0.0,0.5,0.5,0.0,-10.123536109924316,-9.977724075317385,0.0,9.74,0.0,0,9,-20.0,-10.194783210754396,9.710216789245605
441,2023-03-08 06:44:55.957186699-08:00,110933109,0.0,0.0,0.5,0.5,0.0,-10.123536109924316,-9.977724075317385,0.0,9.74,0.0,0,9,-20.0,-10.194783210754396,9.710216789245605
442,2023-03-08 06:44:56.020251989-08:00,111033069,0.0,0.0,0.5,0.5,0.0,-10.105061531066896,-10.03332805633545,0.0,9.75,0.0,0,10,-20.0,-10.194783210754396,9.710216789245605
443,2023-03-08 06:44:56.120212078-08:00,111133029,0.0,0.0,0.5,0.5,0.0,-10.08363914489746,-9.93996524810791,0.0,9.75,0.0,0,10,-20.0,-10.194783210754396,9.710216789245605
