,TimeUS,timestamp,ThI,ABst,ThO,ThH,DAlt,Alt,BAlt,DSAlt,SAlt,TAlt,DCRt,CRt,terrain_z,sub_z,rf
0,23331497,1678489626.320032,0.0,0.0,0.5,0.5,0.0,-0.1834413111209869,-0.1180624216794967,0.0,0.0,0.0,0,2,,,
1,23431457,1678489626.4199922,0.0,0.0,0.5,0.5,0.0,-0.1763395816087722,-0.2185889631509781,0.0,0.0,0.0,0,3,,,
2,23531417,1678489626.519952,0.0,0.0,0.5,0.5,0.0,-0.1700358688831329,-0.2403531521558761,0.0,0.0,0.0,0,3,,,
3,23631377,1678489626.619912,0.0,0.0,0.5,0.5,0.0,-0.1675471812486648,-0.2588340938091278,0.0,0.0,0.0,0,3,,,
4,23731337,1678489626.7198722,0.0,0.0,0.5,0.5,0.0,-0.1690670102834701,0.0066007655113935,0.0,0.0,0.0,0,3,,,
5,23831297,1678489626.819832,0.0,0.0,0.5,0.5,0.0,-0.1633173674345016,-0.020788824185729,0.0,0.0,0.0,0,4,,,
6,23931257,1678489626.919792,0.0,0.0,0.5,0.5,0.0,-0.147957757115364,-0.1302662640810012,0.0,0.0,0.0,0,5,,,
7,24031217,1678489627.0197523,0.0,0.0,0.5,0.5,0.0,-0.1312188506126403,-0.3999242782592773,0.0,0.0,0.0,0,6,,,
8,24131177,1678489627.119712,0.0,0.0,0.5,0.5,0.0,-0.1271202564239502,-0.2201901376247406,0.0,0.0,0.0,0,6,,,
9,24231137,1678489627.2196722,0.0,0.0,0.5,0.5,0.0,-0.1310857087373733,-0.0462814904749393,0.0,0.0,0.0,0,5,,,
10,24331097,1678489627.319632,0.0,0.0,0.5,0.5,0.0,-0.1299937814474105,-0.1831971406936645,0.0,0.0,0.0,0,5,,,
11,24431057,1678489627.419592,0.0,0.0,0.5,0.5,0.0,-0.1269850432872772,-0.1895643323659896,0.0,0.0,0.0,0,5,,,
12,24531017,1678489627.5195522,0.0,0.0,0.5,0.5,0.0,-0.1259214282035827,-0.2576482892036438,0.0,0.0,0.0,0,5,,,
13,24630977,1678489627.619512,0.0,0.0,0.5,0.5,0.0,-0.1291668564081192,-0.0120053412392735,0.0,0.0,0.0,0,5,,,
14,24730937,1678489627.719472,0.0,0.0,0.5,0.5,0.0,-0.1272791922092437,-0.0505018346011638,0.0,0.0,0.0,0,5,,,
15,24830897,1678489627.8194323,0.0,0.0,0.5,0.5,0.0,-0.1181835532188415,-0.3545711040496826,0.0,0.0,0.0,0,5,,,
16,24930857,1678489627.919392,0.0,0.0,0.5,0.5,0.0,-0.1169676408171653,-0.2793809771537781,0.0,0.0,0.0,0,5,,,
17,25030817,1678489628.0193522,0.0,0.0,0.5,0.5,0.0,-0.1251184195280075,-0.2709805369377136,0.0,0.0,0.0,0,4,,,
18,25130777,1678489628.119312,0.0,0.0,0.5,0.5,0.0,-0.1378580778837204,-0.113664299249649,0.0,0.0,0.0,0,3,,,
19,25230737,1678489628.219272,0.0,0.0,0.5,0.5,0.0,-0.1471312493085861,-0.2894375920295715,0.0,0.0,0.0,0,2,,,
20,25330697,1678489628.3192322,0.0,0.0,0.5,0.5,0.0,-0.1571087837219238,-0.1809534430503845,0.0,0.0,0.0,0,1,,,
21,25431490,1678489628.420025,0.0,0.0,0.5,0.5,0.0,-0.1667642891407013,-0.2786902189254761,0.0,0.0,0.0,0,1,,,
22,25531450,1678489628.5199852,0.0,0.0,0.5,0.5,0.0,-0.1774270981550216,-0.0899844542145729,0.0,0.0,0.0,0,0,,,
23,25631410,1678489628.619945,0.0,0.0,0.5,0.5,0.0,-0.1831459552049636,-0.0741171091794967,0.0,0.0,0.0,0,0,,,
24,25731370,1678489628.7199051,0.0,0.0,0.5,0.5,0.0,-0.1805000603199005,-0.3128483593463897,0.0,0.0,0.0,0,0,,,
25,25831330,1678489628.8198652,0.0,0.0,0.5,0.5,0.0,-0.1810200810432434,-0.0464744083583354,0.0,0.0,0.0,0,0,,,
26,25931290,1678489628.919825,0.0,0.0,0.5,0.5,0.0,-0.1785332262516021,-0.2191378325223922,0.0,0.0,0.0,0,0,,,
27,26031250,1678489629.0197852,0.0,0.0,0.4724999964237213,0.5,0.0,-0.1751168817281723,-0.1539508998394012,0.0,0.0,0.0,0,1,,,
28,26131210,1678489629.1197453,0.0,0.0,0.4237500131130218,0.5,0.0,-0.1725957989692688,-0.344818651676178,0.0,0.0,0.0,0,0,,,
29,26231170,1678489629.219705,0.0,0.0,0.3587499856948852,0.5,0.0,-0.179506778717041,-0.3402483165264129,0.0,0.0,0.0,0,-5,,,
30,26331130,1678489629.3196652,0.0,0.0,0.2775000035762787,0.5,0.0,-0.20414999127388,-0.3282597362995147,0.0,0.0,0.0,0,-19,,,
31,26431090,1678489629.4196253,0.0,0.0,0.2612499892711639,0.5,0.0,-0.2490556687116623,-0.3073266148567199,0.0,0.0,0.0,0,-36,,,
32,26531050,1678489629.5195851,0.0,0.0,0.25,0.5,0.0,-0.3093681335449219,-0.1575952619314193,0.0,0.0,0.0,0,-51,,,
33,26631010,1678489629.6195452,0.0,0.0,0.25,0.5,0.0,-0.371594101190567,-0.4818646311759949,0.0,0.0,0.0,0,-58,,,
34,26730970,1678489629.719505,0.0,0.0,0.25,0.5,0.0,-0.4400723874568939,-0.520430862903595,0.0,0.0,0.0,0,-62,,,
35,26830930,1678489629.8194652,0.0,0.0,0.25,0.5,0.0,-0.5158069729804993,-0.248722493648529,0.0,0.0,0.0,0,-65,,,
36,26930890,1678489629.9194252,0.0,0.0,0.25,0.5,0.0,-0.5827410817146301,-0.371964693069458,0.0,0.0,0.0,0,-65,,,
37,27030850,1678489630.019385,0.0,0.0,0.25,0.5,0.0,-0.6382498145103455,-0.7382389903068542,0.0,0.0,0.0,0,-65,,,
38,27130810,1678489630.1193452,0.0,0.0,0.25,0.5,0.0,-0.6988605260848999,-0.818962037563324,0.0,0.0,0.0,0,-65,,,
39,27230770,1678489630.2193053,0.0,0.0,0.25,0.5,0.0,-0.7703980207443237,-0.8117573857307434,0.0,0.0,0.0,0,-65,,,
40,27330730,1678489630.3192651,0.0,0.0,0.25,0.5,0.0,-0.8470811247825623,-0.8717641830444336,0.0,0.0,0.0,0,-66,,,
41,27430690,1678489630.4192252,0.0,0.0,0.25,0.5,0.0,-0.9252488017082214,-0.9342809319496156,0.0,0.0,0.0,0,-67,,,
42,27531483,1678489630.520018,0.0,0.0,0.25,0.5,0.0,-1.0043128728866575,-0.9544360041618348,0.0,0.0,0.0,0,-68,,,
43,27631443,1678489630.619978,0.0,0.0,0.25,0.5,0.0,-1.0806541442871094,-1.0037368535995483,0.0,0.0,0.0,0,-69,,,
44,27731403,1678489630.7199383,0.0,0.0,0.25,0.5,0.0,-1.1533888578414917,-1.18780255317688,0.0,0.0,0.0,0,-69,,,
45,27831363,1678489630.819898,0.0,0.0,0.25,0.5,0.0,-1.227558970451355,-1.207774996757507,0.0,0.0,0.0,0,-70,,,
46,27931323,1678489630.9198582,0.0,0.0,0.25,0.5,0.0,-1.303171157836914,-1.316611886024475,0.0,0.0,0.0,0,-70,,,
47,28031283,1678489631.019818,0.0,0.0,0.25,0.5,0.0,-1.3801381587982178,-1.2029942274093628,0.0,0.0,0.0,0,-71,,,
48,28131243,1678489631.119778,0.0,0.0,0.25,0.5,0.0,-1.4515012502670288,-1.1308597326278689,0.0,0.0,0.0,0,-71,,,
49,28231203,1678489631.2197382,0.0,0.0,0.25,0.5,0.0,-1.5093297958374023,-1.4327905178070068,0.0,0.0,0.0,0,-70,,,
50,28331163,1678489631.319698,0.0,0.0,0.25,0.5,0.0,-1.564026117324829,-1.2453683614730835,0.0,0.0,0.0,0,-69,,,
51,28431123,1678489631.419658,0.0,0.0,0.25,0.5,0.0,-1.6114531755447388,-1.5605524778366089,0.0,0.0,0.0,0,-67,,,
52,28531083,1678489631.5196183,0.0,0.0,0.25,0.5,0.0,-1.6596894264221191,-1.3953005075454712,0.0,0.0,0.0,0,-66,,,
53,28631043,1678489631.619578,0.0,0.0,0.25,0.5,0.0,-1.705046534538269,-1.453345775604248,0.0,0.0,0.0,0,-64,,,
54,28731003,1678489631.7195382,0.0,0.0,0.25,0.5,0.0,-1.7438714504241943,-1.613471746444702,0.0,0.0,0.0,0,-62,,,
55,28830963,1678489631.819498,0.0,0.0,0.25,0.5,0.0,-1.7804838418960571,-1.5520085096359253,0.0,0.0,0.0,0,-61,,,
56,28930923,1678489631.919458,0.0,0.0,0.25,0.5,0.0,-1.816770315170288,-1.70551335811615,0.0,0.0,0.0,0,-59,,,
57,29030883,1678489632.0194182,0.0,0.0,0.25,0.5,0.0,-1.8543850183486936,-1.9151893854141235,0.0,0.0,0.0,0,-57,,,
58,29130843,1678489632.119378,0.0,0.0,0.25,0.5,0.0,-1.901874542236328,-1.8491908311843872,0.0,0.0,0.0,0,-57,,,
59,29230803,1678489632.219338,0.0,0.0,0.25,0.5,0.0,-1.9531528949737549,-2.089780807495117,0.0,0.0,0.0,0,-56,,,
60,29330763,1678489632.3192983,0.0,0.0,0.25,0.5,0.0,-2.013960123062134,-1.9580261707305908,0.0,0.0,0.0,0,-57,,,
61,29430723,1678489632.419258,0.0,0.0,0.25,0.5,0.0,-2.075178384780884,-2.111885070800781,0.0,0.0,0.0,0,-57,,,
62,29530683,1678489632.5192182,0.0,0.0,0.25,0.5,0.0,-2.138232469558716,-2.084287405014038,0.0,0.0,0.0,0,-58,,,
63,29631476,1678489632.620011,0.0,0.0,0.25,0.5,0.0,-2.2001893520355225,-2.00844669342041,0.0,0.0,0.0,0,-58,,,
64,29731436,1678489632.7199712,0.0,0.0,0.25,0.5,0.0,-2.253031015396118,-2.1997015476226807,0.0,0.0,0.0,0,-57,,,
65,29831396,1678489632.8199313,0.0,0.0,0.25,0.5,0.0,-2.3039138317108154,-2.392249345779419,0.0,0.0,0.0,0,-57,,,
66,29931356,1678489632.919891,0.0,0.0,0.25,0.5,0.0,-2.360604047775269,-2.3384268283843994,0.0,0.0,0.0,0,-56,,,
67,30031316,1678489633.0198512,0.0,0.0,0.25,0.5,0.0,-2.420027256011963,-2.608726501464844,0.0,0.0,0.0,0,-57,,,
68,30131276,1678489633.119811,0.0,0.0,0.25,0.5,0.0,-2.487269639968872,-2.565814256668091,0.0,0.0,0.0,0,-57,,,
69,30231236,1678489633.2197711,0.0,0.0,0.25,0.5,0.0,-2.5603184700012207,-2.487006187438965,0.0,0.0,0.0,0,-58,,,
70,30331196,1678489633.3197312,0.0,0.0,0.25,0.5,0.0,-2.629400968551636,-2.663635492324829,0.0,0.0,0.0,0,-59,,,
71,30431156,1678489633.419691,0.0,0.0,0.25,0.5,0.0,-2.696868896484375,-2.800983428955078,0.0,0.0,0.0,0,-60,,,
72,30531116,1678489633.5196512,0.0,0.0,0.25,0.5,0.0,-2.767904996871948,-2.740323305130005,0.0,0.0,0.0,0,-60,,,
73,30631076,1678489633.6196113,0.0,0.0,0.25,0.5,0.0,-2.838914155960083,-2.757642269134521,0.0,0.0,0.0,0,-61,,,
74,30731036,1678489633.719571,0.0,0.0,0.25,0.5,0.0,-2.904917001724243,-2.9442272186279297,0.0,0.0,0.0,0,-61,,,
75,30830996,1678489633.8195312,0.0,0.0,0.25,0.5,0.0,-2.9711251258850098,-2.9602746963500977,0.0,0.0,0.0,0,-61,,,
76,30930956,1678489633.919491,0.0,0.0,0.25,0.5,0.0,-3.038755416870117,-2.8988444805145264,0.0,0.0,0.0,0,-62,,,
77,31030916,1678489634.0194511,0.0,0.0,0.25,0.5,0.0,-3.10059666633606,-2.9401679039001465,0.0,0.0,0.0,0,-62,,,
78,31130876,1678489634.1194112,0.0,0.0,0.25,0.5,0.0,-3.155296802520752,-3.165398120880127,0.0,0.0,0.0,0,-61,,,
79,31230836,1678489634.219371,0.0,0.0,0.25,0.5,0.0,-3.211122274398804,-3.337435722351074,0.0,0.0,0.0,0,-60,,,
80,31330796,1678489634.3193312,0.0,0.0,0.25,0.5,0.0,-3.275808334350586,-3.1601040363311768,0.0,0.0,0.0,0,-61,,,
81,31430756,1678489634.4192913,0.0,0.0,0.25,0.5,0.0,-3.3398115634918213,-3.359596967697144,0.0,0.0,0.0,0,-61,,,
82,31530716,1678489634.519251,0.0,0.0,0.25,0.5,0.0,-3.4035143852233887,-3.515627861022949,0.0,0.0,0.0,0,-61,,,
83,31631509,1678489634.6200442,0.0,0.0,0.25,0.5,0.0,-3.474038600921631,-3.4566028118133545,0.0,0.0,0.0,0,-62,,,
84,31731469,1678489634.720004,0.0,0.0,0.25,0.5,0.0,-3.545559883117676,-3.564871311187744,0.0,0.0,0.0,0,-63,,,
85,31831429,1678489634.819964,0.0,0.0,0.25,0.5,0.0,-3.6170153617858887,-3.3659801483154297,0.0,0.0,0.0,0,-63,,,
86,31931389,1678489634.9199243,0.0,0.0,0.25,0.5,0.0,-3.6787843704223633,-3.7747652530670166,0.0,0.0,0.0,0,-63,,,
87,32031349,1678489635.019884,0.0,0.0,0.25,0.5,0.0,-3.741602659225464,-3.447004556655884,0.0,0.0,0.0,0,-63,,,
88,32131309,1678489635.1198442,0.0,0.0,0.25,0.5,0.0,-3.7973010540008554,-3.499746084213257,0.0,0.0,0.0,0,-62,,,
89,32231269,1678489635.219804,0.0,0.0,0.25,0.5,0.0,-3.839468955993652,-3.898709774017334,0.0,0.0,0.0,0,-60,,,
90,32331229,1678489635.319764,0.0,0.0,0.25,0.5,0.0,-3.885689020156861,-3.988660335540772,0.0,0.0,0.0,0,-59,,,
91,32431189,1678489635.4197242,0.0,0.0,0.25,0.5,0.0,-3.9437789916992183,-4.024259090423584,0.0,0.0,0.0,0,-59,,,
92,32531149,1678489635.519684,0.0,0.0,0.25,0.5,0.0,-4.010130882263184,-4.025360107421875,0.0,0.0,0.0,0,-60,,,
93,32631109,1678489635.619644,0.0,0.0,0.25,0.5,0.0,-4.078751564025879,-4.011663913726807,0.0,0.0,0.0,0,-61,,,
94,32731069,1678489635.7196043,0.0,0.0,0.25,0.5,0.0,-4.145286560058594,-4.276754856109619,0.0,0.0,0.0,0,-61,,,
95,32831029,1678489635.819564,0.0,0.0,0.25,0.5,0.0,-4.216074466705322,-4.070308685302734,0.0,0.0,0.0,0,-62,,,
96,32930989,1678489635.919524,0.0,0.0,0.25,0.5,0.0,-4.283406734466553,-4.221241474151611,0.0,0.0,0.0,0,-62,,,
97,33030949,1678489636.0194843,0.0,0.0,0.25,0.5,0.0,-4.346329689025879,-4.2555108070373535,0.0,0.0,0.0,0,-62,,,
98,33130909,1678489636.119444,0.0,0.0,0.25,0.5,0.0,-4.406054973602295,-4.154386520385742,0.0,0.0,0.0,0,-62,,,
99,33230869,1678489636.2194042,0.0,0.0,0.25,0.5,0.0,-4.457055568695068,-4.264830589294434,0.0,0.0,0.0,0,-61,,,
100,33330829,1678489636.319364,0.0,0.0,0.25,0.5,0.0,-4.500641345977783,-4.423745632171631,0.0,0.0,0.0,0,-59,,,
101,33430789,1678489636.419324,0.0,0.0,0.25,0.5,0.0,-4.544459342956543,-4.473964691162109,0.0,0.0,0.0,0,-58,,,
102,33530749,1678489636.5192842,0.0,0.0,0.25,0.5,0.0,-4.590809345245361,-4.609431266784668,0.0,0.0,0.0,0,-57,,,
103,33630709,1678489636.619244,0.0,0.0,0.25,0.5,0.0,-4.642245292663574,-4.509269237518311,0.0,0.0,0.0,0,-57,,,
104,33731502,1678489636.7200372,0.0,0.0,0.25,0.5,0.0,-4.692531108856201,-4.736555099487305,0.0,0.0,0.0,0,-56,,,
105,33831462,1678489636.819997,0.0,0.0,0.25,0.5,0.0,-4.747094631195068,-4.6010422706604,0.0,0.0,0.0,0,-56,,,
106,33931422,1678489636.9199572,0.0,0.0,0.25,0.5,0.0,-4.798377990722656,-5.024275779724121,0.0,0.0,0.0,0,-56,,,
107,34031382,1678489637.0199172,0.0,0.0,0.25,0.5,0.0,-4.861604690551758,-4.853396415710449,0.0,0.0,0.0,0,-56,,,
108,34131342,1678489637.119877,0.0,0.0,0.25,0.5,0.0,-4.927797317504883,-4.8010573387146,0.0,0.0,0.0,0,-57,,,
109,34231302,1678489637.2198372,0.0,0.0,0.25,0.5,0.0,-4.98754358291626,-4.954935073852539,0.0,0.0,0.0,0,-57,,,
110,34331262,1678489637.3197973,0.0,0.0,0.25,0.5,0.0,-5.045391082763672,-5.103909015655518,0.0,0.0,0.0,0,-57,,,
111,34431222,1678489637.4197571,0.0,0.0,0.25,0.5,0.0,-5.10737943649292,-5.083849906921387,0.0,0.0,0.0,0,-57,,,
112,34531182,1678489637.5197172,0.0,0.0,0.25,0.5,0.0,-5.169882774353027,-4.988435745239258,0.0,0.0,0.0,0,-58,,,
113,34631142,1678489637.619677,0.0,0.0,0.25,0.5,0.0,-5.223937034606934,-5.096308708190918,0.0,0.0,0.0,0,-57,,,
114,34731102,1678489637.7196372,0.0,0.0,0.25,0.5,0.0,-5.2730326652526855,-5.3507256507873535,0.0,0.0,0.0,0,-56,,,
115,34831062,1678489637.8195972,0.0,0.0,0.25,0.5,0.0,-5.328334331512451,-5.4390788078308105,0.0,0.0,0.0,0,-56,,,
116,34931022,1678489637.919557,0.0,0.0,0.25,0.5,0.0,-5.392383098602295,-5.594100475311279,0.0,0.0,0.0,0,-57,,,
117,35030982,1678489638.0195172,0.0,0.0,0.25,0.5,0.0,-5.467399597167969,-5.413557529449463,0.0,0.0,0.0,0,-58,,,
118,35130942,1678489638.1194773,0.0,0.0,0.25,0.5,0.0,-5.540445327758789,-5.562024593353272,0.0,0.0,0.0,0,-59,,,
119,35230902,1678489638.2194371,0.0,0.0,0.25,0.5,0.0,-5.610973358154297,-5.566907405853272,0.0,0.0,0.0,0,-60,,,
120,35330862,1678489638.3193972,0.0,0.0,0.25,0.5,0.0,-5.678835868835449,-5.669736385345459,0.0,0.0,0.0,0,-60,,,
121,35430822,1678489638.419357,0.0,0.0,0.25,0.5,0.0,-5.745014667510986,-5.613530158996582,0.0,0.0,0.0,0,-61,,,
122,35530782,1678489638.5193172,0.0,0.0,0.25,0.5,0.0,-5.806129455566406,-6.002012729644775,0.0,0.0,0.0,0,-61,,,
123,35630742,1678489638.6192772,0.0,0.0,0.25,0.5,0.0,-5.87400484085083,-5.755127906799316,0.0,0.0,0.0,0,-61,,,
124,35730702,1678489638.719237,0.0,0.0,0.25,0.5,0.0,-5.941456317901611,-6.080618381500244,0.0,0.0,0.0,0,-62,,,
125,35831495,1678489638.8200302,0.0,0.0,0.25,0.5,0.0,-6.01268482208252,-5.977779388427734,0.0,0.0,0.0,0,-62,,,
126,35931455,1678489638.91999,0.0,0.0,0.25,0.5,0.0,-6.084591388702393,-6.199224948883057,0.0,0.0,0.0,0,-63,,,
127,36031415,1678489639.01995,0.0,0.0,0.25,0.5,0.0,-6.159698486328125,-6.15370512008667,0.0,0.0,0.0,0,-64,,,
128,36131375,1678489639.1199102,0.0,0.0,0.25,0.5,0.0,-6.235777854919434,-6.190372467041016,0.0,0.0,0.0,0,-65,,,
129,36231335,1678489639.21987,0.0,0.0,0.25,0.5,0.0,-6.30872106552124,-6.143352508544922,0.0,0.0,0.0,0,-65,,,
130,36331295,1678489639.31983,0.0,0.0,0.25,0.5,0.0,-6.374172210693359,-6.129172801971436,0.0,0.0,0.0,0,-65,,,
131,36431255,1678489639.4197903,0.0,0.0,0.25,0.5,0.0,-6.428805828094482,-6.209443092346191,0.0,0.0,0.0,0,-64,,,
132,36531215,1678489639.51975,0.0,0.0,0.25,0.5,0.0,-6.475061416625977,-6.292846202850342,0.0,0.0,0.0,0,-63,,,
133,36631175,1678489639.6197102,0.0,0.0,0.25,0.5,0.0,-6.517164707183838,-6.3973236083984375,0.0,0.0,0.0,0,-61,,,
134,36731135,1678489639.71967,0.0,0.0,0.25,0.5,0.0,-6.558696746826172,-6.482666015625,0.0,0.0,0.0,0,-60,,,
135,36831095,1678489639.81963,0.0,0.0,0.25,0.5,0.0,-6.603298664093018,-6.538541316986084,0.0,0.0,0.0,0,-59,,,
136,36931055,1678489639.9195902,0.0,0.0,0.25,0.5,0.0,-6.6506781578063965,-6.580446243286133,0.0,0.0,0.0,0,-58,,,
137,37031015,1678489640.01955,0.0,0.0,0.25,0.5,0.0,-6.69969367980957,-6.617705345153809,0.0,0.0,0.0,0,-57,,,
138,37130975,1678489640.11951,0.0,0.0,0.25,0.5,0.0,-6.749448299407959,-6.8570756912231445,0.0,0.0,0.0,0,-57,,,
139,37230935,1678489640.2194703,0.0,0.0,0.25,0.5,0.0,-6.805794715881348,-6.889327049255371,0.0,0.0,0.0,0,-57,,,
140,37330895,1678489640.31943,0.0,0.0,0.25,0.5,0.0,-6.870065689086914,-6.809167861938477,0.0,0.0,0.0,0,-57,,,
141,37430855,1678489640.4193902,0.0,0.0,0.25,0.5,0.0,-6.933821201324463,-6.853384971618652,0.0,0.0,0.0,0,-58,,,
142,37530815,1678489640.51935,0.0,0.0,0.25,0.5,0.0,-6.993422031402588,-6.955652236938477,0.0,0.0,0.0,0,-58,,,
143,37630775,1678489640.61931,0.0,0.0,0.25,0.5,0.0,-7.051341533660889,-7.170589923858643,0.0,0.0,0.0,0,-58,,,
144,37730735,1678489640.7192702,0.0,0.0,0.25,0.5,0.0,-7.115099906921387,-7.3466949462890625,0.0,0.0,0.0,0,-58,,,
145,37830695,1678489640.81923,0.0,0.0,0.25,0.5,0.0,-7.190781593322754,-7.247786998748779,0.0,0.0,0.0,0,-60,,,
146,37931488,1678489640.9200232,0.0,0.0,0.25,0.5,0.0,-7.271212577819824,-7.471892356872559,0.0,0.0,0.0,0,-61,,,
147,38031448,1678489641.019983,0.0,0.0,0.25,0.5,0.0,-7.359380722045898,-7.477141380310059,0.0,0.0,0.0,0,-63,,,
148,38131408,1678489641.1199431,0.0,0.0,0.25,0.5,0.0,-7.448827743530273,-7.35000467300415,0.0,0.0,0.0,0,-65,,,
149,38231368,1678489641.2199032,0.0,0.0,0.25,0.5,0.0,-7.530337810516357,-7.529577255249023,0.0,0.0,0.0,0,-66,,,
150,38331328,1678489641.319863,0.0,0.0,0.25,0.5,0.0,-7.608150959014893,-7.649958610534668,0.0,0.0,0.0,0,-67,,,
151,38431288,1678489641.4198232,0.0,0.0,0.25,0.5,0.0,-7.687017440795898,-7.63540506362915,0.0,0.0,0.0,0,-68,,,
152,38531248,1678489641.5197833,0.0,0.0,0.25,0.5,0.0,-7.763326168060303,-7.591851234436035,0.0,0.0,0.0,0,-68,,,
153,38631208,1678489641.619743,0.0,0.0,0.25,0.5,0.0,-7.8313307762146,-7.708944320678711,0.0,0.0,0.0,0,-68,,,
154,38731168,1678489641.7197032,0.0,0.0,0.25,0.5,0.0,-7.894165992736816,-7.70550537109375,0.0,0.0,0.0,0,-68,,,
155,38831128,1678489641.819663,0.0,0.0,0.25,0.5,0.0,-7.950417518615723,-7.944808483123779,0.0,0.0,0.0,0,-67,,,
156,38931088,1678489641.9196231,0.0,0.0,0.25,0.5,0.0,-8.010334014892578,-7.990158081054687,0.0,0.0,0.0,0,-66,,,
157,39031048,1678489642.0195832,0.0,0.0,0.25,0.5,0.0,-8.07421588897705,-7.840972423553467,0.0,0.0,0.0,0,-66,,,
158,39131008,1678489642.119543,0.0,0.0,0.25,0.5,0.0,-8.130858421325684,-7.915103435516357,0.0,0.0,0.0,0,-66,,,
159,39230968,1678489642.2195032,0.0,0.0,0.25,0.5,0.0,-8.180566787719727,-8.096637725830078,0.0,0.0,0.0,0,-64,,,
160,39330928,1678489642.3194633,0.0,0.0,0.25,0.5,0.0,-8.230438232421875,-8.263947486877441,0.0,0.0,0.0,0,-63,,,
161,39430888,1678489642.419423,0.0,0.0,0.25,0.5,0.0,-8.287802696228027,-8.332209587097168,0.0,0.0,0.0,0,-63,,,
162,39530848,1678489642.5193832,0.0,0.0,0.25,0.5,0.0,-8.352445602416992,-8.187708854675293,0.0,0.0,0.0,0,-63,,,
163,39630808,1678489642.6193433,0.0,0.0,0.25,0.5,0.0,-8.41272258758545,-8.25830364227295,0.0,0.0,0.0,0,-63,,,
164,39730768,1678489642.7193031,0.0,0.0,0.25,0.5,0.0,-8.467334747314453,-8.362006187438965,0.0,0.0,0.0,0,-63,,,
165,39830728,1678489642.8192632,0.0,0.0,0.25,0.5,0.0,-8.52011775970459,-8.581475257873535,0.0,0.0,0.0,0,-62,,,
166,39930688,1678489642.919223,0.0,0.0,0.25,0.5,0.0,-8.57974624633789,-8.4522066116333,0.0,0.0,0.0,0,-62,,,
167,40031481,1678489643.020016,0.0,0.0,0.25,0.5,0.0,-8.638246536254883,-8.492826461791992,0.0,0.0,0.0,0,-61,,,
168,40131441,1678489643.1199763,0.0,0.0,0.25,0.5,0.0,-8.6914701461792,-8.677850723266602,0.0,0.0,0.0,0,-61,,,
169,40231401,1678489643.219936,0.0,0.0,0.25,0.5,0.0,-8.746954917907715,-8.521793365478516,0.0,0.0,0.0,0,-60,,,
170,40331361,1678489643.3198962,0.0,0.0,0.25,0.5,0.0,-8.795928001403809,-8.840215682983398,0.0,0.0,0.0,0,-59,,,
171,40431321,1678489643.419856,0.0,0.0,0.25,0.5,0.0,-8.849535942077637,-8.915125846862793,0.0,0.0,0.0,0,-59,,,
172,40531281,1678489643.519816,0.0,0.0,0.25,0.5,0.0,-8.910983085632324,-8.881836891174316,0.0,0.0,0.0,0,-59,,,
173,40631241,1678489643.6197762,0.0,0.0,0.25,0.5,0.0,-8.973862648010254,-9.044679641723633,0.0,0.0,0.0,0,-60,,,
174,40731201,1678489643.719736,0.0,0.0,0.25,0.5,0.0,-9.041050910949709,-9.12758445739746,0.0,0.0,0.0,0,-60,,,
175,40831161,1678489643.819696,0.0,0.0,0.25,0.5,0.0,-9.113496780395508,-8.87209701538086,0.0,0.0,0.0,0,-61,,,
176,40931121,1678489643.9196563,0.0,0.0,0.25,0.5,0.0,-9.174407958984377,-9.129457473754885,0.0,0.0,0.0,0,-61,,,
177,41031081,1678489644.019616,0.0,0.0,0.25,0.5,0.0,-9.232540130615234,-9.019213676452637,0.0,0.0,0.0,0,-61,,,
178,41131041,1678489644.1195762,0.0,0.0,0.25,0.5,0.0,-9.283270835876465,-9.23773956298828,0.0,0.0,0.0,0,-60,,,
179,41231001,1678489644.219536,0.0,0.0,0.25,0.5,0.0,-9.334020614624023,-9.27056884765625,0.0,0.0,0.0,0,-59,,,
180,41330961,1678489644.319496,0.0,0.0,0.25,0.5,0.0,-9.38661766052246,-9.493274688720703,0.0,0.0,0.0,0,-58,,,
181,41430921,1678489644.4194562,0.0,0.0,0.25,0.5,0.0,-9.447117805480955,-9.403397560119627,0.0,0.0,0.0,0,-59,,,
182,41530881,1678489644.519416,0.0,0.0,0.25,0.5,0.0,-9.50884246826172,-9.364569664001465,0.0,0.0,0.0,0,-59,,,
183,41630841,1678489644.619376,0.0,0.0,0.25,0.5,0.0,-9.5651216506958,-9.714622497558594,0.0,0.0,0.0,0,-58,,,
184,41730801,1678489644.7193363,0.0,0.0,0.25,0.5,0.0,-9.626853942871094,-9.558147430419922,0.0,0.0,0.0,0,-59,,,
185,41830761,1678489644.819296,0.0,0.0,0.25,0.5,0.0,-9.690145492553713,-9.85515022277832,0.0,0.0,0.0,0,-59,,,
186,41930721,1678489644.9192562,0.0,0.0,0.25,0.5,0.0,-9.759051322937012,-9.581552505493164,0.0,0.0,0.0,0,-60,,,
187,42030681,1678489645.019216,0.0,0.0,0.25,0.5,0.0,-9.8236722946167,-10.025219917297363,0.0,0.0,0.0,0,-60,,,
188,42131474,1678489645.1200092,0.0,0.0,0.25,0.5,0.0,-9.89334774017334,-10.025470733642578,0.0,0.0,0.0,0,-61,,,
189,42231434,1678489645.2199693,0.0,0.0,0.25,0.5,0.0,-9.971246719360352,-10.115884780883787,0.0,0.0,0.0,0,-62,,,
190,42331394,1678489645.3199291,0.0,0.0,0.25,0.5,0.0,-10.05466651916504,-9.928300857543944,0.0,0.0,0.0,0,-64,,,
191,42431354,1678489645.4198892,0.0,0.0,0.25,0.5,0.0,-10.132307052612305,-10.036846160888672,0.0,0.0,0.0,0,-65,,,
192,42531314,1678489645.519849,0.0,0.0,0.25,0.5,0.0,-10.201675415039062,-10.261337280273438,0.0,0.0,0.0,0,-65,,,
193,42631274,1678489645.6198092,0.0,0.0,0.5,0.5,0.0,-10.265583038330078,-10.24700927734375,0.0,0.0,0.0,0,-50,,,
194,42731234,1678489645.7197692,0.0,0.0,0.5,0.5,0.0,-10.31601333618164,-10.157158851623535,0.0,0.0,0.0,0,-40,,,
195,42831194,1678489645.819729,0.0,0.0,0.5,0.5,0.0,-10.351228713989258,-10.18140983581543,0.0,0.0,0.0,0,-33,,,
196,42931154,1678489645.9196892,0.0,0.0,0.5,0.5,0.0,-10.37247085571289,-10.174304962158203,0.0,0.0,0.0,0,-27,,,
197,43031114,1678489646.0196493,0.0,0.0,0.5,0.5,0.0,-10.382007598876951,-10.33283519744873,0.0,0.0,0.0,0,-22,,,
198,43131074,1678489646.119609,0.0,0.0,0.5,0.5,0.0,-10.388224601745604,-10.140777587890623,0.0,0.0,0.0,0,-18,,,
199,43231034,1678489646.2195692,0.0,0.0,0.5,0.5,0.0,-10.386764526367188,-10.269343376159668,0.0,0.0,0.0,0,-15,,,
200,43330994,1678489646.319529,0.0,0.0,0.5,0.5,0.0,-10.380037307739258,-10.388413429260254,0.0,0.0,0.0,0,-11,,,
201,43430954,1678489646.4194891,0.0,0.0,0.5,0.5,0.0,-10.37513256072998,-10.339029312133787,0.0,0.0,0.0,0,-9,,,
202,43530914,1678489646.5194492,0.0,0.0,0.5,0.5,0.0,-10.374112129211426,-10.341020584106444,0.0,0.0,0.0,0,-7,,,
203,43630874,1678489646.619409,0.0,0.0,0.5,0.5,0.0,-10.373178482055664,-10.280628204345703,0.0,0.0,0.0,0,-5,,,
204,43730834,1678489646.7193692,0.0,0.0,0.5,0.5,0.0,-10.369132995605469,-10.340532302856444,0.0,0.0,0.0,0,-4,,,
205,43830794,1678489646.8193293,0.0,0.0,0.5,0.5,0.0,-10.364412307739258,-10.51908016204834,0.0,0.0,0.0,0,-2,,,
206,43930754,1678489646.919289,0.0,0.0,0.5,0.5,0.0,-10.367902755737305,-10.318644523620604,0.0,0.0,0.0,0,-1,,,
207,44030714,1678489647.0192492,0.0,0.0,0.5,0.5,0.0,-10.370158195495604,-10.620661735534668,0.0,0.0,0.0,0,-1,,,
208,44131507,1678489647.120042,0.0,0.0,0.5,0.5,0.0,-10.382060050964355,-10.560978889465332,0.0,0.0,0.0,0,-1,,,
209,44231467,1678489647.220002,0.0,0.0,0.5,0.5,0.0,-10.401532173156738,-10.574687957763672,0.0,0.0,0.0,0,-1,,,
210,44331427,1678489647.3199623,0.0,0.0,0.5,0.5,0.0,-10.425227165222168,-10.549907684326172,0.0,0.0,0.0,0,-2,,,
211,44431387,1678489647.419922,0.0,0.0,0.5,0.5,0.0,-10.449831008911133,-10.513182640075684,0.0,0.0,0.0,0,-3,,,
212,44531347,1678489647.5198822,0.0,0.0,0.5,0.5,0.0,-10.471866607666016,-10.41695499420166,0.0,0.0,0.0,0,-4,,,
213,44631307,1678489647.619842,0.0,0.0,0.5,0.5,0.0,-10.486167907714844,-10.468780517578123,0.0,0.0,0.0,0,-4,,,
214,44731267,1678489647.719802,0.0,0.0,0.5,0.5,0.0,-10.49518871307373,-10.222023010253906,0.0,0.0,0.0,0,-4,,,
215,44831227,1678489647.8197622,0.0,0.0,0.5,0.5,0.0,-10.489511489868164,-10.37416934967041,0.0,0.0,0.0,0,-2,,,
216,44931187,1678489647.919722,0.0,0.0,0.5,0.5,0.0,-10.47685432434082,-10.399486541748049,0.0,0.0,0.0,0,0,,,
217,45031147,1678489648.019682,0.0,0.0,0.5,0.5,0.0,-10.462730407714844,-10.433587074279783,0.0,0.0,0.0,0,1,,,
218,45131107,1678489648.1196423,0.0,0.0,0.5,0.5,0.0,-10.449874877929688,-10.60304355621338,0.0,0.0,0.0,0,2,,,
219,45231067,1678489648.219602,0.0,0.0,0.5,0.5,0.0,-10.446294784545898,-10.36971664428711,0.0,0.0,0.0,0,2,,,
220,45331027,1678489648.3195622,0.0,0.0,0.5,0.5,0.0,-10.441197395324709,-10.429338455200195,0.0,0.0,0.0,0,3,,,
221,45430987,1678489648.419522,0.0,0.0,0.5,0.5,0.0,-10.434572219848633,-10.211663246154783,0.0,0.0,0.0,0,4,,,
222,45530947,1678489648.519482,0.0,0.0,0.5,0.5,0.0,-10.418014526367188,-10.40794277191162,0.0,0.0,0.0,0,5,,,
223,45630907,1678489648.6194422,0.0,0.0,0.5,0.5,0.0,-10.400762557983398,-10.507343292236328,0.0,0.0,0.0,0,7,,,
224,45730867,1678489648.719402,0.0,0.0,0.5,0.5,0.0,-10.39065647125244,-10.563164710998535,0.0,0.0,0.0,0,7,,,
225,45830827,1678489648.819362,0.0,0.0,0.5,0.5,0.0,-10.38985824584961,-10.197258949279783,0.0,0.0,0.0,0,7,,,
226,45930787,1678489648.9193223,0.0,0.0,0.5,0.5,0.0,-10.380220413208008,-10.396963119506836,0.0,0.0,0.0,0,8,,,
227,46030747,1678489649.019282,0.0,0.0,0.5,0.5,0.0,-10.36856746673584,-10.396245002746582,0.0,0.0,0.0,0,8,,,
228,46130707,1678489649.119242,0.0,0.0,0.5,0.5,0.0,-10.358587265014648,-10.234872817993164,0.0,0.0,0.0,0,9,,,
229,46231500,1678489649.220035,0.0,0.0,0.5,0.5,0.0,-10.342971801757812,-10.227544784545898,0.0,0.0,0.0,0,10,,,
230,46331460,1678489649.3199952,0.0,0.0,0.5,0.5,0.0,-10.321669578552246,-10.509641647338867,0.0,0.0,0.0,0,11,,,
231,46431420,1678489649.4199553,0.0,0.0,0.5,0.5,0.0,-10.308293342590332,-10.501761436462402,0.0,0.0,0.0,0,11,,,
232,46531380,1678489649.519915,0.0,0.0,0.5,0.5,0.0,-10.306118965148926,-10.232351303100586,0.0,0.0,0.0,0,11,,,
233,46631340,1678489649.6198752,0.0,0.0,0.5,0.5,0.0,-10.301793098449709,-10.25462245941162,0.0,0.0,0.0,0,10,,,
234,46731300,1678489649.7198353,0.0,0.0,0.5,0.5,0.0,-10.291509628295898,-10.361883163452148,0.0,0.0,0.0,0,11,,,
235,46831260,1678489649.8197951,0.0,0.0,0.5,0.5,0.0,-10.281967163085938,-10.150689125061035,0.0,0.0,0.0,0,11,,,
236,46931220,1678489649.9197552,0.0,0.0,0.5,0.5,0.0,-10.2677583694458,-10.47177791595459,0.0,0.0,0.0,0,11,,,
237,47031180,1678489650.019715,0.0,0.0,0.5,0.5,0.0,-10.258694648742676,-10.39645767211914,0.0,0.0,0.0,0,11,,,
238,47131140,1678489650.1196752,0.0,0.0,0.5,0.5,0.0,-10.257704734802246,-10.33766269683838,0.0,0.0,0.0,0,10,,,
239,47231100,1678489650.2196352,0.0,0.0,0.5,0.5,0.0,-10.258804321289062,-10.165929794311523,0.0,0.0,0.0,0,10,,,
240,47331060,1678489650.319595,0.0,0.0,0.5,0.5,0.0,-10.253942489624023,-10.471652030944824,0.0,0.0,0.0,0,10,,,
241,47431020,1678489650.4195552,0.0,0.0,0.5,0.5,0.0,-10.253149032592772,-10.473368644714355,0.0,0.0,0.0,0,9,,,
242,47530980,1678489650.5195153,0.0,0.0,0.5,0.5,0.0,-10.261807441711426,-10.339710235595703,0.0,0.0,0.0,0,8,,,
243,47603000,1678489650.5195153,0.0,0.0,0.5,0.5,0.0,-10.261807441711426,-10.339710235595703,0.0,0.0,0.0,0,8,-20.0,-10.269851684570312,9.635148315429689
244,47603000,1678489650.5195153,0.0,0.0,0.5,0.5,0.0,-10.261807441711426,-10.339710235595703,0.0,0.0,0.0,0,8,-20.0,-10.269851684570312,9.635148315429689
245,47630940,1678489650.6194751,0.0,0.0,0.5,0.5,0.0,-10.27207088470459,-10.19468593597412,0.0,0.0,0.0,0,6,-20.0,-10.269851684570312,9.635148315429689
246,47730900,1678489650.7194352,0.0,0.0,0.5,0.5,0.0,-10.275190353393556,-10.410125732421877,0.0,0.0,0.0,0,6,-20.0,-10.269851684570312,9.635148315429689
247,47830860,1678489650.819395,0.0,0.0,0.5,0.5,0.0,-10.278347969055176,-10.096388816833496,0.0,9.62,0.0,0,5,-20.0,-10.269851684570312,9.635148315429689
248,47853000,1678489650.819395,0.0,0.0,0.5,0.5,0.0,-10.278347969055176,-10.096388816833496,0.0,9.62,0.0,0,5,-20.0,-10.279592514038086,9.625407485961912
249,47853000,1678489650.819395,0.0,0.0,0.5,0.5,0.0,-10.278347969055176,-10.096388816833496,0.0,9.62,0.0,0,5,-20.0,-10.279592514038086,9.625407485961912
250,47930820,1678489650.9193552,0.0,0.0,0.5,0.5,0.0,-10.274200439453123,-10.258334159851074,0.0,9.62,0.0,0,5,-20.0,-10.279592514038086,9.625407485961912
251,48030780,1678489651.0193152,0.0,0.0,0.5,0.5,0.0,-10.264866828918455,-10.253813743591309,0.0,9.6,0.0,0,6,-20.0,-10.279592514038086,9.625407485961912
252,48103000,1678489651.0193152,0.0,0.0,0.5,0.5,0.0,-10.264866828918455,-10.253813743591309,0.0,9.6,0.0,0,6,-20.0,-10.257969856262209,9.647030143737792
253,48103000,1678489651.0193152,0.0,0.0,0.5,0.5,0.0,-10.264866828918455,-10.253813743591309,0.0,9.6,0.0,0,6,-20.0,-10.257969856262209,9.647030143737792
254,48103000,1678489651.0193152,0.0,0.0,0.5,0.5,0.0,-10.264866828918455,-10.253813743591309,0.0,9.6,0.0,0,6,-20.0,-10.257969856262209,9.647030143737792
255,48130740,1678489651.119275,0.0,0.0,0.5,0.5,0.0,-10.255468368530272,-10.315165519714355,0.0,9.6,0.0,0,6,-20.0,-10.257969856262209,9.647030143737792
256,48230700,1678489651.2192352,0.0,0.0,0.5,0.5,0.0,-10.248801231384276,-10.37675666809082,0.0,9.62,0.0,0,6,-20.0,-10.257969856262209,9.647030143737792
257,48331493,1678489651.320028,0.0,0.0,0.5,0.5,0.0,-10.24802589416504,-9.999008178710938,0.0,9.62,0.0,0,6,-20.0,-10.257969856262209,9.647030143737792
258,48353000,1678489651.320028,0.0,0.0,0.5,0.5,0.0,-10.24802589416504,-9.999008178710938,0.0,9.62,0.0,0,6,-20.0,-10.24855899810791,9.65644100189209
259,48353000,1678489651.320028,0.0,0.0,0.5,0.5,0.0,-10.24802589416504,-9.999008178710938,0.0,9.62,0.0,0,6,-20.0,-10.24855899810791,9.65644100189209
260,48431453,1678489651.419988,0.0,0.0,0.5,0.5,0.0,-10.23878574371338,-10.22389316558838,0.0,9.62,0.0,0,6,-20.0,-10.24855899810791,9.65644100189209
261,48531413,1678489651.5199482,0.0,0.0,0.5,0.5,0.0,-10.224651336669922,-10.31216049194336,0.0,9.63,0.0,0,6,-20.0,-10.24855899810791,9.65644100189209
262,48603000,1678489651.5199482,0.0,0.0,0.5,0.5,0.0,-10.224651336669922,-10.31216049194336,0.0,9.63,0.0,0,6,-20.0,-10.217442512512209,9.687557487487792
263,48603000,1678489651.5199482,0.0,0.0,0.5,0.5,0.0,-10.224651336669922,-10.31216049194336,0.0,9.63,0.0,0,6,-20.0,-10.217442512512209,9.687557487487792
264,48631373,1678489651.619908,0.0,0.0,0.5,0.5,0.0,-10.215627670288086,-10.084545135498049,0.0,9.63,0.0,0,7,-20.0,-10.217442512512209,9.687557487487792
265,48731333,1678489651.719868,0.0,0.0,0.5,0.5,0.0,-10.203986167907717,-9.97056484222412,0.0,9.66,0.0,0,7,-20.0,-10.217442512512209,9.687557487487792
266,48831293,1678489651.8198283,0.0,0.0,0.5,0.5,0.0,-10.182090759277344,-9.999095916748049,0.0,9.66,0.0,0,8,-20.0,-10.217442512512209,9.687557487487792
267,48853000,1678489651.8198283,0.0,0.0,0.5,0.5,0.0,-10.182090759277344,-9.999095916748049,0.0,9.66,0.0,0,8,-20.0,-10.176019668579102,9.728980331420898
268,48853000,1678489651.8198283,0.0,0.0,0.5,0.5,0.0,-10.182090759277344,-9.999095916748049,0.0,9.66,0.0,0,8,-20.0,-10.176019668579102,9.728980331420898
269,48853000,1678489651.8198283,0.0,0.0,0.5,0.5,0.0,-10.182090759277344,-9.999095916748049,0.0,9.66,0.0,0,8,-20.0,-10.176019668579102,9.728980331420898
270,48931253,1678489651.919788,0.0,0.0,0.5,0.5,0.0,-10.152565956115724,-10.28302764892578,0.0,9.66,0.0,0,10,-20.0,-10.176019668579102,9.728980331420898
271,49031213,1678489652.0197482,0.0,0.0,0.5,0.5,0.0,-10.130149841308594,-9.985610961914062,0.0,9.7,0.0,0,10,-20.0,-10.176019668579102,9.728980331420898
272,49103000,1678489652.0197482,0.0,0.0,0.5,0.5,0.0,-10.130149841308594,-9.985610961914062,0.0,9.7,0.0,0,10,-20.0,-10.114752769470217,9.790247230529785
273,49103000,1678489652.0197482,0.0,0.0,0.5,0.5,0.0,-10.130149841308594,-9.985610961914062,0.0,9.7,0.0,0,10,-20.0,-10.114752769470217,9.790247230529785
274,49131173,1678489652.119708,0.0,0.0,0.5,0.5,0.0,-10.108482360839844,-9.944534301757812,0.0,9.7,0.0,0,11,-20.0,-10.114752769470217,9.790247230529785
275,49231133,1678489652.219668,0.0,0.0,0.5,0.5,0.0,-10.08078384399414,-10.256444931030272,0.0,9.77,0.0,0,12,-20.0,-10.114752769470217,9.790247230529785
276,49331093,1678489652.3196282,0.0,0.0,0.5,0.5,0.0,-10.060745239257812,-9.894247055053713,0.0,9.77,0.0,0,13,-20.0,-10.114752769470217,9.790247230529785
277,49353000,1678489652.3196282,0.0,0.0,0.5,0.5,0.0,-10.060745239257812,-9.894247055053713,0.0,9.77,0.0,0,13,-20.0,-10.057340621948242,9.847659378051755
278,49353000,1678489652.3196282,0.0,0.0,0.5,0.5,0.0,-10.060745239257812,-9.894247055053713,0.0,9.77,0.0,0,13,-20.0,-10.057340621948242,9.847659378051755
279,49353000,1678489652.3196282,0.0,0.0,0.5,0.5,0.0,-10.060745239257812,-9.894247055053713,0.0,9.77,0.0,0,13,-20.0,-10.057340621948242,9.847659378051755
280,49431053,1678489652.419588,0.0,0.0,0.5,0.5,0.0,-10.039901733398438,-10.102643966674805,0.0,9.83,0.0,0,13,-20.0,-10.057340621948242,9.847659378051755
281,49531013,1678489652.519548,0.0,0.0,0.5,0.5,0.0,-10.01992893218994,-9.994183540344238,0.0,9.83,0.0,0,14,-20.0,-10.057340621948242,9.847659378051755
282,49603000,1678489652.519548,0.0,0.0,0.5,0.5,0.0,-10.01992893218994,-9.994183540344238,0.0,9.83,0.0,0,14,-20.0,-10.006534576416016,9.898465423583984
283,49603000,1678489652.519548,0.0,0.0,0.5,0.5,0.0,-10.01992893218994,-9.994183540344238,0.0,9.83,0.0,0,14,-20.0,-10.006534576416016,9.898465423583984
284,49630973,1678489652.6195083,0.0,0.0,0.5,0.5,0.0,-10.001060485839844,-10.210441589355469,0.0,9.83,0.0,0,14,-20.0,-10.006534576416016,9.898465423583984
285,49730933,1678489652.719468,0.0,0.0,0.5,0.5,0.0,-9.992377281188965,-10.170636177062988,0.0,9.87,0.0,0,13,-20.0,-10.006534576416016,9.898465423583984
286,49830893,1678489652.8194282,0.0,0.0,0.5,0.5,0.0,-9.99221897125244,-10.029332160949709,0.0,9.87,0.0,0,12,-20.0,-10.006534576416016,9.898465423583984
287,49853000,1678489652.8194282,0.0,0.0,0.5,0.5,0.0,-9.99221897125244,-10.029332160949709,0.0,9.87,0.0,0,12,-20.0,-9.991045951843262,9.913954048156738
288,49853000,1678489652.8194282,0.0,0.0,0.5,0.5,0.0,-9.99221897125244,-10.029332160949709,0.0,9.87,0.0,0,12,-20.0,-9.991045951843262,9.913954048156738
289,49930853,1678489652.919388,0.0,0.0,0.5,0.5,0.0,-9.991649627685549,-9.866509437561035,0.0,9.89,0.0,0,11,-20.0,-9.991045951843262,9.913954048156738
290,50030813,1678489653.019348,0.0,0.0,0.5,0.5,0.0,-9.981916427612305,-9.857962608337402,0.0,9.89,0.0,0,11,-20.0,-9.991045951843262,9.913954048156738
291,50103000,1678489653.019348,0.0,0.0,0.5,0.5,0.0,-9.981916427612305,-9.857962608337402,0.0,9.89,0.0,0,11,-20.0,-9.969911575317385,9.935088424682617
292,50103000,1678489653.019348,0.0,0.0,0.5,0.5,0.0,-9.981916427612305,-9.857962608337402,0.0,9.89,0.0,0,11,-20.0,-9.969911575317385,9.935088424682617
293,50103000,1678489653.019348,0.0,0.0,0.5,0.5,0.0,-9.981916427612305,-9.857962608337402,0.0,9.89,0.0,0,11,-20.0,-9.969911575317385,9.935088424682617
294,50130773,1678489653.1193082,0.0,0.0,0.5,0.5,0.0,-9.963641166687012,-10.007143020629885,0.0,9.91,0.0,0,12,-20.0,-9.969911575317385,9.935088424682617
295,50230733,1678489653.219268,0.0,0.0,0.5,0.5,0.0,-9.946650505065918,-10.039411544799805,0.0,9.91,0.0,0,13,-20.0,-9.969911575317385,9.935088424682617
296,50330693,1678489653.319228,0.0,0.0,0.5,0.5,0.0,-9.934946060180664,-10.1069974899292,0.0,9.91,0.0,0,12,-20.0,-9.969911575317385,9.935088424682617
297,50353000,1678489653.319228,0.0,0.0,0.5,0.5,0.0,-9.934946060180664,-10.1069974899292,0.0,9.91,0.0,0,12,-20.0,-9.932333946228027,9.972666053771972
298,50353000,1678489653.319228,0.0,0.0,0.5,0.5,0.0,-9.934946060180664,-10.1069974899292,0.0,9.91,0.0,0,12,-20.0,-9.932333946228027,9.972666053771972
299,50431486,1678489653.420021,0.0,0.0,0.5,0.5,0.0,-9.931055068969728,-9.91044807434082,0.0,9.91,0.0,0,12,-20.0,-9.932333946228027,9.972666053771972
300,50531446,1678489653.5199811,0.0,0.0,0.5,0.5,0.0,-9.925529479980469,-9.912490844726562,0.0,9.95,0.0,0,11,-20.0,-9.932333946228027,9.972666053771972
301,50603000,1678489653.5199811,0.0,0.0,0.5,0.5,0.0,-9.925529479980469,-9.912490844726562,0.0,9.95,0.0,0,11,-20.0,-9.919605255126951,9.985394744873046
302,50603000,1678489653.5199811,0.0,0.0,0.5,0.5,0.0,-9.925529479980469,-9.912490844726562,0.0,9.95,0.0,0,11,-20.0,-9.919605255126951,9.985394744873046
303,50603000,1678489653.5199811,0.0,0.0,0.5,0.5,0.0,-9.925529479980469,-9.912490844726562,0.0,9.95,0.0,0,11,-20.0,-9.919605255126951,9.985394744873046
304,50631406,1678489653.6199412,0.0,0.0,0.5,0.5,0.0,-9.916906356811523,-9.783997535705566,0.0,9.95,0.0,0,11,-20.0,-9.919605255126951,9.985394744873046
305,50731366,1678489653.719901,0.0,0.0,0.5,0.5,0.0,-9.90150547027588,-9.96837329864502,0.0,9.96,0.0,0,12,-20.0,-9.919605255126951,9.985394744873046
306,50831326,1678489653.8198612,0.0,0.0,0.5,0.5,0.0,-9.886395454406738,-10.15061092376709,0.0,9.96,0.0,0,12,-20.0,-9.919605255126951,9.985394744873046
307,50853000,1678489653.8198612,0.0,0.0,0.5,0.5,0.0,-9.886395454406738,-10.15061092376709,0.0,9.96,0.0,0,12,-20.0,-9.883408546447754,10.021591453552244
308,50853000,1678489653.8198612,0.0,0.0,0.5,0.5,0.0,-9.886395454406738,-10.15061092376709,0.0,9.96,0.0,0,12,-20.0,-9.883408546447754,10.021591453552244
309,50931286,1678489653.9198213,0.0,0.0,0.5,0.5,0.0,-9.882993698120115,-9.81236171722412,0.0,9.95,0.0,0,11,-20.0,-9.883408546447754,10.021591453552244
310,51031246,1678489654.019781,0.0,0.0,0.5,0.5,0.0,-9.87936019897461,-9.79146957397461,0.0,10.0,0.0,0,11,-20.0,-9.883408546447754,10.021591453552244
311,51103000,1678489654.019781,0.0,0.0,0.5,0.5,0.0,-9.87936019897461,-9.79146957397461,0.0,10.0,0.0,0,11,-20.0,-9.871895790100098,10.033104209899902
312,51103000,1678489654.019781,0.0,0.0,0.5,0.5,0.0,-9.87936019897461,-9.79146957397461,0.0,10.0,0.0,0,11,-20.0,-9.871895790100098,10.033104209899902
313,51103000,1678489654.019781,0.0,0.0,0.5,0.5,0.0,-9.87936019897461,-9.79146957397461,0.0,10.0,0.0,0,11,-20.0,-9.871895790100098,10.033104209899902
314,51131206,1678489654.1197412,0.0,0.0,0.5,0.5,0.0,-9.86821746826172,-10.079448699951172,0.0,10.0,0.0,0,11,-20.0,-9.871895790100098,10.033104209899902
315,51231166,1678489654.219701,0.0,0.0,0.5,0.5,0.0,-9.86270809173584,-9.719889640808104,0.0,10.01,0.0,0,10,-20.0,-9.871895790100098,10.033104209899902
316,51331126,1678489654.3196611,0.0,0.0,0.5,0.5,0.0,-9.854166030883787,-9.788070678710938,0.0,10.01,0.0,0,10,-20.0,-9.871895790100098,10.033104209899902
317,51353000,1678489654.3196611,0.0,0.0,0.5,0.5,0.0,-9.854166030883787,-9.788070678710938,0.0,10.01,0.0,0,10,-20.0,-9.85117530822754,10.05382469177246
318,51353000,1678489654.3196611,0.0,0.0,0.5,0.5,0.0,-9.854166030883787,-9.788070678710938,0.0,10.01,0.0,0,10,-20.0,-9.85117530822754,10.05382469177246
319,51431086,1678489654.4196212,0.3714741170406341,0.0,0.4808086156845093,0.5,-9.83965015411377,-9.83908462524414,-9.71906280517578,9.95,10.01,0.0,10,11,-20.0,-9.85117530822754,10.05382469177246
320,51531046,1678489654.519581,0.3403871655464172,0.0,0.3600491285324096,0.5,-9.830373764038086,-9.820034980773926,-9.706055641174316,9.95,10.04,0.0,4,8,-20.0,-9.85117530822754,10.05382469177246
321,51603000,1678489654.519581,0.3403871655464172,0.0,0.3600491285324096,0.5,-9.830373764038086,-9.820034980773926,-9.706055641174316,9.95,10.04,0.0,4,8,-20.0,-9.806716918945312,10.098283081054689
322,51603000,1678489654.519581,0.3403871655464172,0.0,0.3600491285324096,0.5,-9.830373764038086,-9.820034980773926,-9.706055641174316,9.95,10.04,0.0,4,8,-20.0,-9.806716918945312,10.098283081054689
323,51631006,1678489654.6195412,0.3563922643661499,0.0,0.3543256521224975,0.5,-9.824950218200684,-9.802728652954102,-9.68235969543457,9.95,10.04,0.0,-2,1,-20.0,-9.806716918945312,10.098283081054689
324,51730966,1678489654.7195013,0.3528130948543548,0.0,0.3535901010036468,0.5,-9.822847366333008,-9.789758682250977,-9.821712493896484,9.95,10.08,0.0,-9,-4,-20.0,-9.806716918945312,10.098283081054689
325,51830926,1678489654.819461,0.3677332997322082,0.0,0.3537683188915252,0.5,-9.823795318603516,-9.787192344665527,-9.977699279785156,9.95,10.08,0.0,-13,-10,-20.0,-9.806716918945312,10.098283081054689
326,51853000,1678489654.819461,0.3677332997322082,0.0,0.3537683188915252,0.5,-9.823795318603516,-9.787192344665527,-9.977699279785156,9.95,10.08,0.0,-13,-10,-20.0,-9.78797721862793,10.11702278137207
327,51853000,1678489654.819461,0.3677332997322082,0.0,0.3537683188915252,0.5,-9.823795318603516,-9.787192344665527,-9.977699279785156,9.95,10.08,0.0,-13,-10,-20.0,-9.78797721862793,10.11702278137207
328,51853000,1678489654.819461,0.3677332997322082,0.0,0.3537683188915252,0.5,-9.823795318603516,-9.787192344665527,-9.977699279785156,9.95,10.08,0.0,-13,-10,-20.0,-9.78797721862793,10.11702278137207
329,51930886,1678489654.9194212,0.410414457321167,0.0,0.374405026435852,0.5,-9.827625274658203,-9.801820755004885,-9.93370246887207,9.95,10.08,0.0,-12,-15,-20.0,-9.78797721862793,10.11702278137207
330,52030846,1678489655.0193813,0.4627189040184021,0.0,0.4184988141059875,0.5,-9.834139823913574,-9.82822322845459,-9.799471855163574,9.95,10.09,0.0,-9,-17,-20.0,-9.78797721862793,10.11702278137207
331,52103000,1678489655.0193813,0.4627189040184021,0.0,0.4184988141059875,0.5,-9.834139823913574,-9.82822322845459,-9.799471855163574,9.95,10.09,0.0,-9,-17,-20.0,-9.847116470336914,10.057883529663084
332,52103000,1678489655.0193813,0.4627189040184021,0.0,0.4184988141059875,0.5,-9.834139823913574,-9.82822322845459,-9.799471855163574,9.95,10.09,0.0,-9,-17,-20.0,-9.847116470336914,10.057883529663084
333,52130806,1678489655.1193411,0.4952583611011505,0.0,0.4642115235328674,0.5,-9.84312629699707,-9.853147506713867,-9.907301902770996,9.95,10.09,0.0,-7,-15,-20.0,-9.847116470336914,10.057883529663084
334,52230766,1678489655.2193012,0.5021286606788635,0.0,0.4855944514274597,0.5,-9.854341506958008,-9.87503719329834,-9.89379596710205,9.95,10.04,0.0,-5,-13,-20.0,-9.847116470336914,10.057883529663084
335,52330726,1678489655.319261,0.5137767195701599,0.0,0.5030588507652283,0.5,-9.8672456741333,-9.894519805908203,-9.80315399169922,9.95,10.04,0.0,-5,-11,-20.0,-9.847116470336914,10.057883529663084
336,52353000,1678489655.319261,0.5137767195701599,0.0,0.5030588507652283,0.5,-9.8672456741333,-9.894519805908203,-9.80315399169922,9.95,10.04,0.0,-5,-11,-20.0,-9.898618698120115,10.006381301879882
337,52353000,1678489655.319261,0.5137767195701599,0.0,0.5030588507652283,0.5,-9.8672456741333,-9.894519805908203,-9.80315399169922,9.95,10.04,0.0,-5,-11,-20.0,-9.898618698120115,10.006381301879882
338,52353000,1678489655.319261,0.5137767195701599,0.0,0.5030588507652283,0.5,-9.8672456741333,-9.894519805908203,-9.80315399169922,9.95,10.04,0.0,-5,-11,-20.0,-9.898618698120115,10.006381301879882
339,52430686,1678489655.4192212,0.4882383942604065,0.0,0.5045074820518494,0.5,-9.881311416625977,-9.907236099243164,-10.085204124450684,9.95,9.99,0.0,-6,-10,-20.0,-9.898618698120115,10.006381301879882
340,52531479,1678489655.520014,0.4618672728538513,0.0,0.4784746766090393,0.5,-9.896158218383787,-9.922884941101074,-9.959145545959473,9.95,9.99,0.0,-6,-9,-20.0,-9.898618698120115,10.006381301879882
341,52603000,1678489655.520014,0.4618672728538513,0.0,0.4784746766090393,0.5,-9.896158218383787,-9.922884941101074,-9.959145545959473,9.95,9.99,0.0,-6,-9,-20.0,-9.936005592346191,9.968994407653808
342,52603000,1678489655.520014,0.4618672728538513,0.0,0.4784746766090393,0.5,-9.896158218383787,-9.922884941101074,-9.959145545959473,9.95,9.99,0.0,-6,-9,-20.0,-9.936005592346191,9.968994407653808
343,52631439,1678489655.619974,0.4828191697597503,0.0,0.4763669967651367,0.5,-9.910928726196287,-9.940433502197266,-10.055014610290527,9.95,9.99,0.0,-5,-8,-20.0,-9.936005592346191,9.968994407653808
344,52731399,1678489655.7199342,0.5175247192382812,0.0,0.4940705299377441,0.5,-9.92536449432373,-9.959331512451172,-10.143506050109863,9.95,9.95,0.0,-4,-8,-20.0,-9.936005592346191,9.968994407653808
345,52831359,1678489655.819894,0.6067354679107666,0.0,0.5477207899093628,0.5,-9.939146995544434,-9.983316421508787,-10.24245548248291,9.95,9.95,0.0,0,-8,-20.0,-9.936005592346191,9.968994407653808
346,52853000,1678489655.819894,0.6067354679107666,0.0,0.5477207899093628,0.5,-9.939146995544434,-9.983316421508787,-10.24245548248291,9.95,9.95,0.0,0,-8,-20.0,-9.989298820495604,9.915701179504394
347,52853000,1678489655.819894,0.6067354679107666,0.0,0.5477207899093628,0.5,-9.939146995544434,-9.983316421508787,-10.24245548248291,9.95,9.95,0.0,0,-8,-20.0,-9.989298820495604,9.915701179504394
348,52853000,1678489655.819894,0.6067354679107666,0.0,0.5477207899093628,0.5,-9.939146995544434,-9.983316421508787,-10.24245548248291,9.95,9.95,0.0,0,-8,-20.0,-9.989298820495604,9.915701179504394
349,52931319,1678489655.919854,0.6625605821609497,0.0,0.6166914105415344,0.5,-9.951894760131836,-10.013998985290527,-9.876672744750977,9.95,9.89,0.0,6,-6,-20.0,-9.989298820495604,9.915701179504394
350,53031279,1678489656.0198143,0.6168059706687927,0.0,0.6429617404937744,0.5,-9.963244438171388,-10.031907081604004,-10.184765815734863,9.95,9.89,0.0,10,0,-20.0,-9.989298820495604,9.915701179504394
351,53103000,1678489656.0198143,0.6168059706687927,0.0,0.6429617404937744,0.5,-9.963244438171388,-10.031907081604004,-10.184765815734863,9.95,9.89,0.0,10,0,-20.0,-10.038268089294434,9.866731910705566
352,53103000,1678489656.0198143,0.6168059706687927,0.0,0.6429617404937744,0.5,-9.963244438171388,-10.031907081604004,-10.184765815734863,9.95,9.89,0.0,10,0,-20.0,-10.038268089294434,9.866731910705566
353,53131239,1678489656.119774,0.5937289595603943,0.0,0.612800121307373,0.5,-9.972698211669922,-10.040109634399414,-10.14204216003418,9.95,9.89,0.0,11,6,-20.0,-10.038268089294434,9.866731910705566
354,53231199,1678489656.219734,0.5983508825302124,0.0,0.6032248139381409,0.5,-9.980022430419922,-10.046125411987305,-9.8489351272583,9.95,9.84,0.0,13,9,-20.0,-10.038268089294434,9.866731910705566
355,53331159,1678489656.3196943,0.5702819228172302,0.0,0.5995291471481323,0.5,-9.985045433044434,-10.038640022277832,-9.96868133544922,9.95,9.84,0.0,12,12,-20.0,-10.038268089294434,9.866731910705566
356,53353000,1678489656.3196943,0.5702819228172302,0.0,0.5995291471481323,0.5,-9.985045433044434,-10.038640022277832,-9.96868133544922,9.95,9.84,0.0,12,12,-20.0,-10.035216331481934,9.869783668518066
357,53353000,1678489656.3196943,0.5702819228172302,0.0,0.5995291471481323,0.5,-9.985045433044434,-10.038640022277832,-9.96868133544922,9.95,9.84,0.0,12,12,-20.0,-10.035216331481934,9.869783668518066
358,53431119,1678489656.419654,0.5156261324882507,0.0,0.5591874122619629,0.5,-9.987479209899902,-10.02085304260254,-10.1917142868042,9.95,9.84,0.0,8,14,-20.0,-10.035216331481934,9.869783668518066
359,53531079,1678489656.5196142,0.5077102184295654,0.0,0.5205644965171814,0.5,-9.987247467041016,-10.008983612060549,-9.954848289489746,9.95,9.84,0.0,8,12,-20.0,-10.035216331481934,9.869783668518066
360,53603000,1678489656.5196142,0.5077102184295654,0.0,0.5205644965171814,0.5,-9.987247467041016,-10.008983612060549,-9.954848289489746,9.95,9.84,0.0,8,12,-20.0,-10.00214958190918,9.90285041809082
361,53603000,1678489656.5196142,0.5077102184295654,0.0,0.5205644965171814,0.5,-9.987247467041016,-10.008983612060549,-9.954848289489746,9.95,9.84,0.0,8,12,-20.0,-10.00214958190918,9.90285041809082
362,53603000,1678489656.5196142,0.5077102184295654,0.0,0.5205644965171814,0.5,-9.987247467041016,-10.008983612060549,-9.954848289489746,9.95,9.84,0.0,8,12,-20.0,-10.00214958190918,9.90285041809082
363,53631039,1678489656.619574,0.5428062677383423,0.0,0.5293133854866028,0.5,-9.984430313110352,-9.999187469482422,-9.863775253295898,9.95,9.88,0.0,8,11,-20.0,-10.00214958190918,9.90285041809082
364,53730999,1678489656.719534,0.5289837121963501,0.0,0.5374913811683655,0.5,-9.97928524017334,-9.983394622802734,-9.974252700805664,9.95,9.88,0.0,7,10,-20.0,-10.00214958190918,9.90285041809082
365,53830959,1678489656.8194942,0.4969624876976013,0.0,0.5176088213920593,0.5,-9.972153663635254,-9.966336250305176,-9.938427925109863,9.95,9.88,0.0,6,10,-20.0,-10.00214958190918,9.90285041809082
366,53853000,1678489656.8194942,0.4969624876976013,0.0,0.5176088213920593,0.5,-9.972153663635254,-9.966336250305176,-9.938427925109863,9.95,9.88,0.0,6,10,-20.0,-9.962677001953123,9.942322998046874
367,53853000,1678489656.8194942,0.4969624876976013,0.0,0.5176088213920593,0.5,-9.972153663635254,-9.966336250305176,-9.938427925109863,9.95,9.88,0.0,6,10,-20.0,-9.962677001953123,9.942322998046874
368,53930919,1678489656.919454,0.4718290269374847,0.0,0.4925287365913391,0.5,-9.963489532470703,-9.950757026672363,-9.719910621643066,9.95,9.92,0.0,5,10,-20.0,-9.962677001953123,9.942322998046874
369,54030879,1678489657.019414,0.4067997336387634,0.0,0.4540329873561859,0.5,-9.953743934631348,-9.92832088470459,-9.78014850616455,9.95,9.92,0.0,2,10,-20.0,-9.962677001953123,9.942322998046874
370,54103000,1678489657.019414,0.4067997336387634,0.0,0.4540329873561859,0.5,-9.953743934631348,-9.92832088470459,-9.78014850616455,9.95,9.92,0.0,2,10,-20.0,-9.908015251159668,9.996984748840331
371,54103000,1678489657.019414,0.4067997336387634,0.0,0.4540329873561859,0.5,-9.953743934631348,-9.92832088470459,-9.78014850616455,9.95,9.92,0.0,2,10,-20.0,-9.908015251159668,9.996984748840331
372,54103000,1678489657.019414,0.4067997336387634,0.0,0.4540329873561859,0.5,-9.953743934631348,-9.92832088470459,-9.78014850616455,9.95,9.92,0.0,2,10,-20.0,-9.908015251159668,9.996984748840331
373,54130839,1678489657.1193743,0.3513347506523132,0.0,0.3928124010562897,0.5,-9.943485260009766,-9.90087604522705,-9.87879467010498,9.95,9.92,0.0,-2,8,-20.0,-9.908015251159668,9.996984748840331
374,54230799,1678489657.219334,0.3739168643951416,0.0,0.3689013123512268,0.5,-9.933087348937988,-9.87934684753418,-9.90652561187744,9.95,9.91,0.0,-5,3,-20.0,-9.908015251159668,9.996984748840331
375,54330759,1678489657.3192942,0.4139370322227478,0.0,0.3865657746791839,0.5,-9.922739028930664,-9.869016647338867,-9.801867485046388,9.95,9.97,0.0,-5,-1,-20.0,-9.908015251159668,9.996984748840331
376,54353000,1678489657.3192942,0.4139370322227478,0.0,0.3865657746791839,0.5,-9.922739028930664,-9.869016647338867,-9.801867485046388,9.95,9.97,0.0,-5,-1,-20.0,-9.86777114868164,10.03722885131836
377,54353000,1678489657.3192942,0.4139370322227478,0.0,0.3865657746791839,0.5,-9.922739028930664,-9.869016647338867,-9.801867485046388,9.95,9.97,0.0,-5,-1,-20.0,-9.86777114868164,10.03722885131836
378,54430719,1678489657.419254,0.4413996934890747,0.0,0.4173466563224792,0.5,-9.91287612915039,-9.864131927490234,-9.835268020629885,9.95,9.97,0.0,-5,-3,-20.0,-9.86777114868164,10.03722885131836
379,54531512,1678489657.5200472,0.4495158493518829,0.0,0.4360769391059875,0.5,-9.90384578704834,-9.860858917236328,-9.847620010375977,9.95,10.01,0.0,-4,-4,-20.0,-9.86777114868164,10.03722885131836
380,54603000,1678489657.5200472,0.4495158493518829,0.0,0.4360769391059875,0.5,-9.90384578704834,-9.860858917236328,-9.847620010375977,9.95,10.01,0.0,-4,-4,-20.0,-9.861028671264648,10.043971328735353
381,54603000,1678489657.5200472,0.4495158493518829,0.0,0.4360769391059875,0.5,-9.90384578704834,-9.860858917236328,-9.847620010375977,9.95,10.01,0.0,-4,-4,-20.0,-9.861028671264648,10.043971328735353
382,54603000,1678489657.5200472,0.4495158493518829,0.0,0.4360769391059875,0.5,-9.90384578704834,-9.860858917236328,-9.847620010375977,9.95,10.01,0.0,-4,-4,-20.0,-9.861028671264648,10.043971328735353
383,54631472,1678489657.6200073,0.4544273018836975,0.0,0.4446791410446167,0.5,-9.89622974395752,-9.860770225524902,-9.744038581848145,9.95,10.01,0.0,-3,-4,-20.0,-9.861028671264648,10.043971328735353
384,54731432,1678489657.7199671,0.4379952847957611,0.0,0.4452421963214874,0.5,-9.890257835388184,-9.857625961303713,-10.015140533447266,9.95,10.02,0.0,-4,-4,-20.0,-9.861028671264648,10.043971328735353
385,54831392,1678489657.8199272,0.4483130872249603,0.0,0.4354704320430755,0.5,-9.886083602905272,-9.862869262695312,-9.94387912750244,9.95,10.02,0.0,-3,-5,-20.0,-9.861028671264648,10.043971328735353
386,54853000,1678489657.8199272,0.4483130872249603,0.0,0.4354704320430755,0.5,-9.886083602905272,-9.862869262695312,-9.94387912750244,9.95,10.02,0.0,-3,-5,-20.0,-9.86481761932373,10.040182380676267
387,54853000,1678489657.8199272,0.4483130872249603,0.0,0.4354704320430755,0.5,-9.886083602905272,-9.862869262695312,-9.94387912750244,9.95,10.02,0.0,-3,-5,-20.0,-9.86481761932373,10.040182380676267
388,54931352,1678489657.919887,0.4968360662460327,0.0,0.4619235694408417,0.5,-9.883746147155762,-9.87456226348877,-10.052144050598145,9.95,10.02,0.0,-1,-6,-20.0,-9.86481761932373,10.040182380676267
389,55031312,1678489658.0198472,0.5747241377830505,0.0,0.5108131170272827,0.5,-9.88318157196045,-9.893381118774414,-10.022621154785156,9.95,10.02,0.0,2,-6,-20.0,-9.86481761932373,10.040182380676267
390,55103000,1678489658.0198472,0.5747241377830505,0.0,0.5108131170272827,0.5,-9.88318157196045,-9.893381118774414,-10.022621154785156,9.95,10.02,0.0,2,-6,-20.0,-9.910040855407717,9.994959144592285
391,55103000,1678489658.0198472,0.5747241377830505,0.0,0.5108131170272827,0.5,-9.88318157196045,-9.893381118774414,-10.022621154785156,9.95,10.02,0.0,2,-6,-20.0,-9.910040855407717,9.994959144592285
392,55131272,1678489658.1198072,0.6495945453643799,0.0,0.593299150466919,0.5,-9.884269714355469,-9.915658950805664,-10.116437911987305,9.95,10.02,0.0,7,-5,-20.0,-9.910040855407717,9.994959144592285
393,55231232,1678489658.219767,0.6459612846374512,0.0,0.6301236152648926,0.5,-9.886833190917969,-9.93995189666748,-10.003324508666992,9.95,9.97,0.0,12,-1,-20.0,-9.910040855407717,9.994959144592285
394,55331192,1678489658.3197272,0.6242303848266602,0.0,0.6333084106445312,0.5,-9.890406608581545,-9.956659317016602,-9.993952751159668,9.95,9.97,0.0,15,4,-20.0,-9.910040855407717,9.994959144592285
395,55353000,1678489658.3197272,0.6242303848266602,0.0,0.6333084106445312,0.5,-9.890406608581545,-9.956659317016602,-9.993952751159668,9.95,9.97,0.0,15,4,-20.0,-9.959344863891602,9.945655136108398
396,55353000,1678489658.3197272,0.6242303848266602,0.0,0.6333084106445312,0.5,-9.890406608581545,-9.956659317016602,-9.993952751159668,9.95,9.97,0.0,15,4,-20.0,-9.959344863891602,9.945655136108398
397,55353000,1678489658.3197272,0.6242303848266602,0.0,0.6333084106445312,0.5,-9.890406608581545,-9.956659317016602,-9.993952751159668,9.95,9.97,0.0,15,4,-20.0,-9.959344863891602,9.945655136108398
398,55431152,1678489658.4196873,0.6026574969291687,0.0,0.6190751194953918,0.5,-9.89450740814209,-9.96329116821289,-9.84022617340088,9.95,9.97,0.0,16,9,-20.0,-9.959344863891602,9.945655136108398
399,55531112,1678489658.5196471,0.5523401498794556,0.0,0.589938759803772,0.5,-9.898653984069824,-9.9558687210083,-10.03126621246338,9.95,9.92,0.0,13,12,-20.0,-9.959344863891602,9.945655136108398
400,55603000,1678489658.5196471,0.5523401498794556,0.0,0.589938759803772,0.5,-9.898653984069824,-9.9558687210083,-10.03126621246338,9.95,9.92,0.0,13,12,-20.0,-9.948994636535645,9.956005363464357
401,55603000,1678489658.5196471,0.5523401498794556,0.0,0.589938759803772,0.5,-9.898653984069824,-9.9558687210083,-10.03126621246338,9.95,9.92,0.0,13,12,-20.0,-9.948994636535645,9.956005363464357
402,55631072,1678489658.6196072,0.51378333568573,0.0,0.5462576746940613,0.5,-9.902433395385742,-9.946609497070312,-9.78984832763672,9.95,9.92,0.0,9,12,-20.0,-9.948994636535645,9.956005363464357
403,55731032,1678489658.719567,0.4588606357574463,0.0,0.507638156414032,0.5,-9.905508041381836,-9.93049144744873,-9.919062614440918,9.95,9.93,0.0,4,11,-20.0,-9.948994636535645,9.956005363464357
404,55830992,1678489658.8195271,0.3693931698799133,0.0,0.4307136833667755,0.5,-9.907779693603516,-9.91385555267334,-9.893494606018066,9.95,9.93,0.0,0,10,-20.0,-9.948994636535645,9.956005363464357
405,55853000,1678489658.8195271,0.3693931698799133,0.0,0.4307136833667755,0.5,-9.907779693603516,-9.91385555267334,-9.893494606018066,9.95,9.93,0.0,0,10,-20.0,-9.910292625427246,9.994707374572751
406,55853000,1678489658.8195271,0.3693931698799133,0.0,0.4307136833667755,0.5,-9.907779693603516,-9.91385555267334,-9.893494606018066,9.95,9.93,0.0,0,10,-20.0,-9.910292625427246,9.994707374572751
407,55853000,1678489658.8195271,0.3693931698799133,0.0,0.4307136833667755,0.5,-9.907779693603516,-9.91385555267334,-9.893494606018066,9.95,9.93,0.0,0,10,-20.0,-9.910292625427246,9.994707374572751
408,55930952,1678489658.9194872,0.3778336942195892,0.0,0.3891312777996063,0.5,-9.909255981445312,-9.90019702911377,-9.790510177612305,9.95,9.93,0.0,-3,6,-20.0,-9.910292625427246,9.994707374572751
409,56030912,1678489659.019447,0.3843086957931518,0.0,0.3865914940834045,0.5,-9.909978866577148,-9.887582778930664,-9.821248054504396,9.95,9.97,0.0,-7,2,-20.0,-9.910292625427246,9.994707374572751
410,56103000,1678489659.019447,0.3843086957931518,0.0,0.3865914940834045,0.5,-9.909978866577148,-9.887582778930664,-9.821248054504396,9.95,9.97,0.0,-7,2,-20.0,-9.880081176757812,10.024918823242189
411,56103000,1678489659.019447,0.3843086957931518,0.0,0.3865914940834045,0.5,-9.909978866577148,-9.887582778930664,-9.821248054504396,9.95,9.97,0.0,-7,2,-20.0,-9.880081176757812,10.024918823242189
412,56130872,1678489659.1194072,0.3886892795562744,0.0,0.3851692974567413,0.5,-9.91012954711914,-9.878063201904297,-9.846181869506836,9.95,9.97,0.0,-9,-1,-20.0,-9.880081176757812,10.024918823242189
413,56230832,1678489659.2193673,0.4073531031608581,0.0,0.3944643437862396,0.5,-9.910070419311523,-9.87346076965332,-9.631109237670898,9.95,10.0,0.0,-10,-5,-20.0,-9.880081176757812,10.024918823242189
414,56330792,1678489659.319327,0.3919019699096679,0.0,0.4009021818637848,0.5,-9.910120010375977,-9.865663528442385,-9.65790843963623,9.95,10.0,0.0,-13,-7,-20.0,-9.880081176757812,10.024918823242189
415,56353000,1678489659.319327,0.3919019699096679,0.0,0.4009021818637848,0.5,-9.910120010375977,-9.865663528442385,-9.65790843963623,9.95,10.0,0.0,-13,-7,-20.0,-9.863216400146484,10.041783599853517
416,56353000,1678489659.319327,0.3919019699096679,0.0,0.4009021818637848,0.5,-9.910120010375977,-9.865663528442385,-9.65790843963623,9.95,10.0,0.0,-13,-7,-20.0,-9.863216400146484,10.041783599853517
417,56353000,1678489659.319327,0.3919019699096679,0.0,0.4009021818637848,0.5,-9.910120010375977,-9.865663528442385,-9.65790843963623,9.95,10.0,0.0,-13,-7,-20.0,-9.863216400146484,10.041783599853517
418,56430752,1678489659.4192872,0.3563453555107116,0.0,0.3786981105804443,0.5,-9.910638809204102,-9.853171348571776,-9.711576461791992,9.95,10.02,0.0,-18,-9,-20.0,-9.863216400146484,10.041783599853517
419,56530712,1678489659.519247,0.3464135825634002,0.0,0.3555356562137604,0.5,-9.911883354187012,-9.842597007751465,-9.792548179626465,9.95,10.02,0.0,-22,-13,-20.0,-9.863216400146484,10.041783599853517
420,56603000,1678489659.519247,0.3464135825634002,0.0,0.3555356562137604,0.5,-9.911883354187012,-9.842597007751465,-9.792548179626465,9.95,10.02,0.0,-22,-13,-20.0,-9.839643478393556,10.065356521606445
421,56603000,1678489659.519247,0.3464135825634002,0.0,0.3555356562137604,0.5,-9.911883354187012,-9.842597007751465,-9.792548179626465,9.95,10.02,0.0,-22,-13,-20.0,-9.839643478393556,10.065356521606445
422,56631505,1678489659.62004,0.3586005568504333,0.0,0.3512113392353058,0.5,-9.914103507995604,-9.840649604797363,-9.91112995147705,9.95,10.02,0.0,-24,-18,-20.0,-9.839643478393556,10.065356521606445
423,56731465,1678489659.7200003,0.3899905681610107,0.0,0.3652606308460235,0.5,-9.917365074157717,-9.85159969329834,-9.680292129516602,9.95,10.04,0.0,-23,-21,-20.0,-9.839643478393556,10.065356521606445
424,56831425,1678489659.81996,0.3948919773101806,0.0,0.3877025246620178,0.5,-9.921741485595703,-9.86385726928711,-9.806889533996582,9.95,10.04,0.0,-22,-22,-20.0,-9.839643478393556,10.065356521606445
425,56853000,1678489659.81996,0.3948919773101806,0.0,0.3877025246620178,0.5,-9.921741485595703,-9.86385726928711,-9.806889533996582,9.95,10.04,0.0,-22,-22,-20.0,-9.865994453430176,10.039005546569824
426,56853000,1678489659.81996,0.3948919773101806,0.0,0.3877025246620178,0.5,-9.921741485595703,-9.86385726928711,-9.806889533996582,9.95,10.04,0.0,-22,-22,-20.0,-9.865994453430176,10.039005546569824
