timestamp,TimeUS,ThI,ABst,ThO,ThH,DAlt,Alt,BAlt,DSAlt,SAlt,TAlt,DCRt,CRt
1680025154.25997996,81334118,0.0,0.0,0.5,0.5,0.0,-0.3045351505279541,-0.16912108659744263,0.0,9.88,0.0,0,1
1680025154.35994601,81434084,0.0,0.0,0.5,0.5,0.0,-0.29560643434524536,-0.18057477474212646,0.0,9.89,0.0,0,1
1680025154.45991302,81534051,0.0,0.0,0.5,0.5,0.0,-0.28008610010147095,-0.20518454909324646,0.0,9.89,0.0,0,3
1680025154.55987906,81634017,0.0,0.0,0.5,0.5,0.0,-0.2613352835178375,-0.47616150975227356,0.0,9.88,0.0,0,4
1680025154.65984511,81733983,0.0,0.0,0.5,0.5,0.0,-0.2416452169418335,-0.4600721597671509,0.0,9.89,0.0,0,6
1680025154.75981212,81833950,0.0,0.0,0.5,0.5,0.0,-0.2310207039117813,-0.4125617742538452,0.0,9.88,0.0,0,6
1680025154.85977817,81933916,0.0,0.0,0.5,0.5,0.0,-0.23468250036239624,-0.20955635607242584,0.0,9.89,0.0,0,3
1680025154.95974517,82033883,0.0,0.0,0.5,0.5,0.0,-0.2494547963142395,-0.3873361647129059,0.0,9.89,0.0,0,2
1680025155.05971098,82133849,0.0,0.0,0.5,0.5,0.0,-0.26137450337409973,-0.2490413784980774,0.0,9.870000000000001,0.0,0,2
1680025155.15967703,82233815,0.0,0.0,0.5,0.5,0.0,-0.270589143037796,-0.09646803140640259,0.0,9.870000000000001,0.0,0,0
1680025155.25964403,82333782,0.0,0.0,0.5,0.5,0.0,-0.28158143162727356,-0.39528021216392517,0.0,9.870000000000001,0.0,0,0
1680025155.35961008,82433748,0.0,0.0,0.5,0.5,0.0,-0.2817578911781311,-0.2166944295167923,0.0,9.86,0.0,0,0
1680025155.45957708,82533715,0.0,0.0,0.5,0.5,0.0,-0.2789228558540344,-0.39820313453674316,0.0,9.870000000000001,0.0,0,1
1680025155.55954313,82633681,0.0,0.0,0.5,0.5,0.0,-0.2778198719024658,-0.4366426169872284,0.0,9.88,0.0,0,0
1680025155.65950918,82733647,0.0,0.0,0.5,0.5,0.0,-0.27979427576065063,-0.346182644367218,0.0,9.88,0.0,0,0
1680025155.75947618,82833614,0.0,0.0,0.5,0.5,0.0,-0.2888168692588806,-0.08413504809141159,0.0,9.9,0.0,0,0
1680025155.85944200,82933580,0.0,0.0,0.5,0.5,0.0,-0.30093032121658325,-0.28142300248146057,0.0,9.89,0.0,0,0
1680025155.95940900,83033547,0.0,0.0,0.5,0.5,0.0,-0.3040522336959839,-0.12386918067932129,0.0,9.89,0.0,0,0
1680025156.05937505,83133513,0.0,0.0,0.5,0.5,0.0,-0.3003893494606018,-0.49220263957977295,0.0,9.89,0.0,0,-1
1680025156.15934110,83233479,0.0,0.0,0.5,0.5,0.0,-0.2925589680671692,-0.32447266578674316,0.0,9.9,0.0,0,0
1680025156.25930810,83333446,0.0,0.0,0.5,0.5,0.0,-0.2879551947116852,-0.11725685745477676,0.0,9.9,0.0,0,0
1680025156.36027408,83434412,0.0,0.0,0.5,0.5,0.0,-0.29087600111961365,-0.3682537376880646,0.0,9.870000000000001,0.0,0,0
1680025156.46024013,83534378,0.0,0.0,0.5,0.5,0.0,-0.2878097593784332,-0.29744261503219604,0.0,9.88,0.0,0,1
1680025156.56020713,83634345,0.0,0.0,0.5,0.5,0.0,-0.2841944098472595,-0.15815488994121552,0.0,9.86,0.0,0,0
1680025156.66017318,83734311,0.0,0.0,0.5,0.5,0.0,-0.28448185324668884,-0.4236491620540619,0.0,9.85,0.0,0,0
1680025156.76013899,83834277,0.0,0.0,0.5,0.5,0.0,-0.2803160846233368,-0.13844627141952515,0.0,9.83,0.0,0,1
1680025156.86010599,83934244,0.0,0.0,0.5,0.5,0.0,-0.2783862352371216,-0.3713436722755432,0.0,9.83,0.0,0,0
1680025156.96007204,84034210,0.0,0.0,0.5,0.5,0.0,-0.27690014243125916,-0.36524274945259094,0.0,9.82,0.0,0,0
1680025157.06003904,84134177,0.0,0.0,0.5,0.5,0.0,-0.2745746076107025,-0.27532684803009033,0.0,9.870000000000001,0.0,0,0
1680025157.16000509,84234143,0.0,0.0,0.5,0.5,0.0,-0.27870771288871765,-0.16713847219944,0.0,9.88,0.0,0,0
1680025157.25997114,84334109,0.0,0.0,0.5,0.5,0.0,-0.28398019075393677,-0.2998899817466736,0.0,9.89,0.0,0,0
1680025157.35993814,84434076,0.0,0.0,0.5,0.5,0.0,-0.2838743031024933,-0.2157326191663742,0.0,9.89,0.0,0,0
1680025157.45990396,84534042,0.0,0.0,0.5,0.5,0.0,-0.28087493777275085,-0.2504296898841858,0.0,9.89,0.0,0,0
1680025157.55987096,84634009,0.0,0.0,0.5,0.5,0.0,-0.2767202854156494,-0.44756218791007996,0.0,9.9,0.0,0,1
1680025157.65983701,84733975,0.0,0.0,0.5,0.5,0.0,-0.2704157531261444,-0.3245834708213806,0.0,9.9,0.0,0,1
1680025157.75980306,84833941,0.0,0.0,0.5,0.5,0.0,-0.269756942987442,-0.34501075744628906,0.0,9.9,0.0,0,2
1680025157.85977006,84933908,0.0,0.0,0.5,0.5,0.0,-0.276349276304245,-0.3548309803009033,0.0,9.88,0.0,0,0
1680025157.95973611,85033874,0.0,0.0,0.5,0.5,0.0,-0.2849998474121094,-0.10136917978525162,0.0,9.89,0.0,0,-1
1680025158.05970311,85133841,0.0,0.0,0.5,0.5,0.0,-0.29521963000297546,-0.14911949634552002,0.0,9.88,0.0,0,-1
1680025158.15966916,85233807,0.0,0.0,0.5,0.5,0.0,-0.29863202571868896,-0.18786153197288513,0.0,9.89,0.0,0,-1
1680025158.25963497,85333773,0.0,0.0,0.5,0.5,0.0,-0.29139673709869385,-0.12187300622463226,0.0,9.88,0.0,0,0
1680025158.35960197,85433740,0.0,0.0,0.5,0.5,0.0,-0.2790003716945648,-0.11801020056009293,0.0,9.88,0.0,0,1
1680025158.45956802,85533706,0.0,0.0,0.5,0.5,0.0,-0.2619906961917877,-0.3727598786354065,0.0,9.88,0.0,0,2
1680025158.55953503,85633673,0.0,0.0,0.5,0.5,0.0,-0.24021196365356445,-0.14283163845539093,0.0,9.89,0.0,0,4
1680025158.65950108,85733639,0.0,0.0,0.5,0.5,0.0,-0.2245592623949051,-0.39051100611686707,0.0,9.89,0.0,0,3
1680025158.75946712,85833605,0.0,0.0,0.5,0.5,0.0,-0.2140156775712967,-0.21953165531158447,0.0,9.9,0.0,0,3
1680025158.85943413,85933572,0.0,0.0,0.5,0.5,0.0,-0.20801237225532532,-0.3981700539588928,0.0,9.89,0.0,0,4
1680025158.95940018,86033538,0.0,0.0,0.5,0.5,0.0,-0.20720888674259186,-0.23725207149982452,0.0,9.9,0.0,0,4
1680025159.05936718,86133505,0.0,0.0,0.5,0.5,0.0,-0.21084408462047577,-0.3426191806793213,0.0,9.89,0.0,0,3
1680025159.15933299,86233471,0.0,0.0,0.5,0.5,0.0,-0.21759524941444397,-0.4502200186252594,0.0,9.89,0.0,0,3
1680025159.26029897,86334437,0.0,0.0,0.5,0.5,0.0,-0.2250453233718872,-0.4830656051635742,0.0,9.89,0.0,0,2
1680025159.36026502,86434403,0.0,0.0,0.5,0.5,0.0,-0.24099622666835785,-0.28434351086616516,0.0,9.88,0.0,0,0
1680025159.46023202,86534370,0.0,0.0,0.5,0.5,0.0,-0.2648993730545044,-0.46308472752571106,0.0,9.88,0.0,0,-1
1680025159.56019807,86634336,0.0,0.0,0.5,0.5,0.0,-0.28856873512268066,-0.2486160695552826,0.0,9.88,0.0,0,-2
1680025159.66016507,86734303,0.0,0.0,0.5,0.5,0.0,-0.3113096356391907,-0.31675422191619873,0.0,9.88,0.0,0,-3
1680025159.76013112,86834269,0.0,0.0,0.5,0.5,0.0,-0.3307875394821167,-0.2906939685344696,0.0,9.89,0.0,0,-4
1680025159.86009717,86934235,0.0,0.0,0.5,0.5,0.0,-0.3439151644706726,-0.4433151185512543,0.0,9.9,0.0,0,-6
1680025159.96006417,87034202,0.0,0.0,0.5,0.5,0.0,-0.3537599444389343,-0.40150710940361023,0.0,9.89,0.0,0,-5
1680025160.06002998,87134168,0.0,0.0,0.5,0.5,0.0,-0.363590270280838,-0.1510511040687561,0.0,9.9,0.0,0,-5
1680025160.15999699,87234135,0.0,0.0,0.5,0.5,0.0,-0.37570199370384216,-0.4760248064994812,0.0,9.89,0.0,0,-5
1680025160.25996304,87334101,0.0,0.0,0.5,0.5,0.0,-0.38035857677459717,-0.2555544376373291,0.0,9.88,0.0,0,-5
1680025160.35992908,87434067,0.0,0.0,0.5,0.5,0.0,-0.38236862421035767,-0.4610116481781006,0.0,9.89,0.0,0,-5
1680025160.45989609,87534034,0.0,0.0,0.5,0.5,0.0,-0.38601818680763245,-0.14559072256088257,0.0,9.89,0.0,0,-5
1680025160.55986214,87634000,0.0,0.0,0.5,0.5,0.0,-0.3894260823726654,-0.18089763820171356,0.0,9.88,0.0,0,-5
1680025160.65982914,87733967,0.0,0.0,0.5,0.5,0.0,-0.3886226415634155,-0.3605225682258606,0.0,9.88,0.0,0,-4
1680025160.75979519,87833933,0.0,0.0,0.5,0.5,0.0,-0.3771935701370239,-0.4098987579345703,0.0,9.89,0.0,0,-3
1680025160.85976100,87933899,0.0,0.0,0.5,0.5,0.0,-0.3649927079677582,-0.43924346566200256,0.0,9.89,0.0,0,-3
1680025160.95972800,88033866,0.0,0.0,0.5,0.5,0.0,-0.3597588837146759,-0.19629184901714325,0.0,9.89,0.0,0,-2
1680025161.05969405,88133832,0.0,0.0,0.5,0.5,0.0,-0.36065974831581116,-0.1364317536354065,0.0,9.89,0.0,0,-2
1680025161.15966105,88233799,0.0,0.0,0.5,0.5,0.0,-0.3595256507396698,-0.20479831099510193,0.0,9.88,0.0,0,-2
1680025161.25962710,88333765,0.0,0.0,0.5,0.5,0.0,-0.3486863970756531,-0.24864636361598969,0.0,9.89,0.0,0,0
1680025161.35959315,88433731,0.0,0.0,0.5,0.5,0.0,-0.3314472436904907,-0.11007294058799744,0.0,9.88,0.0,0,0
1680025161.45956016,88533698,0.0,0.0,0.5,0.5,0.0,-0.31313973665237427,-0.3158741295337677,0.0,9.88,0.0,0,0
1680025161.55952597,88633664,0.0,0.0,0.5,0.5,0.0,-0.29303187131881714,-0.2005070149898529,0.0,9.89,0.0,0,1
1680025161.65949297,88733631,0.0,0.0,0.5,0.5,0.0,-0.27340924739837646,-0.4342554211616516,0.0,9.89,0.0,0,3
1680025161.75945902,88833597,0.0,0.0,0.5,0.5,0.0,-0.2568401098251343,-0.17726601660251617,0.0,9.89,0.0,0,4
1680025161.85942507,88933563,0.0,0.0,0.5,0.5,0.0,-0.2467367798089981,-0.19179567694664001,0.0,9.88,0.0,0,5
1680025161.95939207,89033530,0.0,0.0,0.5,0.5,0.0,-0.240285724401474,-0.3399222791194916,0.0,9.89,0.0,0,5
1680025162.05935812,89133496,0.0,0.0,0.5,0.5,0.0,-0.2312944531440735,-0.3831477165222168,0.0,9.9,0.0,0,3
1680025162.15932512,89233463,0.0,0.0,0.5,0.5,0.0,-0.22595782577991486,-0.22373764216899872,0.0,9.88,0.0,0,4
1680025162.26029110,89334429,0.0,0.0,0.5,0.5,0.0,-0.22764164209365845,-0.3723222315311432,0.0,9.89,0.0,0,4
1680025162.36025715,89434395,0.0,0.0,0.5,0.5,0.0,-0.23079945147037506,-0.3370049297809601,0.0,9.88,0.0,0,3
1680025162.46022415,89534362,0.0,0.0,0.5,0.5,0.0,-0.23508480191230774,-0.14696986973285675,0.0,9.89,0.0,0,3
1680025162.56018996,89634328,0.0,0.0,0.5,0.5,0.0,-0.2433999627828598,-0.09196787327528,0.0,9.89,0.0,0,1
1680025162.66015601,89734294,0.0,0.0,0.5,0.5,0.0,-0.24878215789794922,-0.31246572732925415,0.0,9.88,0.0,0,1
1680025162.76012301,89834261,0.0,0.0,0.5,0.5,0.0,-0.24422843754291534,-0.11375638097524643,0.0,9.88,0.0,0,2
1680025162.86008906,89934227,0.0,0.0,0.5,0.5,0.0,-0.23760303854942322,-0.3644312024116516,0.0,9.88,0.0,0,2
1680025162.96005607,90034194,0.0,0.0,0.5,0.5,0.0,-0.2294570803642273,-0.1049286499619484,0.0,9.89,0.0,0,3
1680025163.06002212,90134160,0.0,0.0,0.5,0.5,0.0,-0.22247189283370972,-0.30960819125175476,0.0,9.89,0.0,0,4
1680025163.15998816,90234126,0.0,0.0,0.5,0.5,0.0,-0.21703919768333435,-0.1771548092365265,0.0,9.89,0.0,0,2
1680025163.25995517,90334093,0.0,0.0,0.5,0.5,0.0,-0.21171146631240845,-0.35733816027641296,0.0,9.89,0.0,0,3
1680025163.35992098,90434059,0.0,0.0,0.5,0.5,0.0,-0.2077854871749878,-0.40374839305877686,0.0,9.89,0.0,0,3
1680025163.45988798,90534026,0.0,0.0,0.5,0.5,0.0,-0.2066849172115326,-0.4520224928855896,0.0,9.89,0.0,0,3
1680025163.55985403,90633992,0.0,0.0,0.5,0.5,0.0,-0.21376271545886993,-0.4569128751754761,0.0,9.89,0.0,0,3
1680025163.65982008,90733958,0.0,0.0,0.5,0.5,0.0,-0.22905327379703522,-0.24496930837631226,0.0,9.88,0.0,0,2
1680025163.75978708,90833925,0.0,0.0,0.5,0.5,0.0,-0.25249120593070984,-0.2582705020904541,0.0,9.89,0.0,0,-1
1680025163.85975313,90933891,0.0,0.0,0.5,0.5,0.0,-0.2750963270664215,-0.2187117338180542,0.0,9.88,0.0,0,-2
1680025163.95972013,91033858,0.0,0.0,0.5,0.5,0.0,-0.29044947028160095,-0.43103355169296265,0.0,9.89,0.0,0,-2
1680025164.05968618,91133824,0.0,0.0,0.5,0.5,0.0,-0.2991221845149994,-0.4492494463920593,0.0,9.89,0.0,0,-2
1680025164.15965199,91233790,0.0,0.0,0.5,0.5,0.0,-0.30751094222068787,-0.39254066348075867,0.0,9.89,0.0,0,-2
1680025164.25961900,91333757,0.0,0.0,0.4987500011920929,0.5,0.0,-0.32132431864738464,-0.24026945233345032,0.0,9.88,0.0,0,-3
1680025164.35958505,91433723,0.0,0.0,0.48374998569488525,0.5,0.0,-0.3394419550895691,-0.32466596364974976,0.0,9.88,0.0,0,-6
1680025164.45955205,91533690,0.0,0.0,0.4387499988079071,0.5,0.0,-0.35744214057922363,-0.2651841640472412,0.0,9.89,0.0,0,-15
1680025164.55951810,91633656,0.0,0.0,0.4099999964237213,0.5,0.0,-0.3815188705921173,-0.3150665760040283,0.0,9.870000000000001,0.0,0,-28
1680025164.65948415,91733622,0.0,0.0,0.4025000035762787,0.5,0.0,-0.41493281722068787,-0.13712531328201294,0.0,9.85,0.0,0,-40
1680025164.75945115,91833589,0.0,0.0,0.39625000953674316,0.5,0.0,-0.45454561710357666,-0.21092912554740906,0.0,9.83,0.0,0,-47
1680025164.85941696,91933555,0.0,0.0,0.36625000834465027,0.5,0.0,-0.4939996004104614,-0.5429257154464722,0.0,9.77,0.0,0,-53
1680025164.95938396,92033522,0.0,0.0,0.36500000953674316,0.5,0.0,-0.5310801863670349,-0.6682800650596619,0.0,9.73,0.0,0,-57
1680025165.05935001,92133488,0.0,0.0,0.36500000953674316,0.5,0.0,-0.5753427147865295,-0.5201618075370789,0.0,9.67,0.0,0,-59
1680025165.15931606,92233454,0.0,0.0,0.36500000953674316,0.5,0.0,-0.6337601542472839,-0.6505516767501831,0.0,9.61,0.0,0,-60
1680025165.26028204,92334420,0.0,0.0,0.36500000953674316,0.5,0.0,-0.6986379027366638,-0.8301745653152466,0.0,9.540000000000001,0.0,0,-61
1680025165.36024904,92434387,0.0,0.0,0.36500000953674316,0.5,0.0,-0.763753354549408,-0.8286288380622864,0.0,9.48,0.0,0,-62
1680025165.46021509,92534353,0.0,0.0,0.36500000953674316,0.5,0.0,-0.8346970081329346,-0.5778786540031433,0.0,9.42,0.0,0,-62
1680025165.56018209,92634320,0.0,0.0,0.36500000953674316,0.5,0.0,-0.910593569278717,-0.9134522676467896,0.0,9.370000000000001,0.0,0,-63
1680025165.66014814,92734286,0.0,0.0,0.36500000953674316,0.5,0.0,-0.9788315296173096,-0.794435977935791,0.0,9.3,0.0,0,-64
1680025165.76011419,92834252,0.0,0.0,0.36500000953674316,0.5,0.0,-1.0411593914031982,-1.0999454259872437,0.0,9.24,0.0,0,-63
1680025165.86008096,92934219,0.0,0.0,0.36500000953674316,0.5,0.0,-1.100962519645691,-0.9283776879310608,0.0,9.19,0.0,0,-63
1680025165.96004701,93034185,0.0,0.0,0.36500000953674316,0.5,0.0,-1.1611504554748535,-1.1271854639053345,0.0,9.120000000000001,0.0,0,-63
1680025166.06001401,93134152,0.0,0.0,0.36500000953674316,0.5,0.0,-1.2212778329849243,-1.0050454139709473,0.0,9.07,0.0,0,-63
1680025166.15998006,93234118,0.0,0.0,0.36500000953674316,0.5,0.0,-1.2792737483978271,-1.0919172763824463,0.0,9.02,0.0,0,-62
1680025166.25994611,93334084,0.0,0.0,0.36500000953674316,0.5,0.0,-1.33417546749115,-1.1481608152389526,0.0,8.950000000000001,0.0,0,-62
1680025166.35991311,93434051,0.0,0.0,0.36500000953674316,0.5,0.0,-1.3829268217086792,-1.1922962665557861,0.0,8.89,0.0,0,-61
1680025166.45987916,93534017,0.0,0.0,0.36500000953674316,0.5,0.0,-1.4281630516052246,-1.546555757522583,0.0,8.82,0.0,0,-60
1680025166.55984616,93633984,0.0,0.0,0.36500000953674316,0.5,0.0,-1.470670223236084,-1.5973963737487793,0.0,8.76,0.0,0,-59
1680025166.65981197,93733950,0.0,0.0,0.36500000953674316,0.5,0.0,-1.5198631286621094,-1.5620321035385132,0.0,8.700000000000001,0.0,0,-58
1680025166.75977802,93833916,0.0,0.0,0.36500000953674316,0.5,0.0,-1.5816164016723633,-1.656863808631897,0.0,8.65,0.0,0,-59
1680025166.85974503,93933883,0.0,0.0,0.36500000953674316,0.5,0.0,-1.6494327783584595,-1.8416701555252075,0.0,8.59,0.0,0,-59
1680025166.95971107,94033849,0.0,0.0,0.36500000953674316,0.5,0.0,-1.7201051712036133,-1.6511248350143433,0.0,8.52,0.0,0,-60
1680025167.05967808,94133816,0.0,0.0,0.36500000953674316,0.5,0.0,-1.797072410583496,-1.7524051666259766,0.0,8.46,0.0,0,-61
1680025167.15964413,94233782,0.0,0.0,0.36500000953674316,0.5,0.0,-1.8738617897033691,-1.7491788864135742,0.0,8.42,0.0,0,-62
1680025167.25961018,94333748,0.0,0.0,0.36500000953674316,0.5,0.0,-1.9446552991867065,-1.9915043115615845,0.0,8.35,0.0,0,-63
1680025167.35957718,94433715,0.0,0.0,0.36500000953674316,0.5,0.0,-2.0099358558654785,-2.0484681129455566,0.0,8.290000000000001,0.0,0,-63
1680025167.45954299,94533681,0.0,0.0,0.36500000953674316,0.5,0.0,-2.074517250061035,-1.8782856464385986,0.0,8.23,0.0,0,-63
1680025167.55950999,94633648,0.0,0.0,0.36500000953674316,0.5,0.0,-2.1429498195648193,-2.079988479614258,0.0,8.17,0.0,0,-63
1680025167.65947604,94733614,0.0,0.0,0.36500000953674316,0.5,0.0,-2.207078218460083,-1.9919922351837158,0.0,8.09,0.0,0,-63
1680025167.75944209,94833580,0.0,0.0,0.36500000953674316,0.5,0.0,-2.266160249710083,-2.012434720993042,0.0,8.040000000000001,0.0,0,-63
1680025167.85940909,94933547,0.0,0.0,0.36500000953674316,0.5,0.0,-2.3209757804870605,-2.0611412525177,0.0,7.99,0.0,0,-62
1680025167.95937514,95033513,0.0,0.0,0.36500000953674316,0.5,0.0,-2.3677241802215576,-2.4528615474700928,0.0,7.930000000000001,0.0,0,-61
1680025168.05934215,95133480,0.0,0.0,0.36500000953674316,0.5,0.0,-2.4077000617980957,-2.2110846042633057,0.0,7.86,0.0,0,-59
1680025168.15930796,95233446,0.0,0.0,0.36500000953674316,0.5,0.0,-2.4526736736297607,-2.3291091918945312,0.0,7.8,0.0,0,-58
1680025168.26027417,95334412,0.0,0.0,0.36500000953674316,0.5,0.0,-2.5020980834960938,-2.305171012878418,0.0,7.74,0.0,0,-58
1680025168.36023998,95434378,0.0,0.0,0.36500000953674316,0.5,0.0,-2.548053741455078,-2.3790884017944336,0.0,7.69,0.0,0,-57
1680025168.46020699,95534345,0.0,0.0,0.36500000953674316,0.5,0.0,-2.5916242599487305,-2.8089137077331543,0.0,7.63,0.0,0,-56
1680025168.56017303,95634311,0.0,0.0,0.36500000953674316,0.5,0.0,-2.632185697555542,-2.540595054626465,0.0,7.57,0.0,0,-55
1680025168.66014004,95734278,0.0,0.0,0.36500000953674316,0.5,0.0,-2.6822502613067627,-2.806027889251709,0.0,7.5,0.0,0,-55
1680025168.76010609,95834244,0.0,0.0,0.36500000953674316,0.5,0.0,-2.7395715713500977,-2.988945722579956,0.0,7.44,0.0,0,-55
1680025168.86007214,95934210,0.0,0.0,0.36500000953674316,0.5,0.0,-2.7997629642486572,-3.055819034576416,0.0,7.390000000000001,0.0,0,-56
1680025168.96003914,96034177,0.0,0.0,0.36500000953674316,0.5,0.0,-2.871152877807617,-3.040095329284668,0.0,7.33,0.0,0,-57
1680025169.06000519,96134143,0.0,0.0,0.36500000953674316,0.5,0.0,-2.953566551208496,-2.9478845596313477,0.0,7.25,0.0,0,-59
1680025169.15997219,96234110,0.0,0.0,0.36500000953674316,0.5,0.0,-3.0412797927856445,-3.0485918521881104,0.0,7.2,0.0,0,-61
1680025169.25993800,96334076,0.0,0.0,0.36500000953674316,0.5,0.0,-3.1256911754608154,-2.969564437866211,0.0,7.140000000000001,0.0,0,-62
1680025169.35990405,96434042,0.0,0.0,0.36500000953674316,0.5,0.0,-3.2041208744049072,-3.0520682334899902,0.0,7.09,0.0,0,-63
1680025169.45987105,96534009,0.0,0.0,0.36500000953674316,0.5,0.0,-3.2745614051818848,-3.0799646377563477,0.0,7.03,0.0,0,-63
1680025169.55983710,96633975,0.0,0.0,0.36500000953674316,0.5,0.0,-3.335745334625244,-3.2593770027160645,0.0,6.97,0.0,0,-63
1680025169.65980411,96733942,0.0,0.0,0.36500000953674316,0.5,0.0,-3.389777183532715,-3.174302101135254,0.0,6.91,0.0,0,-62
1680025169.75977015,96833908,0.0,0.0,0.36500000953674316,0.5,0.0,-3.441345453262329,-3.4446256160736084,0.0,6.8500000000000005,0.0,0,-61
1680025169.85973597,96933874,0.0,0.0,0.36500000953674316,0.5,0.0,-3.490276575088501,-3.6433820724487305,0.0,6.79,0.0,0,-60
1680025169.95970297,97033841,0.0,0.0,0.36500000953674316,0.5,0.0,-3.5400214195251465,-3.590622901916504,0.0,6.73,0.0,0,-59
1680025170.05966902,97133807,0.0,0.0,0.36500000953674316,0.5,0.0,-3.6001975536346436,-3.7426183223724365,0.0,6.67,0.0,0,-60
1680025170.15963602,97233774,0.0,0.0,0.36500000953674316,0.5,0.0,-3.6682000160217285,-3.7362313270568848,0.0,6.6000000000000005,0.0,0,-60
1680025170.25960207,97333740,0.0,0.0,0.36500000953674316,0.5,0.0,-3.7415010929107666,-3.8175888061523438,0.0,6.55,0.0,0,-61
1680025170.35956812,97433706,0.0,0.0,0.36500000953674316,0.5,0.0,-3.8187193870544434,-3.8949134349823,0.0,6.49,0.0,0,-62
1680025170.45953512,97533673,0.0,0.0,0.36500000953674316,0.5,0.0,-3.8970766067504883,-3.7751471996307373,0.0,6.43,0.0,0,-63
1680025170.55950117,97633639,0.0,0.0,0.36500000953674316,0.5,0.0,-3.9766125679016113,-3.7434074878692627,0.0,6.36,0.0,0,-64
1680025170.65946817,97733606,0.0,0.0,0.36500000953674316,0.5,0.0,-4.051535606384277,-3.874696731567383,0.0,6.3100000000000005,0.0,0,-65
1680025170.75943398,97833572,0.0,0.0,0.36500000953674316,0.5,0.0,-4.1152238845825195,-4.205520153045654,0.0,6.24,0.0,0,-65
1680025170.85940003,97933538,0.0,0.0,0.36500000953674316,0.5,0.0,-4.170281410217285,-4.107727527618408,0.0,6.19,0.0,0,-64
1680025170.95936704,98033505,0.0,0.0,0.36500000953674316,0.5,0.0,-4.228667736053467,-4.163113594055176,0.0,6.13,0.0,0,-63
1680025171.05933309,98133471,0.0,0.0,0.36500000953674316,0.5,0.0,-4.291780471801758,-4.187850475311279,0.0,6.07,0.0,0,-63
1680025171.16029906,98234437,0.0,0.0,0.36500000953674316,0.5,0.0,-4.3546366691589355,-4.338110446929932,0.0,6.01,0.0,0,-63
1680025171.26026607,98334404,0.0,0.0,0.36500000953674316,0.5,0.0,-4.415154933929443,-4.307188034057617,0.0,5.95,0.0,0,-63
1680025171.36023211,98434370,0.0,0.0,0.36500000953674316,0.5,0.0,-4.476013660430908,-4.237908363342285,0.0,5.89,0.0,0,-63
1680025171.46019912,98534337,0.0,0.0,0.36500000953674316,0.5,0.0,-4.536685466766357,-4.34644889831543,0.0,5.83,0.0,0,-63
1680025171.56016517,98634303,0.0,0.0,0.36500000953674316,0.5,0.0,-4.59100341796875,-4.4671950340271,0.0,5.76,0.0,0,-62
1680025171.66013098,98734269,0.0,0.0,0.36500000953674316,0.5,0.0,-4.638965129852295,-4.442244529724121,0.0,5.7,0.0,0,-61
1680025171.76009798,98834236,0.0,0.0,0.36500000953674316,0.5,0.0,-4.68561315536499,-4.705482482910156,0.0,5.65,0.0,0,-60
1680025171.86006403,98934202,0.0,0.0,0.36500000953674316,0.5,0.0,-4.730714797973633,-4.697050094604492,0.0,5.59,0.0,0,-59
1680025171.96003103,99034169,0.0,0.0,0.36500000953674316,0.5,0.0,-4.778854846954346,-4.8582682609558105,0.0,5.53,0.0,0,-59
1680025172.05999708,99134135,0.0,0.0,0.36500000953674316,0.5,0.0,-4.8328423500061035,-4.877516269683838,0.0,5.47,0.0,0,-58
1680025172.15996313,99234101,0.0,0.0,0.36500000953674316,0.5,0.0,-4.8924102783203125,-4.962164878845215,0.0,5.4,0.0,0,-59
1680025172.25993013,99334068,0.0,0.0,0.36500000953674316,0.5,0.0,-4.957563877105713,-4.827921390533447,0.0,5.34,0.0,0,-59
1680025172.35989618,99434034,0.0,0.0,0.36500000953674316,0.5,0.0,-5.026241302490234,-5.232344150543213,0.0,5.29,0.0,0,-60
1680025172.45986319,99534001,0.0,0.0,0.36500000953674316,0.5,0.0,-5.092261791229248,-5.204160213470459,0.0,5.22,0.0,0,-60
1680025172.55982900,99633967,0.0,0.0,0.36500000953674316,0.5,0.0,-5.161031723022461,-5.1315388679504395,0.0,5.17,0.0,0,-61
1680025172.65979505,99733933,0.0,0.0,0.36500000953674316,0.5,0.0,-5.237755298614502,-5.23375940322876,0.0,5.11,0.0,0,-62
1680025172.75976205,99833900,0.0,0.0,0.36500000953674316,0.5,0.0,-5.313440322875977,-5.448853015899658,0.0,5.05,0.0,0,-63
1680025172.85972810,99933866,0.0,0.0,0.36500000953674316,0.5,0.0,-5.3858208656311035,-5.282170295715332,0.0,4.99,0.0,0,-63
1680025172.95969510,100033833,0.0,0.0,0.36500000953674316,0.5,0.0,-5.460860729217529,-5.575620651245117,0.0,4.92,0.0,0,-64
1680025173.05966115,100133799,0.0,0.0,0.36500000953674316,0.5,0.0,-5.5346574783325195,-5.360840797424316,0.0,4.86,0.0,0,-64
1680025173.15962696,100233765,0.0,0.0,0.36500000953674316,0.5,0.0,-5.6078972816467285,-5.651215553283691,0.0,4.8,0.0,0,-65
1680025173.25959396,100333732,0.0,0.0,0.36500000953674316,0.5,0.0,-5.678424835205078,-5.745034694671631,0.0,4.74,0.0,0,-65
1680025173.35956001,100433698,0.0,0.0,0.36375001072883606,0.5,0.0,-5.746078968048096,-5.845599174499512,0.0,4.69,0.0,0,-65
1680025173.45952702,100533665,0.0,0.0,0.36375001072883606,0.5,0.0,-5.8183979988098145,-5.592015743255615,0.0,4.63,0.0,0,-66
1680025173.55949306,100633631,0.0,0.0,0.36250001192092896,0.5,0.0,-5.895440578460693,-5.74727725982666,0.0,4.55,0.0,0,-67
1680025173.65945911,100733597,0.0,0.0,0.36250001192092896,0.5,0.0,-5.9675164222717285,-5.736035346984863,0.0,4.5,0.0,0,-67
1680025173.75942612,100833564,0.0,0.0,0.36250001192092896,0.5,0.0,-6.0302414894104,-5.7717814445495605,0.0,4.44,0.0,0,-67
1680025173.85939217,100933530,0.0,0.0,0.36250001192092896,0.5,0.0,-6.086402416229248,-6.067824840545654,0.0,4.38,0.0,0,-66
1680025173.95935917,101033497,0.0,0.0,0.36250001192092896,0.5,0.0,-6.135077953338623,-6.128178596496582,0.0,4.32,0.0,0,-65
1680025174.05932498,101133463,0.0,0.0,0.36250001192092896,0.5,0.0,-6.184739589691162,-6.2390947341918945,0.0,4.25,0.0,0,-64
1680025174.16029096,101234429,0.0,0.0,0.36250001192092896,0.5,0.0,-6.241987228393555,-5.949188232421875,0.0,4.2,0.0,0,-63
1680025174.26025701,101334395,0.0,0.0,0.36250001192092896,0.5,0.0,-6.305143356323242,-6.019189834594727,0.0,4.14,0.0,0,-63
1680025174.36022401,101434362,0.0,0.0,0.36250001192092896,0.5,0.0,-6.364234447479248,-6.368420124053955,0.0,4.08,0.0,0,-63
1680025174.46019006,101534328,0.0,0.0,0.36250001192092896,0.5,0.0,-6.411725044250488,-6.224801063537598,0.0,4.0200000000000005,0.0,0,-62
1680025174.56015706,101634295,0.0,0.0,0.36250001192092896,0.5,0.0,-6.459707260131836,-6.440882205963135,0.0,3.95,0.0,0,-61
1680025174.66012311,101734261,0.0,0.0,0.36250001192092896,0.5,0.0,-6.509683609008789,-6.35844087600708,0.0,3.89,0.0,0,-60
1680025174.76008916,101834227,0.0,0.0,0.36250001192092896,0.5,0.0,-6.560588836669922,-6.606777191162109,0.0,3.84,0.0,0,-60
1680025174.86005616,101934194,0.0,0.0,0.36250001192092896,0.5,0.0,-6.6124653816223145,-6.402657508850098,0.0,3.77,0.0,0,-60
1680025174.96002197,102034160,0.0,0.0,0.36250001192092896,0.5,0.0,-6.667013168334961,-6.452485084533691,0.0,3.72,0.0,0,-59
1680025175.05998898,102134127,0.0,0.0,0.36250001192092896,0.5,0.0,-6.720919609069824,-6.494500637054443,0.0,3.65,0.0,0,-59
1680025175.15995502,102234093,0.0,0.0,0.36250001192092896,0.5,0.0,-6.767468452453613,-6.624842643737793,0.0,3.6,0.0,0,-58
1680025175.25992107,102334059,0.0,0.0,0.36250001192092896,0.5,0.0,-6.8083815574646,-6.637213230133057,0.0,3.5300000000000002,0.0,0,-57
1680025175.35988808,102434026,0.0,0.0,0.36250001192092896,0.5,0.0,-6.8473029136657715,-6.845400333404541,0.0,3.47,0.0,0,-56
1680025175.45985413,102533992,0.0,0.0,0.36250001192092896,0.5,0.0,-6.88581657409668,-6.844218730926514,0.0,3.4,0.0,0,-55
1680025175.55982113,102633959,0.0,0.0,0.36250001192092896,0.5,0.0,-6.927849769592285,-7.160746097564697,0.0,3.35,0.0,0,-54
1680025175.65978718,102733925,0.0,0.0,0.36250001192092896,0.5,0.0,-6.975109100341797,-7.09578275680542,0.0,3.29,0.0,0,-54
1680025175.75975299,102833891,0.0,0.0,0.36250001192092896,0.5,0.0,-7.032494068145752,-7.127828598022461,0.0,3.23,0.0,0,-54
1680025175.85971999,102933858,0.0,0.0,0.36250001192092896,0.5,0.0,-7.100399017333984,-7.286632537841797,0.0,3.17,0.0,0,-55
1680025175.95968604,103033824,0.0,0.0,0.36250001192092896,0.5,0.0,-7.1717729568481445,-7.186529159545898,0.0,3.1,0.0,0,-56
1680025176.05965304,103133791,0.0,0.0,0.36125001311302185,0.5,0.0,-7.247671127319336,-7.163478851318359,0.0,3.04,0.0,0,-58
1680025176.15961909,103233757,0.0,0.0,0.36125001311302185,0.5,0.0,-7.324304580688477,-7.240151405334473,0.0,2.99,0.0,0,-59
1680025176.25958514,103333723,0.0,0.0,0.36125001311302185,0.5,0.0,-7.394418716430664,-7.240856170654297,0.0,2.93,0.0,0,-59
1680025176.35955215,103433690,0.0,0.0,0.36125001311302185,0.5,0.0,-7.457863807678223,-7.374714374542236,0.0,2.86,0.0,0,-59
1680025176.45951796,103533656,0.0,0.0,0.36125001311302185,0.5,0.0,-7.5150017738342285,-7.452616214752197,0.0,2.81,0.0,0,-59
1680025176.55948496,103633623,0.0,0.0,0.36125001311302185,0.5,0.0,-7.5682196617126465,-7.7678093910217285,0.0,2.74,0.0,0,-58
1680025176.65945101,103733589,0.0,0.0,0.36125001311302185,0.5,0.0,-7.621212959289551,-7.70044469833374,0.0,2.68,0.0,0,-58
1680025176.75941706,103833555,0.0,0.0,0.36125001311302185,0.5,0.0,-7.682083606719971,-7.684901237487793,0.0,2.61,0.0,0,-58
1680025176.85938406,103933522,0.0,0.0,0.36125001311302185,0.5,0.0,-7.751574516296387,-7.86373233795166,0.0,2.56,0.0,0,-59
1680025176.95935011,104033488,0.0,0.0,0.36125001311302185,0.5,0.0,-7.8216872215271,-7.962828636169434,0.0,2.49,0.0,0,-60
1680025177.05931711,104133455,0.0,0.0,0.36125001311302185,0.5,0.0,-7.893594741821289,-8.056146621704102,0.0,2.44,0.0,0,-60
1680025177.16028309,104234421,0.0,0.0,0.36125001311302185,0.5,0.0,-7.971147060394287,-8.01172161102295,0.0,2.38,0.0,0,-61
1680025177.26024914,104334387,0.0,0.0,0.36125001311302185,0.5,0.0,-8.05305290222168,-7.899537563323975,0.0,2.32,0.0,0,-63
1680025177.36021519,104434353,0.0,0.0,0.36125001311302185,0.5,0.0,-8.135650634765625,-8.283404350280762,0.0,2.25,0.0,0,-64
1680025177.46018219,104534320,0.0,0.0,0.36125001311302185,0.5,0.0,-8.210421562194824,-7.990562915802002,0.0,2.2,0.0,0,-64
1680025177.56014800,104634286,0.0,0.0,0.36125001311302185,0.5,0.0,-8.28385066986084,-8.201796531677246,0.0,2.14,0.0,0,-65
1680025177.66011500,104734253,0.0,0.0,0.36125001311302185,0.5,0.0,-8.353893280029297,-8.211170196533203,0.0,2.07,0.0,0,-65
1680025177.76008105,104834219,0.0,0.0,0.36125001311302185,0.5,0.0,-8.416281700134277,-8.296863555908203,0.0,2.02,0.0,0,-65
1680025177.86004710,104934185,0.0,0.0,0.36125001311302185,0.5,0.0,-8.47553539276123,-8.450860977172852,0.0,1.95,0.0,0,-64
1680025177.96001410,105034152,0.0,0.0,0.36125001311302185,0.5,0.0,-8.531770706176758,-8.427936553955078,0.0,1.8800000000000001,0.0,0,-63
1680025178.05998015,105134118,0.0,0.0,0.5,0.5,0.0,-8.58890438079834,-8.716521263122559,0.0,1.83,0.0,0,-59
1680025178.15994716,105234085,0.0,0.0,0.5,0.5,0.0,-8.634062767028809,-8.684308052062988,0.0,1.77,0.0,0,-42
1680025178.25991297,105334051,0.0,0.0,0.5,0.5,0.0,-8.671720504760742,-8.627938270568848,0.0,1.74,0.0,0,-33
1680025178.35987902,105434017,0.0,0.0,0.5,0.5,0.0,-8.70880126953125,-8.830666542053223,0.0,1.7,0.0,0,-27
1680025178.45984602,105533984,0.0,0.0,0.5,0.5,0.0,-8.740442276000977,-8.845240592956543,0.0,1.68,0.0,0,-24
1680025178.55981207,105633950,0.0,0.0,0.5,0.5,0.0,-8.7703218460083,-8.74268627166748,0.0,1.6500000000000001,0.0,0,-21
1680025178.65977907,105733917,0.0,0.0,0.5,0.5,0.0,-8.802401542663574,-8.572078704833984,0.0,1.6300000000000001,0.0,0,-20
1680025178.75974512,105833883,0.0,0.0,0.5,0.5,0.0,-8.831376075744629,-8.585087776184082,0.0,1.62,0.0,0,-18
1680025178.85971117,105933849,0.0,0.0,0.5,0.5,0.0,-8.84889030456543,-8.867301940917969,0.0,1.6,0.0,0,-17
1680025178.95967817,106033816,0.0,0.0,0.5,0.5,0.0,-8.852782249450684,-8.942590713500977,0.0,1.59,0.0,0,-14
1680025179.05964398,106133782,0.0,0.0,0.5,0.5,0.0,-8.8543062210083,-8.666910171508789,0.0,1.59,0.0,0,-12
1680025179.15961099,106233749,0.0,0.0,0.5,0.5,0.0,-8.862625122070312,-8.603270530700684,0.0,1.58,0.0,0,-11
1680025179.25957704,106333715,0.0,0.0,0.5,0.5,0.0,-8.869064331054688,-8.830507278442383,0.0,1.56,0.0,0,-10
1680025179.35954309,106433681,0.0,0.0,0.5,0.5,0.0,-8.864779472351074,-8.857177734375,0.0,1.56,0.0,0,-8
1680025179.45951009,106533648,0.0,0.0,0.5,0.5,0.0,-8.857397079467773,-8.959705352783203,0.0,1.56,0.0,0,-7
1680025179.55947614,106633614,0.0,0.0,0.5,0.5,0.0,-8.85400104522705,-8.927986145019531,0.0,1.55,0.0,0,-5
1680025179.65944314,106733581,0.0,0.0,0.5,0.5,0.0,-8.856733322143555,-8.627449035644531,0.0,1.54,0.0,0,-5
1680025179.75940919,106833547,0.4295739233493805,0.0,0.6069859862327576,0.5,-8.875642776489258,-8.866169929504395,-8.68224811553955,1.6400000000000001,1.53,0.0,0,-4
1680025179.85937500,106933513,0.22301721572875977,0.0,0.572746753692627,0.5,-8.868825912475586,-8.86312198638916,-8.917519569396973,1.6400000000000001,1.54,0.0,9,8
1680025179.95934200,107033480,0.14800676703453064,0.0,0.4692634344100952,0.5,-8.854133605957031,-8.840378761291504,-8.658084869384766,1.6400000000000001,1.54,0.0,14,17
1680025180.05930805,107133446,0.4184727668762207,0.0,0.3799665868282318,0.5,-8.832745552062988,-8.813164710998535,-8.785391807556152,1.6400000000000001,1.56,0.0,18,19
1680025180.16027403,107234412,0.8792704939842224,0.0,0.4174657166004181,0.5,-8.806690216064453,-8.783700942993164,-8.879655838012695,1.6400000000000001,1.57,0.0,20,16
1680025180.26024103,107334379,1.0775103569030762,0.0,0.5502891540527344,0.5,-8.778179168701172,-8.751667022705078,-8.801939010620117,1.6400000000000001,1.59,0.0,21,15
1680025180.36020708,107434345,0.8914712071418762,0.0,0.6633033752441406,0.5,-8.748781204223633,-8.726174354553223,-8.848980903625488,1.6400000000000001,1.62,0.0,22,15
1680025180.46017408,107534312,0.47695475816726685,0.0,0.701450526714325,0.5,-8.72032356262207,-8.707178115844727,-8.852167129516602,1.6400000000000001,1.6400000000000001,0.0,23,18
1680025180.56014013,107634278,0.09576684236526489,0.0,0.6289028525352478,0.5,-8.694572448730469,-8.692771911621094,-8.89865779876709,1.6400000000000001,1.6400000000000001,0.0,23,21
1680025180.66010618,107734244,-0.03942859172821045,0.0,0.4856621026992798,0.5,-8.67226791381836,-8.683870315551758,-8.564740180969238,1.6400000000000001,1.6600000000000001,0.0,23,21
1680025180.76007318,107834211,0.11927884817123413,0.0,0.37560054659843445,0.5,-8.65421199798584,-8.681670188903809,-8.588467597961426,1.6400000000000001,1.68,0.0,24,19
1680025180.86003900,107934177,0.47124600410461426,0.0,0.3133181929588318,0.5,-8.640935897827148,-8.675415992736816,-8.533919334411621,1.6400000000000001,1.69,0.0,20,16
1680025180.96000600,108034144,0.8412655591964722,0.0,0.32667800784111023,0.5,-8.633413314819336,-8.66039752960205,-8.630213737487793,1.6400000000000001,1.71,0.0,12,10
1680025181.05997205,108134110,1.1121350526809692,0.0,0.4339033365249634,0.5,-8.632040977478027,-8.644227981567383,-8.46920108795166,1.6400000000000001,1.73,0.0,1,0
1680025181.15993810,108234076,1.0664770603179932,0.0,0.549170732498169,0.5,-8.637297630310059,-8.635826110839844,-8.443611145019531,1.6400000000000001,1.72,0.0,-9,-11
1680025181.25990510,108334043,0.6894744634628296,0.0,0.6381919384002686,0.5,-8.649055480957031,-8.634856224060059,-8.740004539489746,1.6400000000000001,1.72,0.0,-18,-16
1680025181.35987115,108434009,0.22416731715202332,0.0,0.5997419953346252,0.5,-8.665950775146484,-8.635674476623535,-8.515442848205566,1.6400000000000001,1.71,0.0,-27,-19
1680025181.45983815,108533976,-0.08624321222305298,0.0,0.47779524326324463,0.5,-8.686477661132812,-8.648297309875488,-8.516191482543945,1.6400000000000001,1.67,0.0,-33,-23
1680025181.55980396,108633942,-0.07661950588226318,0.0,0.36244621872901917,0.5,-8.707950592041016,-8.669657707214355,-8.662690162658691,1.6400000000000001,1.6500000000000001,0.0,-32,-24
1680025181.65977001,108733908,0.3148714303970337,0.0,0.2837098240852356,0.5,-8.727853775024414,-8.687722206115723,-8.735207557678223,1.6400000000000001,1.61,0.0,-30,-25
1680025181.75973701,108833875,0.8128359913825989,0.0,0.3598489761352539,0.5,-8.743748664855957,-8.704757690429688,-8.628459930419922,1.6400000000000001,1.57,0.0,-24,-25
1680025181.85970306,108933841,1.0308047533035278,0.0,0.5285483002662659,0.5,-8.752961158752441,-8.721375465393066,-8.723800659179688,1.6400000000000001,1.56,0.0,-14,-19
1680025181.95967007,109033808,0.9274978637695312,0.0,0.6697471737861633,0.5,-8.754114151000977,-8.729809761047363,-8.672734260559082,1.6400000000000001,1.54,0.0,-4,-9
1680025182.05963612,109133774,0.680687427520752,0.0,0.7406690716743469,0.5,-8.746668815612793,-8.727996826171875,-8.738471031188965,1.6400000000000001,1.51,0.0,6,2
1680025182.15960217,109233740,0.32369959354400635,0.0,0.7330031394958496,0.5,-8.729665756225586,-8.715346336364746,-9.043335914611816,1.6400000000000001,1.52,0.0,17,16
1680025182.25956917,109333707,-0.0243147611618042,0.0,0.6308633685112,0.5,-8.704087257385254,-8.69242000579834,-8.646175384521484,1.6400000000000001,1.53,0.0,25,28
1680025182.35953498,109433673,-0.08227437734603882,0.0,0.4880982041358948,0.5,-8.67253303527832,-8.672518730163574,-8.714146614074707,1.6400000000000001,1.54,0.0,33,34
1680025182.45950198,109533640,0.24795424938201904,0.0,0.38306620717048645,0.5,-8.637458801269531,-8.65108871459961,-8.858074188232422,1.6400000000000001,1.57,0.0,40,37
1680025182.55946803,109633606,0.7609362006187439,0.0,0.3879702091217041,0.5,-8.600915908813477,-8.62035846710205,-8.839924812316895,1.6400000000000001,1.6,0.0,42,36
1680025182.65943408,109733572,1.1197816133499146,0.0,0.5107283592224121,0.5,-8.564849853515625,-8.591361999511719,-8.700685501098633,1.6400000000000001,1.6300000000000001,0.0,43,33
1680025182.75940108,109833539,1.0806652307510376,0.0,0.6321481466293335,0.5,-8.531067848205566,-8.569775581359863,-8.690864562988281,1.6400000000000001,1.6600000000000001,0.0,43,31
1680025182.85936713,109933505,0.6306639909744263,0.0,0.7137021422386169,0.5,-8.501838684082031,-8.551158905029297,-8.529448509216309,1.6400000000000001,1.71,0.0,41,33
1680025182.95933414,110033472,0.1848112940788269,0.0,0.6160526275634766,0.5,-8.479803085327148,-8.53322696685791,-8.613468170166016,1.6400000000000001,1.73,0.0,33,31
1680025183.06030011,110134438,-0.030074477195739746,0.0,0.4416804015636444,0.5,-8.467482566833496,-8.51769733428955,-8.773700714111328,1.6400000000000001,1.75,0.0,22,24
1680025183.16026616,110234404,0.07372868061065674,0.0,0.3125363290309906,0.5,-8.465768814086914,-8.509138107299805,-8.734804153442383,1.6400000000000001,1.78,0.0,9,13
1680025183.26023197,110334370,0.3354629874229431,0.0,0.25071895122528076,0.5,-8.475179672241211,-8.517579078674316,-8.653006553649902,1.6400000000000001,1.79,0.0,-2,0
1680025183.36019897,110434337,0.7142350673675537,0.0,0.27696946263313293,0.5,-8.495757102966309,-8.545084953308105,-8.44932746887207,1.6400000000000001,1.79,0.0,-10,-14
1680025183.46016502,110534303,1.068587303161621,0.0,0.40611037611961365,0.5,-8.525435447692871,-8.58270263671875,-8.735328674316406,1.6400000000000001,1.76,0.0,-15,-24
1680025183.56013203,110634270,1.1113179922103882,0.0,0.5397425889968872,0.5,-8.56070613861084,-8.61670970916748,-8.44169807434082,1.6400000000000001,1.76,0.0,-20,-26
1680025183.66009808,110734236,0.8209843635559082,0.0,0.64389967918396,0.5,-8.599286079406738,-8.649652481079102,-8.604009628295898,1.6400000000000001,1.74,0.0,-24,-27
1680025183.76006413,110834202,0.331328809261322,0.0,0.6579206585884094,0.5,-8.639751434326172,-8.679940223693848,-8.485468864440918,1.6400000000000001,1.71,0.0,-28,-24
1680025183.86003113,110934169,-0.05935680866241455,0.0,0.5370917320251465,0.5,-8.680480003356934,-8.70419692993164,-8.650156021118164,1.6400000000000001,1.7,0.0,-33,-23
1680025183.95999718,111034135,-0.153095543384552,0.0,0.4053441882133484,0.5,-8.720575332641602,-8.725725173950195,-8.869264602661133,1.6400000000000001,1.67,0.0,-37,-24
1680025184.05996418,111134102,0.14724743366241455,0.0,0.28176701068878174,0.5,-8.75881576538086,-8.746787071228027,-8.917840957641602,1.6400000000000001,1.6400000000000001,0.0,-40,-29
1680025184.15992999,111234068,0.6723382472991943,0.0,0.29461944103240967,0.5,-8.793890953063965,-8.777931213378906,-8.652799606323242,1.6400000000000001,1.62,0.0,-37,-35
1680025184.25989604,111334034,1.0163428783416748,0.0,0.4785318970680237,0.5,-8.824254989624023,-8.819307327270508,-8.62405014038086,1.6400000000000001,1.59,0.0,-28,-34
1680025184.35986304,111434001,0.972145676612854,0.0,0.646431565284729,0.5,-8.847747802734375,-8.851917266845703,-8.848577499389648,1.6400000000000001,1.56,0.0,-18,-24
1680025184.45982909,111533967,0.707135796546936,0.0,0.7277861833572388,0.5,-8.862448692321777,-8.86307430267334,-8.6411714553833,1.6400000000000001,1.54,0.0,-9,-10
1680025184.55979609,111633934,0.3716822862625122,0.0,0.7270808815956116,0.5,-8.867269515991211,-8.861310958862305,-8.676288604736328,1.6400000000000001,1.54,0.0,-1,0
1680025184.65976214,111733900,-0.00913161039352417,0.0,0.643782377243042,0.5,-8.86265754699707,-8.848030090332031,-8.968564987182617,1.6400000000000001,1.54,0.0,4,11
1680025184.75972795,111833866,-0.18917369842529297,0.0,0.49597427248954773,0.5,-8.849861145019531,-8.820752143859863,-8.712181091308594,1.6400000000000001,1.55,0.0,7,19
1680025184.85969496,111933833,0.06697407364845276,0.0,0.3525601923465729,0.5,-8.830392837524414,-8.794649124145508,-8.639676094055176,1.6400000000000001,1.57,0.0,11,19
1680025184.95966101,112033799,0.5212023258209229,0.0,0.3195439875125885,0.5,-8.806607246398926,-8.77275562286377,-8.638887405395508,1.6400000000000001,1.59,0.0,15,15
1680025185.05962801,112133766,0.9367661476135254,0.0,0.38598600029945374,0.5,-8.780723571777344,-8.745748519897461,-8.913142204284668,1.6400000000000001,1.6,0.0,15,12
1680025185.15959406,112233732,1.1155949831008911,0.0,0.49923640489578247,0.5,-8.754741668701172,-8.715582847595215,-8.857521057128906,1.6400000000000001,1.61,0.0,13,10
1680025185.25956011,112333698,1.0427210330963135,0.0,0.6024876236915588,0.5,-8.729863166809082,-8.694239616394043,-8.564435958862305,1.6400000000000001,1.6400000000000001,0.0,13,7
1680025185.35952711,112433665,0.713813066482544,0.0,0.6976433992385864,0.5,-8.707378387451172,-8.68698787689209,-8.739192962646484,1.6400000000000001,1.6400000000000001,0.0,14,7
1680025185.45949316,112533631,0.26041483879089355,0.0,0.6782928109169006,0.5,-8.687899589538574,-8.678319931030273,-8.848094940185547,1.6400000000000001,1.6500000000000001,0.0,15,12
1680025185.55946016,112633598,-0.0447116494178772,0.0,0.5485323071479797,0.5,-8.671722412109375,-8.665900230407715,-8.873391151428223,1.6400000000000001,1.67,0.0,12,14
1680025185.65942597,112733564,-0.04218846559524536,0.0,0.42680925130844116,0.5,-8.6594820022583,-8.661860466003418,-8.678702354431152,1.6400000000000001,1.68,0.0,10,11
1680025185.75939202,112833530,0.18037369847297668,0.0,0.3375685214996338,0.5,-8.651662826538086,-8.668867111206055,-8.674510955810547,1.6400000000000001,1.68,0.0,10,7
1680025185.85935903,112933497,0.522068977355957,0.0,0.3115444779396057,0.5,-8.648200035095215,-8.67724609375,-8.820542335510254,1.6400000000000001,1.69,0.0,10,5
1680025185.95932508,113033463,0.8844817876815796,0.0,0.3495459258556366,0.5,-8.6488676071167,-8.680548667907715,-8.658157348632812,1.6400000000000001,1.69,0.0,6,1
1680025186.06029105,113134429,1.1274021863937378,0.0,0.45432180166244507,0.5,-8.653641700744629,-8.686310768127441,-8.599417686462402,1.6400000000000001,1.7,0.0,3,-3
1680025186.16025805,113234396,1.1325154304504395,0.0,0.561582624912262,0.5,-8.662631034851074,-8.69548225402832,-8.629530906677246,1.6400000000000001,1.71,0.0,-1,-8
1680025186.26022410,113334362,0.8539161086082458,0.0,0.6549797058105469,0.5,-8.676029205322266,-8.702459335327148,-8.703314781188965,1.6400000000000001,1.71,0.0,-7,-10
1680025186.36019015,113434328,0.45192331075668335,0.0,0.6705349087715149,0.5,-8.693376541137695,-8.708269119262695,-8.541168212890625,1.6400000000000001,1.7,0.0,-14,-11
1680025186.46015716,113534295,0.06709271669387817,0.0,0.5994834303855896,0.5,-8.713486671447754,-8.717970848083496,-8.704693794250488,1.6400000000000001,1.69,0.0,-19,-12
1680025186.56012297,113634261,-0.13048863410949707,0.0,0.465807169675827,0.5,-8.735187530517578,-8.728670120239258,-8.871167182922363,1.6400000000000001,1.67,0.0,-24,-14
1680025186.66008997,113734228,-0.014992594718933105,0.0,0.3503403663635254,0.5,-8.75722599029541,-8.740856170654297,-8.51180648803711,1.6400000000000001,1.6500000000000001,0.0,-26,-17
1680025186.76005602,113834194,0.4076852798461914,0.0,0.29058578610420227,0.5,-8.777653694152832,-8.761860847473145,-8.853633880615234,1.6400000000000001,1.6300000000000001,0.0,-23,-21
1680025186.86002207,113934160,0.8423980474472046,0.0,0.3799681067466736,0.5,-8.794914245605469,-8.780391693115234,-8.562745094299316,1.6400000000000001,1.61,0.0,-19,-21
1680025186.95998907,114034127,1.054818034172058,0.0,0.5150915384292603,0.5,-8.807494163513184,-8.79284954071045,-8.81674575805664,1.6400000000000001,1.59,0.0,-14,-18
1680025187.05995512,114134093,0.9491589069366455,0.0,0.637262225151062,0.5,-8.81466293334961,-8.79799747467041,-8.86296558380127,1.6400000000000001,1.59,0.0,-9,-11
1680025187.15992212,114234060,0.6684107184410095,0.0,0.6980095505714417,0.5,-8.816418647766113,-8.795830726623535,-8.823421478271484,1.6400000000000001,1.59,0.0,-5,-5
1680025187.25988817,114334026,0.3319462239742279,0.0,0.7062363028526306,0.5,-8.813382148742676,-8.796442031860352,-8.800149917602539,1.6400000000000001,1.58,0.0,0,0
1680025187.35985398,114433992,0.005194246768951416,0.0,0.637516438961029,0.5,-8.80566120147705,-8.796095848083496,-8.694448471069336,1.6400000000000001,1.58,0.0,6,8
1680025187.45982099,114533959,-0.14101409912109375,0.0,0.5050233602523804,0.5,-8.793767929077148,-8.790060043334961,-8.97375774383545,1.6400000000000001,1.59,0.0,12,15
1680025187.55978703,114633925,0.02329757809638977,0.0,0.38016876578330994,0.5,-8.778923034667969,-8.775435447692871,-8.856420516967773,1.6400000000000001,1.6,0.0,14,19
1680025187.65975404,114733892,0.4558565318584442,0.0,0.3122880160808563,0.5,-8.762412071228027,-8.76142692565918,-8.613845825195312,1.6400000000000001,1.62,0.0,16,16
1680025187.75972009,114833858,0.8889994621276855,0.0,0.37450292706489563,0.5,-8.745624542236328,-8.753630638122559,-8.600715637207031,1.6400000000000001,1.6400000000000001,0.0,19,12
1680025187.85968614,114933824,1.1252785921096802,0.0,0.5055829286575317,0.5,-8.729952812194824,-8.740227699279785,-8.768424987792969,1.6400000000000001,1.6600000000000001,0.0,17,10
1680025187.95965314,115033791,1.0140173435211182,0.0,0.6058813333511353,0.5,-8.716950416564941,-8.718875885009766,-8.775188446044922,1.6400000000000001,1.67,0.0,11,8
1680025188.05961919,115133757,0.665873110294342,0.0,0.6641453504562378,0.5,-8.707941055297852,-8.701075553894043,-8.848247528076172,1.6400000000000001,1.68,0.0,4,5
1680025188.15958619,115233724,0.2841939330101013,0.0,0.6426402926445007,0.5,-8.703333854675293,-8.69395637512207,-8.711594581604004,1.6400000000000001,1.68,0.0,0,1
1680025188.25955200,115333690,-0.015110552310943604,0.0,0.5620089173316956,0.5,-8.70300006866455,-8.698911666870117,-8.53320598602295,1.6400000000000001,1.67,0.0,-2,0
1680025188.35951805,115433656,-0.07692044973373413,0.0,0.447490930557251,0.5,-8.705832481384277,-8.709692001342773,-8.718132972717285,1.6400000000000001,1.67,0.0,-2,0
1680025188.45948505,115533623,0.1208961009979248,0.0,0.3375062346458435,0.5,-8.711169242858887,-8.714890480041504,-8.86081314086914,1.6400000000000001,1.67,0.0,-5,-2
1680025188.55945110,115633589,0.4822655916213989,0.0,0.29259786009788513,0.5,-8.718476295471191,-8.716997146606445,-8.499276161193848,1.6400000000000001,1.6600000000000001,0.0,-8,-5
1680025188.65941811,115733556,0.8907601833343506,0.0,0.3498814105987549,0.5,-8.726597785949707,-8.7264986038208,-8.805928230285645,1.6400000000000001,1.6600000000000001,0.0,-8,-11
1680025188.75938416,115833522,1.1009024381637573,0.0,0.4797523617744446,0.5,-8.735182762145996,-8.734314918518066,-8.665260314941406,1.6400000000000001,1.6400000000000001,0.0,-9,-13
1680025188.85934997,115933488,1.0440690517425537,0.0,0.587988018989563,0.5,-8.743429183959961,-8.738821029663086,-8.747771263122559,1.6400000000000001,1.6500000000000001,0.0,-9,-12
1680025188.95931697,116033455,0.7414688467979431,0.0,0.681985080242157,0.5,-8.750753402709961,-8.744833946228027,-8.706658363342285,1.6400000000000001,1.6400000000000001,0.0,-8,-10
1680025189.06028318,116134421,0.3333567678928375,0.0,0.6866374611854553,0.5,-8.756979942321777,-8.74977970123291,-8.89228343963623,1.6400000000000001,1.6400000000000001,0.0,-7,-5
1680025189.16024899,116234387,0.008097171783447266,0.0,0.6088618636131287,0.5,-8.76181411743164,-8.753974914550781,-8.571686744689941,1.6400000000000001,1.6300000000000001,0.0,-6,-2
1680025189.26021600,116334354,-0.13952535390853882,0.0,0.493085652589798,0.5,-8.765130996704102,-8.761009216308594,-8.559993743896484,1.6400000000000001,1.62,0.0,-3,0
1680025189.36018205,116434320,-0.06703150272369385,0.0,0.4039369225502014,0.5,-8.766563415527344,-8.763487815856934,-8.809403419494629,1.6400000000000001,1.61,0.0,-1,4
1680025189.46014905,116534287,0.23095551133155823,0.0,0.30476850271224976,0.5,-8.76541519165039,-8.752141952514648,-8.703866004943848,1.6400000000000001,1.61,0.0,-1,4
1680025189.56011510,116634253,0.6359924077987671,0.0,0.2988842725753784,0.5,-8.762012481689453,-8.74045181274414,-8.872358322143555,1.6400000000000001,1.61,0.0,-1,0
1680025189.66008115,116734219,0.9722011089324951,0.0,0.38353344798088074,0.5,-8.75647258758545,-8.733342170715332,-8.687958717346191,1.6400000000000001,1.61,0.0,0,-2
1680025189.76004815,116834186,1.1123051643371582,0.0,0.510470449924469,0.5,-8.749277114868164,-8.731205940246582,-8.725655555725098,1.6400000000000001,1.62,0.0,2,-3
1680025189.86001396,116934152,0.9798246622085571,0.0,0.6241226196289062,0.5,-8.74074935913086,-8.73005199432373,-8.710783004760742,1.6400000000000001,1.62,0.0,5,0
1680025189.95998096,117034119,0.6272610425949097,0.0,0.6937146186828613,0.5,-8.731409072875977,-8.724485397338867,-8.835280418395996,1.6400000000000001,1.62,0.0,7,4
1680025190.05994701,117134085,0.20225510001182556,0.0,0.6565074324607849,0.5,-8.72120475769043,-8.715888977050781,-8.747928619384766,1.6400000000000001,1.62,0.0,8,10
1680025190.15991306,117234051,-0.07471519708633423,0.0,0.5381895899772644,0.5,-8.71052074432373,-8.70871639251709,-8.60568904876709,1.6400000000000001,1.6300000000000001,0.0,10,13
1680025190.25988007,117334018,-0.039549946784973145,0.0,0.4147014915943146,0.5,-8.699828147888184,-8.70361042022705,-8.813370704650879,1.6400000000000001,1.6400000000000001,0.0,11,14
1680025190.35984612,117433984,0.24799099564552307,0.0,0.31743156909942627,0.5,-8.689931869506836,-8.694099426269531,-8.565286636352539,1.6400000000000001,1.6400000000000001,0.0,10,12
1680025190.45981312,117533951,0.6504616141319275,0.0,0.30506572127342224,0.5,-8.681225776672363,-8.684869766235352,-8.674448013305664,1.6400000000000001,1.6500000000000001,0.0,9,8
1680025190.55977917,117633917,0.9762336015701294,0.0,0.3724786937236786,0.5,-8.674019813537598,-8.675698280334473,-8.75837516784668,1.6400000000000001,1.6600000000000001,0.0,6,3
1680025190.65974498,117733883,1.1375272274017334,0.0,0.4869260787963867,0.5,-8.669137954711914,-8.665685653686523,-8.845817565917969,1.6400000000000001,1.67,0.0,2,-1
1680025190.75971198,117833850,1.049757719039917,0.0,0.5968636274337769,0.5,-8.666845321655273,-8.663378715515137,-8.564925193786621,1.6400000000000001,1.67,0.0,0,-5
1680025190.85967803,117933816,0.7195684909820557,0.0,0.6899875402450562,0.5,-8.667192459106445,-8.671923637390137,-8.548944473266602,1.6400000000000001,1.67,0.0,0,-5
1680025190.95964503,118033783,0.3052310347557068,0.0,0.687594473361969,0.5,-8.669554710388184,-8.680220603942871,-8.634993553161621,1.6400000000000001,1.6600000000000001,0.0,0,-1
1680025191.05961108,118133749,-0.03237658739089966,0.0,0.5804410576820374,0.5,-8.673347473144531,-8.679237365722656,-8.508271217346191,1.6400000000000001,1.6600000000000001,0.0,-2,2
1680025191.15957713,118233715,-0.13589900732040405,0.0,0.4503728747367859,0.5,-8.678206443786621,-8.675212860107422,-8.879223823547363,1.6400000000000001,1.6600000000000001,0.0,-6,2
1680025191.25954413,118333682,0.00922277569770813,0.0,0.3447656035423279,0.5,-8.683878898620605,-8.669954299926758,-8.646821975708008,1.6400000000000001,1.6500000000000001,0.0,-9,0
1680025191.35951018,118433648,0.4037890136241913,0.0,0.28175923228263855,0.5,-8.689586639404297,-8.672405242919922,-8.529129028320312,1.6400000000000001,1.62,0.0,-10,-6
1680025191.45947719,118533615,0.8433167338371277,0.0,0.35081997513771057,0.5,-8.693964958190918,-8.682644844055176,-8.675414085388184,1.6400000000000001,1.62,0.0,-6,-10
1680025191.55944300,118633581,1.0732455253601074,0.0,0.48597797751426697,0.5,-8.696285247802734,-8.685946464538574,-8.568238258361816,1.6400000000000001,1.61,0.0,-4,-9
1680025191.65940905,118733547,1.007159948348999,0.0,0.6019777059555054,0.5,-8.696122169494629,-8.683290481567383,-8.743433952331543,1.6400000000000001,1.6,0.0,-2,-5
1680025191.75937605,118833514,0.7166286706924438,0.0,0.6858399510383606,0.5,-8.692975997924805,-8.676440238952637,-8.850522994995117,1.6400000000000001,1.61,0.0,0,0
1680025191.85934210,118933480,0.32903262972831726,0.0,0.681499719619751,0.5,-8.687061309814453,-8.669136047363281,-8.689939498901367,1.6400000000000001,1.61,0.0,1,3
1680025191.95930910,119033447,0.01785537600517273,0.0,0.6139759421348572,0.5,-8.67910099029541,-8.66936206817627,-8.721569061279297,1.6400000000000001,1.6,0.0,6,7
1680025192.06027508,119134413,-0.12340313196182251,0.0,0.49167320132255554,0.5,-8.668952941894531,-8.67000675201416,-8.56691837310791,1.6400000000000001,1.6,0.0,11,13
1680025192.16024113,119234379,0.03791254758834839,0.0,0.3772197961807251,0.5,-8.657023429870605,-8.665385246276855,-8.899431228637695,1.6400000000000001,1.61,0.0,15,16
1680025192.26020718,119334345,0.3945828378200531,0.0,0.30992987751960754,0.5,-8.643954277038574,-8.653157234191895,-8.860919952392578,1.6400000000000001,1.62,0.0,16,16
1680025192.36017418,119434312,0.8114607334136963,0.0,0.3345624804496765,0.5,-8.630725860595703,-8.642642974853516,-8.687091827392578,1.6400000000000001,1.6300000000000001,0.0,16,12
1680025192.46013999,119534278,1.1034023761749268,0.0,0.4483732283115387,0.5,-8.618215560913086,-8.642115592956543,-8.883832931518555,1.6400000000000001,1.6500000000000001,0.0,19,9
1680025192.56010699,119634245,1.1412060260772705,0.0,0.5728195905685425,0.5,-8.607434272766113,-8.64228343963623,-8.683940887451172,1.6400000000000001,1.6600000000000001,0.0,20,9
1680025192.66007304,119734211,0.88960862159729,0.0,0.6757304072380066,0.5,-8.599151611328125,-8.643793106079102,-8.771627426147461,1.6400000000000001,1.68,0.0,20,10
1680025192.76003909,119834177,0.4591310918331146,0.0,0.6978288292884827,0.5,-8.594202041625977,-8.64564323425293,-8.868810653686523,1.6400000000000001,1.69,0.0,18,13
1680025192.86000609,119934144,0.07740220427513123,0.0,0.6089473366737366,0.5,-8.593461036682129,-8.645837783813477,-8.518930435180664,1.6400000000000001,1.71,0.0,14,15
1680025192.95997214,120034110,-0.05984699726104736,0.0,0.47976601123809814,0.5,-8.59756088256836,-8.65289306640625,-8.636628150939941,1.6400000000000001,1.71,0.0,9,11
1680025193.05993915,120134077,0.015103042125701904,0.0,0.36872631311416626,0.5,-8.606948852539062,-8.659951210021973,-8.44378662109375,1.6400000000000001,1.72,0.0,3,6
1680025193.15990496,120234043,0.26656991243362427,0.0,0.27964964509010315,0.5,-8.621623992919922,-8.662755966186523,-8.604231834411621,1.6400000000000001,1.73,0.0,-4,0
1680025193.25987101,120334009,0.5896304845809937,0.0,0.26117029786109924,0.5,-8.641640663146973,-8.66390323638916,-8.693302154541016,1.6400000000000001,1.73,0.0,-15,-9
1680025193.35983801,120433976,0.9317194223403931,0.0,0.3294689655303955,0.5,-8.666354179382324,-8.668050765991211,-8.501004219055176,1.6400000000000001,1.72,0.0,-25,-21
1680025193.45980406,120533942,1.0581210851669312,0.0,0.4798943102359772,0.5,-8.694247245788574,-8.68438720703125,-8.803707122802734,1.6400000000000001,1.7,0.0,-31,-31
1680025193.55977106,120633909,0.7532798647880554,0.0,0.6144568920135498,0.5,-8.723553657531738,-8.705586433410645,-8.875001907348633,1.6400000000000001,1.67,0.0,-34,-32
1680025193.65973711,120733875,0.2663354277610779,0.0,0.6227031946182251,0.5,-8.752161026000977,-8.73141098022461,-8.867863655090332,1.6400000000000001,1.6400000000000001,0.0,-34,-29
1680025193.75970316,120833841,-0.08243054151535034,0.0,0.536367654800415,0.5,-8.778166770935059,-8.767162322998047,-8.570996284484863,1.6400000000000001,1.61,0.0,-27,-24
1680025193.85967016,120933808,-0.045837461948394775,0.0,0.42470672726631165,0.5,-8.799334526062012,-8.804038047790527,-8.904040336608887,1.6400000000000001,1.59,0.0,-16,-15
1680025193.95963597,121033774,0.3149270713329315,0.0,0.3640086352825165,0.5,-8.813918113708496,-8.825642585754395,-8.712903022766113,1.6400000000000001,1.58,0.0,-7,-7
1680025194.05960298,121133741,0.7695239782333374,0.0,0.3819524049758911,0.5,-8.821056365966797,-8.833534240722656,-8.766239166259766,1.6400000000000001,1.57,0.0,0,-2
1680025194.15956903,121233707,1.031137466430664,0.0,0.4892119765281677,0.5,-8.821182250976562,-8.832653999328613,-8.875007629394531,1.6400000000000001,1.57,0.0,6,2
1680025194.25953507,121333673,1.0197899341583252,0.0,0.5905553102493286,0.5,-8.815144538879395,-8.819706916809082,-8.636458396911621,1.6400000000000001,1.6,0.0,9,7
1680025194.35950208,121433640,0.7547073364257812,0.0,0.676427960395813,0.5,-8.80500602722168,-8.804659843444824,-8.853736877441406,1.6400000000000001,1.61,0.0,11,9
1680025194.45946813,121533606,0.32800808548927307,0.0,0.6822243928909302,0.5,-8.792891502380371,-8.786447525024414,-8.812970161437988,1.6400000000000001,1.6300000000000001,0.0,10,13
1680025194.55943513,121633573,-0.004537522792816162,0.0,0.5749713182449341,0.5,-8.780486106872559,-8.767827987670898,-8.728429794311523,1.6400000000000001,1.6300000000000001,0.0,8,13
1680025194.65940118,121733539,-0.10278487205505371,0.0,0.4501490890979767,0.5,-8.769087791442871,-8.75655746459961,-8.796682357788086,1.6400000000000001,1.6500000000000001,0.0,7,12
1680025194.75936699,121833505,0.057010114192962646,0.0,0.3514585793018341,0.5,-8.759317398071289,-8.748480796813965,-8.635650634765625,1.6400000000000001,1.6500000000000001,0.0,5,8
1680025194.85933399,121933472,0.3795410096645355,0.0,0.2913439869880676,0.5,-8.7516508102417,-8.743288040161133,-8.725510597229004,1.6400000000000001,1.6600000000000001,0.0,4,4
1680025194.96029997,122034438,0.7477473616600037,0.0,0.31491702795028687,0.5,-8.746426582336426,-8.73819351196289,-8.792675018310547,1.6400000000000001,1.6600000000000001,0.0,1,0
1680025195.06026602,122134404,1.042243480682373,0.0,0.40259453654289246,0.5,-8.743511199951172,-8.732669830322266,-8.884732246398926,1.6400000000000001,1.67,0.0,-1,-4
1680025195.16023302,122234371,1.1343283653259277,0.0,0.5300585031509399,0.5,-8.742849349975586,-8.733295440673828,-8.517812728881836,1.6400000000000001,1.6600000000000001,0.0,-3,-9
1680025195.26019907,122334337,0.9407011270523071,0.0,0.645307183265686,0.5,-8.744029998779297,-8.742766380310059,-8.813080787658691,1.6400000000000001,1.67,0.0,-2,-9
1680025195.36016512,122434303,0.49707895517349243,0.0,0.7012293934822083,0.5,-8.746816635131836,-8.748663902282715,-8.645684242248535,1.6400000000000001,1.6600000000000001,0.0,-2,-4
1680025195.46013212,122534270,0.09847256541252136,0.0,0.6297299861907959,0.5,-8.750568389892578,-8.749602317810059,-8.711241722106934,1.6400000000000001,1.6500000000000001,0.0,-4,0
1680025195.56009817,122634236,-0.12070232629776001,0.0,0.5042626261711121,0.5,-8.754690170288086,-8.75064754486084,-8.714293479919434,1.6400000000000001,1.6500000000000001,0.0,-5,0
1680025195.66006517,122734203,-0.046719372272491455,0.0,0.3840024173259735,0.5,-8.758966445922852,-8.749789237976074,-8.677597045898438,1.6400000000000001,1.6500000000000001,0.0,-7,0
1680025195.76003098,122834169,0.2787812054157257,0.0,0.29688939452171326,0.5,-8.7633638381958,-8.750447273254395,-8.553043365478516,1.6400000000000001,1.6400000000000001,0.0,-8,-4
1680025195.85999703,122934135,0.695101261138916,0.0,0.3145151734352112,0.5,-8.767416000366211,-8.751416206359863,-8.571646690368652,1.6400000000000001,1.6400000000000001,0.0,-8,-7
1680025195.95996404,123034102,1.0179469585418701,0.0,0.4199509918689728,0.5,-8.770426750183105,-8.747756004333496,-8.740312576293945,1.6400000000000001,1.6300000000000001,0.0,-9,-10
1680025196.05993009,123134068,1.0607688426971436,0.0,0.5367798209190369,0.5,-8.772175788879395,-8.738445281982422,-8.9192476272583,1.6400000000000001,1.62,0.0,-11,-11
1680025196.15989709,123234035,0.843853771686554,0.0,0.6389016509056091,0.5,-8.772335052490234,-8.731507301330566,-8.750818252563477,1.6400000000000001,1.6,0.0,-11,-10
1680025196.25986314,123334001,0.4708455204963684,0.0,0.6924422383308411,0.5,-8.76999282836914,-8.735568046569824,-8.674328804016113,1.6400000000000001,1.6,0.0,-6,-7
1680025196.35982919,123433967,0.0990857183933258,0.0,0.6539543867111206,0.5,-8.764494895935059,-8.744040489196777,-8.875175476074219,1.6400000000000001,1.59,0.0,0,0
1680025196.45979619,123533934,-0.13935250043869019,0.0,0.5375623106956482,0.5,-8.755843162536621,-8.744542121887207,-8.86713695526123,1.6400000000000001,1.56,0.0,6,9
1680025196.55976200,123633900,-0.07586866617202759,0.0,0.4409848153591156,0.5,-8.742892265319824,-8.738529205322266,-8.759966850280762,1.6400000000000001,1.51,0.0,14,18
1680025196.65972900,123733867,0.27299243211746216,0.0,0.3927655816078186,0.5,-8.722373962402344,-8.728409767150879,-8.770432472229004,1.6400000000000001,1.46,0.0,27,26
1680025196.75969505,123833833,0.6874112486839294,0.0,0.43173372745513916,0.5,-8.692166328430176,-8.707291603088379,-8.71008014678955,1.6400000000000001,1.44,0.0,39,34
1680025196.85966110,123933799,1.0074219703674316,0.0,0.5758923292160034,0.5,-8.65331745147705,-8.673234939575195,-8.70550537109375,1.6400000000000001,1.42,0.0,48,41
1680025196.95962811,124033766,0.9160118103027344,0.0,0.7297713160514832,0.5,-8.607232093811035,-8.627971649169922,-8.621068000793457,1.6400000000000001,1.41,0.0,55,49
1680025197.05959415,124133732,0.48197367787361145,0.0,0.7813432812690735,0.5,-8.555190086364746,-8.574270248413086,-8.628633499145508,1.6400000000000001,1.4000000000000001,0.0,60,58
1680025197.15956116,124233699,0.10242655873298645,0.0,0.6895288825035095,0.5,-8.498196601867676,-8.513663291931152,-8.323246002197266,1.6400000000000001,1.4000000000000001,0.0,63,66
1680025197.25952697,124333665,0.15331250429153442,0.0,0.529188334941864,0.5,-8.437173843383789,-8.448591232299805,-8.597909927368164,1.6400000000000001,1.3800000000000001,0.0,66,68
