timestamp,TimeUS,ThI,ABst,ThO,ThH,DAlt,Alt,BAlt,DSAlt,SAlt,TAlt,DCRt,CRt
1678293341.12003183,32133808,0.0,0.0,0.5,0.5,0.0,-0.19448556005954742,0.007549426052719355,0.0,0.0,0.0,0,2
1678293341.21999192,32233768,0.0,0.0,0.5,0.5,0.0,-0.18044288456439972,-0.32434073090553284,0.0,0.0,0.0,0,3
1678293341.31995201,32333728,0.0,0.0,0.5,0.5,0.0,-0.17294877767562866,-0.35281050205230713,0.0,0.0,0.0,0,4
1678293341.41991186,32433688,0.0,0.0,0.5,0.5,0.0,-0.17649564146995544,-0.3269268274307251,0.0,0.0,0.0,0,3
1678293341.51987195,32533648,0.0,0.0,0.5,0.5,0.0,-0.18709519505500793,-0.2562990188598633,0.0,0.0,0.0,0,2
1678293341.61983204,32633608,0.0,0.0,0.5,0.5,0.0,-0.1987258493900299,-0.18112164735794067,0.0,0.0,0.0,0,1
1678293341.71979189,32733568,0.0,0.0,0.5,0.5,0.0,-0.20618247985839844,-0.38473016023635864,0.0,0.0,0.0,0,0
1678293341.81975198,32833528,0.0,0.0,0.5,0.5,0.0,-0.21874302625656128,-0.11680285632610321,0.0,0.0,0.0,0,0
1678293341.91971183,32933488,0.0,0.0,0.5,0.5,0.0,-0.22497254610061646,-0.20625358819961548,0.0,0.0,0.0,0,0
1678293342.01967192,33033448,0.0,0.0,0.5,0.5,0.0,-0.2268485575914383,-0.17904096841812134,0.0,0.0,0.0,0,0
1678293342.11963201,33133408,0.0,0.0,0.5,0.5,0.0,-0.22587846219539642,-0.016435746103525162,0.0,0.0,0.0,0,0
1678293342.21959186,33233368,0.0,0.0,0.5,0.5,0.0,-0.21580913662910461,-0.06539779901504517,0.0,0.0,0.0,0,0
1678293342.31955194,33333328,0.0,0.0,0.5,0.5,0.0,-0.19809533655643463,-0.1628304421901703,0.0,0.0,0.0,0,2
1678293342.41951203,33433288,0.0,0.0,0.5,0.5,0.0,-0.18054255843162537,-0.15156887471675873,0.0,0.0,0.0,0,3
1678293342.51947188,33533248,0.0,0.0,0.5,0.5,0.0,-0.16551421582698822,-0.22555245459079742,0.0,0.0,0.0,0,4
1678293342.61943197,33633208,0.0,0.0,0.5,0.5,0.0,-0.15559150278568268,-0.05366230756044388,0.0,0.0,0.0,0,4
1678293342.71939182,33733168,0.0,0.0,0.5,0.5,0.0,-0.14459094405174255,-0.21946628391742706,0.0,0.0,0.0,0,5
1678293342.81935191,33833128,0.0,0.0,0.5,0.5,0.0,-0.13611941039562225,-0.022472497075796127,0.0,0.0,0.0,0,5
1678293342.91931200,33933088,0.0,0.0,0.5,0.5,0.0,-0.12558618187904358,-0.38422393798828125,0.0,0.0,0.0,0,5
1678293343.01927185,34033048,0.0,0.0,0.5,0.5,0.0,-0.12457726150751114,-0.15186303853988647,0.0,0.0,0.0,0,3
1678293343.12006497,34133841,0.0,0.0,0.5,0.5,0.0,-0.12969911098480225,-0.03804248943924904,0.0,0.0,0.0,0,3
1678293343.22002482,34233801,0.0,0.0,0.5,0.5,0.0,-0.1290569007396698,-0.13043805956840515,0.0,0.0,0.0,0,3
1678293343.31998491,34333761,0.0,0.0,0.5,0.5,0.0,-0.12543635070323944,-0.2179308831691742,0.0,0.0,0.0,0,3
1678293343.41994500,34433721,0.0,0.0,0.5,0.5,0.0,-0.12522894144058228,-0.1466362476348877,0.0,0.0,0.0,0,3
1678293343.51990485,34533681,0.0,0.0,0.5,0.5,0.0,-0.12662895023822784,0.010259885340929031,0.0,0.0,0.0,0,2
1678293343.61986494,34633641,0.0,0.0,0.5,0.5,0.0,-0.12153466045856476,-0.04350167512893677,0.0,0.0,0.0,0,3
1678293343.71982503,34733601,0.0,0.0,0.5,0.5,0.0,-0.1107654869556427,-0.2364373356103897,0.0,0.0,0.0,0,3
1678293343.81978488,34833561,0.0,0.0,0.5,0.5,0.0,-0.10506630688905716,-0.26330915093421936,0.0,0.0,0.0,0,4
1678293343.91974497,34933521,0.0,0.0,0.5,0.5,0.0,-0.10847604274749756,-0.356847882270813,0.0,0.0,0.0,0,3
1678293344.01970482,35033481,0.0,0.0,0.5,0.5,0.0,-0.12258687615394592,-0.11482422053813934,0.0,0.0,0.0,0,2
1678293344.11966491,35133441,0.0,0.0,0.5,0.5,0.0,-0.13640832901000977,-0.20180922746658325,0.0,0.0,0.0,0,0
1678293344.21962500,35233401,0.0,0.0,0.5,0.5,0.0,-0.14772099256515503,-0.145210862159729,0.0,0.0,0.0,0,0
1678293344.31958485,35333361,0.0,0.0,0.5,0.5,0.0,-0.15643297135829926,-0.18655771017074585,0.0,0.0,0.0,0,0
1678293344.41954494,35433321,0.0,0.0,0.5,0.5,0.0,-0.163392573595047,-0.05862324684858322,0.0,0.0,0.0,0,0
1678293344.51950502,35533281,0.0,0.0,0.5,0.5,0.0,-0.16473916172981262,-0.3958709239959717,0.0,0.0,0.0,0,0
1678293344.61946487,35633241,0.0,0.0,0.5,0.5,0.0,-0.1725168377161026,-0.0875047817826271,0.0,0.0,0.0,0,-1
1678293344.71942496,35733201,0.0,0.0,0.5,0.5,0.0,-0.1797809600830078,-0.35151228308677673,0.0,0.0,0.0,0,-1
1678293344.81938505,35833161,0.0,0.0,0.5,0.5,0.0,-0.19016939401626587,-0.18719308078289032,0.0,0.0,0.0,0,-2
1678293344.91934490,35933121,0.0,0.0,0.5,0.5,0.0,-0.20155975222587585,-0.3574039340019226,0.0,0.0,0.0,0,-2
1678293345.01930499,36033081,0.0,0.0,0.5,0.5,0.0,-0.21640144288539886,-0.2504017949104309,0.0,0.0,0.0,0,-3
1678293345.11926484,36133041,0.0,0.0,0.5,0.5,0.0,-0.2325507551431656,-0.22558793425559998,0.0,0.0,0.0,0,-4
1678293345.22005796,36233834,0.0,0.0,0.5,0.5,0.0,-0.24580815434455872,-0.1170862540602684,0.0,0.0,0.0,0,-5
1678293345.32001805,36333794,0.0,0.0,0.5,0.5,0.0,-0.25150060653686523,-0.04142378643155098,0.0,0.0,0.0,0,-5
1678293345.41997790,36433754,0.0,0.0,0.5,0.5,0.0,-0.24629820883274078,-0.06021285057067871,0.0,0.0,0.0,0,-4
1678293345.51993799,36533714,0.0,0.0,0.5,0.5,0.0,-0.2325536161661148,-0.08213409036397934,0.0,0.0,0.0,0,-2
1678293345.61989784,36633674,0.0,0.0,0.5,0.5,0.0,-0.21444015204906464,-0.12512993812561035,0.0,0.0,0.0,0,-1
1678293345.71985793,36733634,0.0,0.0,0.5,0.5,0.0,-0.19601953029632568,-0.1489911526441574,0.0,0.0,0.0,0,0
1678293345.81981802,36833594,0.0,0.0,0.5,0.5,0.0,-0.17992465198040009,-0.1433848887681961,0.0,0.0,0.0,0,1
1678293345.91977787,36933554,0.0,0.0,0.5,0.5,0.0,-0.16636495292186737,-0.12380779534578323,0.0,0.0,0.0,0,2
1678293346.01973796,37033514,0.0,0.0,0.5,0.5,0.0,-0.15420421957969666,-0.09958545863628387,0.0,0.0,0.0,0,2
1678293346.11969805,37133474,0.0,0.0,0.5,0.5,0.0,-0.14209116995334625,-0.2774741053581238,0.0,0.0,0.0,0,3
1678293346.21965790,37233434,0.0,0.0,0.5,0.5,0.0,-0.13688114285469055,-0.2482437789440155,0.0,0.0,0.0,0,3
1678293346.31961799,37333394,0.0,0.0,0.5,0.5,0.0,-0.13945846259593964,-0.10660236328840256,0.0,0.0,0.0,0,2
1678293346.41957784,37433354,0.0,0.0,0.5,0.5,0.0,-0.14132605493068695,-0.08933833241462708,0.0,0.0,0.0,0,2
1678293346.51953793,37533314,0.0,0.0,0.5,0.5,0.0,-0.13886873424053192,-0.130123570561409,0.0,0.0,0.0,0,2
1678293346.61949801,37633274,0.0,0.0,0.5,0.5,0.0,-0.1346224546432495,-0.2835797965526581,0.0,0.0,0.0,0,2
1678293346.71945786,37733234,0.0,0.0,0.5,0.5,0.0,-0.1361781507730484,-0.39820313453674316,0.0,0.0,0.0,0,2
1678293346.81941795,37833194,0.0,0.0,0.5,0.5,0.0,-0.1496599018573761,-0.23781289160251617,0.0,0.0,0.0,0,1
1678293346.91937804,37933154,0.0,0.0,0.5,0.5,0.0,-0.16737660765647888,-0.40043607354164124,0.0,0.0,0.0,0,0
1678293347.01933789,38033114,0.0,0.0,0.5,0.5,0.0,-0.1903715431690216,-0.3442035913467407,0.0,0.0,0.0,0,-1
1678293347.11929798,38133074,0.0,0.0,0.5,0.5,0.0,-0.21752721071243286,-0.1555863320827484,0.0,0.0,0.0,0,-3
1678293347.21925783,38233034,0.0,0.0,0.5,0.5,0.0,-0.23803570866584778,-0.27367666363716125,0.0,0.0,0.0,0,-4
1678293347.32005095,38333827,0.0,0.0,0.5,0.5,0.0,-0.2547585070133209,-0.33257532119750977,0.0,0.0,0.0,0,-5
1678293347.42001104,38433787,0.0,0.0,0.5,0.5,0.0,-0.27107182145118713,-0.2462950348854065,0.0,0.0,0.0,0,-6
1678293347.51997089,38533747,0.0,0.0,0.5,0.5,0.0,-0.284392386674881,-0.13101203739643097,0.0,0.0,0.0,0,-6
1678293347.61993098,38633707,0.0,0.0,0.5,0.5,0.0,-0.28852948546409607,-0.18662308156490326,0.0,0.0,0.0,0,-6
1678293347.71989083,38733667,0.0,0.0,0.5,0.5,0.0,-0.2868196666240692,-0.12170280516147614,0.0,0.0,0.0,0,-5
1678293347.81985092,38833627,0.0,0.0,0.5,0.5,0.0,-0.2787224352359772,-0.2995236814022064,0.0,0.0,0.0,0,-4
1678293347.91981101,38933587,0.0,0.0,0.5,0.5,0.0,-0.2736104428768158,-0.2833908498287201,0.0,0.0,0.0,0,-4
1678293348.01977086,39033547,0.0,0.0,0.5,0.5,0.0,-0.2725280225276947,-0.07272481173276901,0.0,0.0,0.0,0,-3
1678293348.11973095,39133507,0.0,0.0,0.5,0.5,0.0,-0.2643853425979614,-0.08537348359823227,0.0,0.0,0.0,0,-2
1678293348.21969104,39233467,0.0,0.0,0.5,0.5,0.0,-0.24902848899364471,-0.20542609691619873,0.0,0.0,0.0,0,-1
1678293348.31965089,39333427,0.0,0.0,0.5,0.5,0.0,-0.23469935357570648,-0.3112535774707794,0.0,0.0,0.0,0,0
1678293348.41961098,39433387,0.0,0.0,0.5,0.5,0.0,-0.22817306220531464,-0.31803491711616516,0.0,0.0,0.0,0,0
1678293348.51957083,39533347,0.0,0.0,0.5,0.5,0.0,-0.2292487621307373,-0.11205197870731354,0.0,0.0,0.0,0,0
1678293348.61953092,39633307,0.0,0.0,0.5,0.5,0.0,-0.22625191509723663,-0.1211647018790245,0.0,0.0,0.0,0,0
1678293348.71949100,39733267,0.0,0.0,0.5,0.5,0.0,-0.217897430062294,-0.16338568925857544,0.0,0.0,0.0,0,0
1678293348.81945086,39833227,0.0,0.0,0.5,0.5,0.0,-0.20803110301494598,-0.32137396931648254,0.0,0.0,0.0,0,1
1678293348.91941094,39933187,0.0,0.0,0.5,0.5,0.0,-0.20532386004924774,-0.1306230127811432,0.0,0.0,0.0,0,1
1678293349.01937103,40033147,0.0,0.0,0.5,0.5,0.0,-0.20125649869441986,-0.1097620353102684,0.0,0.0,0.0,0,1
1678293349.11933088,40133107,0.0,0.0,0.5,0.5,0.0,-0.1927475929260254,-0.2230568379163742,0.0,0.0,0.0,0,1
1678293349.21929097,40233067,0.0,0.0,0.5,0.5,0.0,-0.18626505136489868,-0.005518176127225161,0.0,0.0,0.0,0,2
1678293349.31925082,40333027,0.0,0.0,0.5,0.5,0.0,-0.1730511486530304,-0.26245734095573425,0.0,0.0,0.0,0,3
1678293349.42004395,40433820,0.0,0.0,0.5,0.5,0.0,-0.1642862856388092,-0.27588728070259094,0.0,0.0,0.0,0,3
1678293349.52000403,40533780,0.0,0.0,0.5,0.5,0.0,-0.1638244390487671,-0.18111726641654968,0.0,0.0,0.0,0,2
1678293349.61996388,40633740,0.0,0.0,0.5,0.5,0.0,-0.1652432382106781,-0.2824772894382477,0.0,0.0,0.0,0,2
1678293349.71992397,40733700,0.0,0.0,0.5,0.5,0.0,-0.17103825509548187,-0.3039010763168335,0.0,0.0,0.0,0,1
1678293349.81988382,40833660,0.0,0.0,0.5,0.5,0.0,-0.18214638531208038,0.013068797998130322,0.0,0.0,0.0,0,0
1678293349.91984391,40933620,0.0,0.0,0.5,0.5,0.0,-0.18232496082782745,-0.19299905002117157,0.0,0.0,0.0,0,0
1678293350.01980400,41033580,0.0,0.0,0.5,0.5,0.0,-0.1797311007976532,-0.021271923556923866,0.0,0.0,0.0,0,0
1678293350.11976385,41133540,0.0,0.0,0.5,0.5,0.0,-0.1702105849981308,-0.17831553518772125,0.0,0.0,0.0,0,1
1678293350.21972394,41233500,0.0,0.0,0.5,0.5,0.0,-0.1610061228275299,-0.1496647745370865,0.0,0.0,0.0,0,2
1678293350.31968403,41333460,0.0,0.0,0.5,0.5,0.0,-0.1533246487379074,-0.3108876645565033,0.0,0.0,0.0,0,2
1678293350.41964388,41433420,0.0,0.0,0.5,0.5,0.0,-0.15410587191581726,-0.14928212761878967,0.0,0.0,0.0,0,2
1678293350.51960397,41533380,0.0,0.0,0.5,0.5,0.0,-0.15576735138893127,-0.04897361248731613,0.0,0.0,0.0,0,2
1678293350.61956382,41633340,0.0,0.0,0.5,0.5,0.0,-0.15114417672157288,-0.3375442326068878,0.0,0.0,0.0,0,2
1678293350.71952391,41733300,0.0,0.0,0.5,0.5,0.0,-0.15406665205955505,-0.11958745121955872,0.0,0.0,0.0,0,1
1678293350.81948400,41833260,0.0,0.0,0.5,0.5,0.0,-0.15630294382572174,-0.3551076352596283,0.0,0.0,0.0,0,1
1678293350.91944385,41933220,0.0,0.0,0.5,0.5,0.0,-0.1657935082912445,-0.02002989500761032,0.0,0.0,0.0,0,0
1678293351.01940393,42033180,0.0,0.0,0.5,0.5,0.0,-0.16802391409873962,-0.4022153913974762,0.0,0.0,0.0,0,0
1678293351.11936402,42133140,0.0,0.0,0.5,0.5,0.0,-0.1778636872768402,-0.34098413586616516,0.0,0.0,0.0,0,0
1678293351.21932387,42233100,0.0,0.0,0.5,0.5,0.0,-0.19527298212051392,-0.369916707277298,0.0,0.0,0.0,0,-1
1678293351.31928396,42333060,0.0,0.0,0.5,0.5,0.0,-0.21793851256370544,-0.12084940820932388,0.0,0.0,0.0,0,-3
1678293351.41924405,42433020,0.0,0.0,0.5,0.5,0.0,-0.2325311005115509,-0.16791413724422455,0.0,0.0,0.0,0,-3
1678293351.52003694,42533813,0.0,0.0,0.5,0.5,0.0,-0.2395036220550537,-0.33092355728149414,0.0,0.0,0.0,0,-3
1678293351.61999702,42633773,0.0,0.0,0.5,0.5,0.0,-0.24874398112297058,-0.2653603255748749,0.0,0.0,0.0,0,-4
1678293351.71995687,42733733,0.0,0.0,0.5,0.5,0.0,-0.25854694843292236,-0.1345236748456955,0.0,0.0,0.0,0,-4
1678293351.81991696,42833693,0.0,0.0,0.5,0.5,0.0,-0.2615053951740265,-0.12803252041339874,0.0,0.0,0.0,0,-4
1678293351.91987705,42933653,0.0,0.0,0.5,0.5,0.0,-0.2572905421257019,-0.09018773585557938,0.0,0.0,0.0,0,-3
1678293352.01983690,43033613,0.0,0.0,0.5,0.5,0.0,-0.2462664693593979,-0.22822225093841553,0.0,0.0,0.0,0,-2
1678293352.11979699,43133573,0.0,0.0,0.5,0.5,0.0,-0.23654824495315552,-0.01567203365266323,0.0,0.0,0.0,0,-1
1678293352.21975684,43233533,0.0,0.0,0.5,0.5,0.0,-0.22032290697097778,-0.13398995995521545,0.0,0.0,0.0,0,0
1678293352.31971693,43333493,0.0,0.0,0.5,0.5,0.0,-0.20250411331653595,-0.232565775513649,0.0,0.0,0.0,0,0
1678293352.41967702,43433453,0.0,0.0,0.5,0.5,0.0,-0.1902906745672226,-0.17293526232242584,0.0,0.0,0.0,0,1
1678293352.51963687,43533413,0.0,0.0,0.5,0.5,0.0,-0.18119555711746216,-0.16468071937561035,0.0,0.0,0.0,0,2
1678293352.61959696,43633373,0.0,0.0,0.5,0.5,0.0,-0.17344212532043457,-0.09404217451810837,0.0,0.0,0.0,0,2
1678293352.71955705,43733333,0.0,0.0,0.5,0.5,0.0,-0.1635880470275879,-0.143698588013649,0.0,0.0,0.0,0,2
1678293352.81951690,43833293,0.0,0.0,0.5,0.5,0.0,-0.1538480520248413,-0.3222452998161316,0.0,0.0,0.0,0,3
1678293352.91947699,43933253,0.0,0.0,0.5,0.5,0.0,-0.15334591269493103,-0.1115621030330658,0.0,0.0,0.0,0,3
1678293353.01943684,44033213,0.0,0.0,0.5,0.5,0.0,-0.15236349403858185,-0.40333306789398193,0.0,0.0,0.0,0,2
1678293353.11939692,44133173,0.0,0.0,0.5,0.5,0.0,-0.1614094078540802,-0.343650758266449,0.0,0.0,0.0,0,1
1678293353.21935701,44233133,0.0,0.0,0.5,0.5,0.0,-0.17856083810329437,-0.35735809803009033,0.0,0.0,0.0,0,0
1678293353.31931686,44333093,0.0,0.0,0.5,0.5,0.0,-0.20063543319702148,-0.3223329782485962,0.0,0.0,0.0,0,-1
1678293353.41927695,44433053,0.0,0.0,0.5,0.5,0.0,-0.2240019142627716,-0.2856062650680542,0.0,0.0,0.0,0,-2
1678293353.51923704,44533013,0.0,0.0,0.5,0.5,0.0,-0.24524110555648804,-0.18937937915325165,0.0,0.0,0.0,0,-4
1678293353.62002993,44633806,0.0,0.0,0.5,0.5,0.0,-0.2594180405139923,-0.24120336771011353,0.0,0.0,0.0,0,-4
1678293353.71999002,44733766,0.0,0.0,0.5,0.5,0.0,-0.26904597878456116,0.0055524553172290325,0.0,0.0,0.0,0,-4
1678293353.81994987,44833726,0.0,0.0,0.5,0.5,0.0,-0.26621773838996887,-0.14926499128341675,0.0,0.0,0.0,0,-4
1678293353.91990995,44933686,0.0,0.0,0.5,0.5,0.0,-0.25540676712989807,-0.17458386719226837,0.0,0.0,0.0,0,-2
1678293354.01987004,45033646,0.0,0.0,0.5,0.5,0.0,-0.24352601170539856,-0.2086838334798813,0.0,0.0,0.0,0,-1
1678293354.11982989,45133606,0.0,0.0,0.5,0.5,0.0,-0.23318986594676971,-0.37814053893089294,0.0,0.0,0.0,0,0
1678293354.21978998,45233566,0.0,0.0,0.5,0.5,0.0,-0.231453076004982,-0.14481225609779358,0.0,0.0,0.0,0,0
1678293354.31974983,45333526,0.0,0.0,0.5,0.5,0.0,-0.23055508732795715,-0.20443518459796906,0.0,0.0,0.0,0,0
1678293354.41970992,45433486,0.0,0.0,0.5,0.5,0.0,-0.22769922018051147,0.0029918686486780643,0.0,0.0,0.0,0,0
1678293354.51967001,45533446,0.0,0.0,0.5,0.5,0.0,-0.21690404415130615,-0.19339843094348907,0.0,0.0,0.0,0,0
1678293354.61962986,45633406,0.0,0.0,0.5,0.5,0.0,-0.2039448320865631,-0.30304768681526184,0.0,0.0,0.0,0,1
1678293354.71958995,45733366,0.0,0.0,0.5,0.5,0.0,-0.19803486764431,-0.3588675856590271,0.0,0.0,0.0,0,1
1678293354.81955004,45833326,0.0,0.0,0.5,0.5,0.0,-0.20169764757156372,-0.0032099010422825813,0.0,0.0,0.0,0,0
1678293354.91950989,45933286,0.0,0.0,0.5,0.5,0.0,-0.19988791644573212,-0.20291294157505035,0.0,0.0,0.0,0,0
1678293355.01946998,46033246,0.0,0.0,0.5,0.5,0.0,-0.19443149864673615,-0.21244139969348907,0.0,0.0,0.0,0,1
1678293355.11942983,46133206,0.0,0.0,0.5,0.5,0.0,-0.19095420837402344,-0.05107063055038452,0.0,0.0,0.0,0,1
1678293355.21938992,46233166,0.0,0.0,0.5,0.5,0.0,-0.18321678042411804,-0.053988758474588394,0.0,0.0,0.0,0,1
1678293355.31935000,46333126,0.0,0.0,0.5,0.5,0.0,-0.1696225106716156,-0.3463321030139923,0.0,0.0,0.0,0,2
1678293355.41930985,46433086,0.0,0.0,0.5,0.5,0.0,-0.16322864592075348,-0.3384530544281006,0.0,0.0,0.0,0,3
1678293355.51926994,46533046,0.0,0.0,0.5,0.5,0.0,-0.16788218915462494,-0.07929009944200516,0.0,0.0,0.0,0,2
1678293355.62006283,46633839,0.0,0.0,0.5,0.5,0.0,-0.17048504948616028,-0.11180763691663742,0.0,0.0,0.0,0,2
1678293355.72002292,46733799,0.0,0.0,0.5,0.5,0.0,-0.1675672084093094,-0.22931520640850067,0.0,0.0,0.0,0,2
1678293355.81998301,46833759,0.0,0.0,0.5,0.5,0.0,-0.16577717661857605,-0.028366947546601295,0.0,0.0,0.0,0,2
1678293355.91994286,46933719,0.0,0.0,0.5,0.5,0.0,-0.15984699130058289,-0.3494563102722168,0.0,0.0,0.0,0,2
1678293356.01990294,47033679,0.0,0.0,0.5,0.5,0.0,-0.15904876589775085,-0.284384161233902,0.0,0.0,0.0,0,2
1678293356.11986303,47133639,0.0,0.0,0.5,0.5,0.0,-0.16603343188762665,-0.23583586513996124,0.0,0.0,0.0,0,1
1678293356.21982288,47233599,0.0,0.0,0.5,0.5,0.0,-0.1752558797597885,-0.07434869557619095,0.0,0.0,0.0,0,0
1678293356.31978297,47333559,0.0,0.0,0.5,0.5,0.0,-0.1788133829832077,-0.3903180658817291,0.0,0.0,0.0,0,0
1678293356.41974282,47433519,0.0,0.0,0.5,0.5,0.0,-0.1866089254617691,-0.4125286936759949,0.0,0.0,0.0,0,0
1678293356.51970291,47533479,0.0,0.0,0.5,0.5,0.0,-0.20430587232112885,-0.2891175150871277,0.0,0.0,0.0,0,-1
1678293356.61966300,47633439,0.0,0.0,0.5,0.5,0.0,-0.22437112033367157,-0.1440935879945755,0.0,0.0,0.0,0,-2
1678293356.71962285,47733399,0.0,0.0,0.5,0.5,0.0,-0.23752480745315552,-0.3697799742221832,0.0,0.0,0.0,0,-3
1678293356.81958294,47833359,0.0,0.0,0.5,0.5,0.0,-0.25067567825317383,-0.06629025936126709,0.0,0.0,0.0,0,-3
1678293356.91954303,47933319,0.0,0.0,0.5,0.5,0.0,-0.25664040446281433,-0.23848094046115875,0.0,0.0,0.0,0,-3
1678293357.01950288,48033279,0.0,0.0,0.5,0.5,0.0,-0.2575630247592926,-0.24420878291130066,0.0,0.0,0.0,0,-3
1678293357.11946297,48133239,0.0,0.0,0.5,0.5,0.0,-0.25847122073173523,-0.3158067464828491,0.0,0.0,0.0,0,-3
1678293357.21942282,48233199,0.0,0.0,0.5,0.5,0.0,-0.2620934844017029,-0.3876454830169678,0.0,0.0,0.0,0,-3
1678293357.31938291,48333159,0.0,0.0,0.5,0.5,0.0,-0.27154436707496643,-0.020144689828157425,0.0,0.0,0.0,0,-3
1678293357.41934299,48433119,0.0,0.0,0.5,0.5,0.0,-0.27268558740615845,-0.25527623295783997,0.0,0.0,0.0,0,-3
1678293357.51930285,48533079,0.0,0.0,0.5,0.5,0.0,-0.26914292573928833,-0.3537902534008026,0.0,0.0,0.0,0,-2
1678293357.61926293,48633039,0.0,0.0,0.5,0.5,0.0,-0.2705939710140228,-0.13642218708992004,0.0,0.0,0.0,0,-2
1678293357.72005582,48733832,0.0,0.0,0.5,0.5,0.0,-0.2695516049861908,-0.032687339931726456,0.0,0.0,0.0,0,-2
1678293357.82001591,48833792,0.0,0.0,0.5,0.5,0.0,-0.2585253417491913,-0.0714668333530426,0.0,0.0,0.0,0,-1
1678293357.91997600,48933752,0.0,0.0,0.5,0.5,0.0,-0.24012769758701324,-0.3553977906703949,0.0,0.0,0.0,0,0
1678293358.01993585,49033712,0.0,0.0,0.5,0.5,0.0,-0.22823356091976166,-0.06822903454303741,0.0,0.0,0.0,0,0
1678293358.11989594,49133672,0.0,0.0,0.5,0.5,0.0,-0.2165529727935791,-0.037398356944322586,0.0,0.0,0.0,0,1
1678293358.21985602,49233632,0.0,0.0,0.5,0.5,0.0,-0.19859780371189117,-0.3595563471317291,0.0,0.0,0.0,0,2
1678293358.31981587,49333592,0.0,0.0,0.5,0.5,0.0,-0.1879589557647705,-0.017853157594799995,0.0,0.0,0.0,0,2
1678293358.41977596,49433552,0.0,0.0,0.5,0.5,0.0,-0.17677612602710724,-0.23649592697620392,0.0,0.0,0.0,0,3
1678293358.51973605,49533512,0.0,0.0,0.5,0.5,0.0,-0.16686254739761353,-0.13828444480895996,0.0,0.0,0.0,0,3
1678293358.61969590,49633472,0.0,0.0,0.5,0.5,0.0,-0.15890252590179443,-0.3647875487804413,0.0,0.0,0.0,0,4
1678293358.71965599,49733432,0.0,0.0,0.5,0.5,0.0,-0.15899720788002014,-0.3352288007736206,0.0,0.0,0.0,0,3
1678293358.81961584,49833392,0.0,0.0,0.5,0.5,0.0,-0.16822688281536102,-0.20417331159114838,0.0,0.0,0.0,0,2
1678293358.91957593,49933352,0.0,0.0,0.5,0.5,0.0,-0.17828507721424103,-0.05159717798233032,0.0,0.0,0.0,0,1
1678293359.01953602,50033312,0.0,0.0,0.5,0.5,0.0,-0.18039202690124512,-0.05329679697751999,0.0,0.0,0.0,0,1
1678293359.11949587,50133272,0.0,0.0,0.5,0.5,0.0,-0.17380912601947784,-0.21272441744804382,0.0,0.0,0.0,0,2
1678293359.21945596,50233232,0.0,0.0,0.5,0.5,0.0,-0.16714122891426086,-0.2552395462989807,0.0,0.0,0.0,0,2
1678293359.31941605,50333192,0.0,0.0,0.5,0.5,0.0,-0.1654515266418457,-0.3330731689929962,0.0,0.0,0.0,0,2
1678293359.41937590,50433152,0.0,0.0,0.5,0.5,0.0,-0.1711053103208542,-0.1467701643705368,0.0,0.0,0.0,0,2
1678293359.51933599,50533112,0.0,0.0,0.5,0.5,0.0,-0.17659439146518707,-0.15905891358852386,0.0,0.0,0.0,0,1
1678293359.61929584,50633072,0.0,0.0,0.5,0.5,0.0,-0.1785220056772232,-0.040811941027641296,0.0,0.0,0.0,0,1
1678293359.71925592,50733032,0.0,0.0,0.5,0.5,0.0,-0.1738162636756897,-0.23543646931648254,0.0,0.0,0.0,0,1
1678293359.82004905,50833825,0.0,0.0,0.5,0.5,0.0,-0.16929008066654205,-0.417673796415329,0.0,0.0,0.0,0,2
1678293359.92000890,50933785,0.0,0.0,0.5,0.5,0.0,-0.1756574958562851,-0.0896715596318245,0.0,0.0,0.0,0,1
1678293360.01996899,51033745,0.0,0.0,0.5,0.5,0.0,-0.18122225999832153,-0.0687790960073471,0.0,0.0,0.0,0,1
1678293360.11992884,51133705,0.0,0.0,0.5,0.5,0.0,-0.1788017749786377,-0.3670053482055664,0.0,0.0,0.0,0,1
1678293360.21988893,51233665,0.0,0.0,0.5,0.5,0.0,-0.1812269240617752,-0.017692523077130318,0.0,0.0,0.0,0,1
1678293360.31984901,51333625,0.0,0.0,0.5,0.5,0.0,-0.180220827460289,-0.09612125158309937,0.0,0.0,0.0,0,1
1678293360.41980886,51433585,0.0,0.0,0.5,0.5,0.0,-0.1728145331144333,-0.03736048936843872,0.0,0.0,0.0,0,1
1678293360.51976895,51533545,0.0,0.0,0.5,0.5,0.0,-0.1605626791715622,-0.03460020571947098,0.0,0.0,0.0,0,2
1678293360.61972904,51633505,0.0,0.0,0.5,0.5,0.0,-0.14407290518283844,-0.010905612260103226,0.0,0.0,0.0,0,3
1678293360.71968889,51733465,0.0,0.0,0.5,0.5,0.0,-0.12433278560638428,-0.1502566933631897,0.0,0.0,0.0,0,4
1678293360.81964898,51833425,0.0,0.0,0.5,0.5,0.0,-0.10760978609323502,-0.28574976325035095,0.0,0.0,0.0,0,5
1678293360.91960883,51933385,0.0,0.0,0.5,0.5,0.0,-0.1014021635055542,-0.23150630295276642,0.0,0.0,0.0,0,5
1678293361.01956892,52033345,0.0,0.0,0.5,0.5,0.0,-0.10363076627254486,-0.0767817273736,0.0,0.0,0.0,0,4
1678293361.11952901,52133305,0.0,0.0,0.5,0.5,0.0,-0.10516157746315002,-0.15387117862701416,0.0,0.0,0.0,0,4
1678293361.21948886,52233265,0.0,0.0,0.5,0.5,0.0,-0.10589610785245895,-0.1301179826259613,0.0,0.0,0.0,0,3
1678293361.31944895,52333225,0.0,0.0,0.5,0.5,0.0,-0.10673932731151581,-0.01898118667304516,0.0,0.0,0.0,0,3
1678293361.41940904,52433185,0.0,0.0,0.5,0.5,0.0,-0.10318252444267273,-0.2907852232456207,0.0,0.0,0.0,0,3
1678293361.51936889,52533145,0.0,0.0,0.5,0.5,0.0,-0.10437280684709549,-0.1544790267944336,0.0,0.0,0.0,0,3
1678293361.61932898,52633105,0.0,0.0,0.5,0.5,0.0,-0.10937922447919846,-0.24010244011878967,0.0,0.0,0.0,0,2
1678293361.71928883,52733065,0.0,0.0,0.5,0.5,0.0,-0.11738774925470352,-0.31834661960601807,0.0,0.0,0.0,0,2
1678293361.81924891,52833025,0.0,0.0,0.5,0.5,0.0,-0.13181890547275543,-0.40704917907714844,0.0,0.0,0.0,0,0
1678293361.92004204,52933818,0.0,0.0,0.5,0.5,0.0,-0.1581689864397049,-0.0310188140720129,0.0,0.0,0.0,0,0
1678293362.02000189,53033778,0.0,0.0,0.5,0.5,0.0,-0.17318034172058105,-0.3288652002811432,0.0,0.0,0.0,0,-1
1678293362.11996198,53133738,0.0,0.0,0.5,0.5,0.0,-0.18892471492290497,-0.2963879108428955,0.0,0.0,0.0,0,-2
1678293362.21992183,53233698,0.0,0.0,0.5,0.5,0.0,-0.20707520842552185,-0.013529575429856777,0.0,0.0,0.0,0,-3
1678293362.31988192,53333658,0.0,0.0,0.5,0.5,0.0,-0.2138904184103012,-0.1537691354751587,0.0,0.0,0.0,0,-3
1678293362.41984200,53433618,0.0,0.0,0.5,0.5,0.0,-0.21474085748195648,-0.39729392528533936,0.0,0.0,0.0,0,-3
1678293362.51980186,53533578,0.0,0.0,0.5,0.5,0.0,-0.22414666414260864,-0.1809227466583252,0.0,0.0,0.0,0,-4
1678293362.61976194,53633538,0.0,0.0,0.5,0.5,0.0,-0.23287741839885712,-0.10009685903787613,0.0,0.0,0.0,0,-4
1678293362.71972203,53733498,0.0,0.0,0.5,0.5,0.0,-0.23450228571891785,-0.23106704652309418,0.0,0.0,0.0,0,-4
1678293362.81968188,53833458,0.0,0.0,0.5,0.5,0.0,-0.23547229170799255,-0.22598373889923096,0.0,0.0,0.0,0,-4
1678293362.91964197,53933418,0.0,0.0,0.5,0.5,0.0,-0.23732641339302063,-0.017713647335767746,0.0,0.0,0.0,0,-4
1678293363.01960182,54033378,0.0,0.0,0.5,0.5,0.0,-0.2307814508676529,-0.08819794654846191,0.0,0.0,0.0,0,-3
1678293363.11956191,54133338,0.0,0.0,0.5,0.5,0.0,-0.218742236495018,-0.20733857154846191,0.0,0.0,0.0,0,-2
1678293363.21952200,54233298,0.0,0.0,0.5,0.5,0.0,-0.20911940932273865,-0.23507055640220642,0.0,0.0,0.0,0,-1
1678293363.31948185,54333258,0.0,0.0,0.5,0.5,0.0,-0.204225555062294,-0.14065688848495483,0.0,0.0,0.0,0,-1
1678293363.41944194,54433218,0.0,0.0,0.5,0.5,0.0,-0.199173241853714,-0.1638125777244568,0.0,0.0,0.0,0,0
1678293363.51940203,54533178,0.0,0.0,0.5,0.5,0.0,-0.1939033418893814,-0.17616350948810577,0.0,0.0,0.0,0,0
1678293363.61936188,54633138,0.0,0.0,0.5,0.5,0.0,-0.18941159546375275,-0.06233537942171097,0.0,0.0,0.0,0,0
1678293363.71932197,54733098,0.0,0.0,0.5,0.5,0.0,-0.18091733753681183,-0.3334363102912903,0.0,0.0,0.0,0,0
1678293363.81928205,54833058,0.0,0.0,0.5,0.5,0.0,-0.17987540364265442,-0.2519304156303406,0.0,0.0,0.0,0,0
1678293363.91924191,54933018,0.0,0.0,0.5,0.5,0.0,-0.18414519727230072,-0.3601949214935303,0.0,0.0,0.0,0,0
1678293364.02003503,55033811,0.0,0.0,0.5,0.5,0.0,-0.19558677077293396,-0.330672025680542,0.0,0.0,0.0,0,0
1678293364.11999488,55133771,0.0,0.0,0.5,0.5,0.0,-0.21178534626960754,-0.4142422676086426,0.0,0.0,0.0,0,-2
1678293364.21995497,55233731,0.0,0.0,0.5,0.5,0.0,-0.23393148183822632,-0.30112722516059875,0.0,0.0,0.0,0,-3
1678293364.31991482,55333691,0.0,0.0,0.5,0.5,0.0,-0.2557153105735779,-0.3020021617412567,0.0,0.0,0.0,0,-4
1678293364.41987491,55433651,0.0,0.0,0.5,0.5,0.0,-0.2750144302845001,-0.15852439403533936,0.0,0.0,0.0,0,-5
1678293364.51983500,55533611,0.0,0.0,0.5,0.5,0.0,-0.2856745421886444,-0.37005820870399475,0.0,0.0,0.0,0,-5
1678293364.61979485,55633571,0.0,0.0,0.5,0.5,0.0,-0.2969145178794861,-0.14913465082645416,0.0,0.0,0.0,0,-6
1678293364.71975493,55733531,0.0,0.0,0.5,0.5,0.0,-0.3014141917228699,-0.29884088039398193,0.0,0.0,0.0,0,-5
1678293364.81971502,55833491,0.0,0.0,0.5,0.5,0.0,-0.30446094274520874,-0.28352081775665283,0.0,0.0,0.0,0,-5
1678293364.91967487,55933451,0.0,0.0,0.5,0.5,0.0,-0.30753976106643677,-0.20102956891059875,0.0,0.0,0.0,0,-5
1678293365.01963496,56033411,0.0,0.0,0.5,0.5,0.0,-0.30678796768188477,-0.24201451241970062,0.0,0.0,0.0,0,-4
1678293365.11959505,56133371,0.0,0.0,0.5,0.5,0.0,-0.303924024105072,-0.2669479548931122,0.0,0.0,0.0,0,-4
1678293365.21955490,56233331,0.0,0.0,0.5,0.5,0.0,-0.3011700212955475,-0.05187579616904259,0.0,0.0,0.0,0,-3
1678293365.31951499,56333291,0.0,0.0,0.5,0.5,0.0,-0.2896839678287506,-0.07867466658353806,0.0,0.0,0.0,0,-2
1678293365.41947484,56433251,0.0,0.0,0.5,0.5,0.0,-0.2707100510597229,-0.12209662050008774,0.0,0.0,0.0,0,-1
1678293365.51943493,56533211,0.0,0.0,0.5,0.5,0.0,-0.24919040501117706,-0.19282126426696777,0.0,0.0,0.0,0,0
1678293365.61939502,56633171,0.0,0.0,0.5,0.5,0.0,-0.23013371229171753,-0.29090920090675354,0.0,0.0,0.0,0,1
1678293365.71935487,56733131,0.0,0.0,0.5,0.5,0.0,-0.21857741475105286,-0.03957589343190193,0.0,0.0,0.0,0,2
1678293365.81931496,56833091,0.0,0.0,0.5,0.5,0.0,-0.20329052209854126,-0.13543327152729034,0.0,0.0,0.0,0,2
1678293365.91927505,56933051,0.0,0.0,0.5,0.5,0.0,-0.1867290437221527,-0.38727638125419617,0.0,0.0,0.0,0,3
1678293366.02006793,57033844,0.0,0.0,0.5,0.5,0.0,-0.181620255112648,-0.337492436170578,0.0,0.0,0.0,0,3
1678293366.12002802,57133804,0.0,0.0,0.5,0.5,0.0,-0.18608883023262024,-0.07774952054023743,0.0,0.0,0.0,0,3
1678293366.21998787,57233764,0.0,0.0,0.5,0.5,0.0,-0.18633893132209778,-0.19256217777729034,0.0,0.0,0.0,0,2
1678293366.31994796,57333724,0.0,0.0,0.5,0.5,0.0,-0.18345864117145538,-0.40985730290412903,0.0,0.0,0.0,0,2
1678293366.41990805,57433684,0.0,0.0,0.5,0.5,0.0,-0.18856868147850037,-0.3352499306201935,0.0,0.0,0.0,0,2
1678293366.51986790,57533644,0.0,0.0,0.5,0.5,0.0,-0.2007797509431839,-0.2698560953140259,0.0,0.0,0.0,0,1
1678293366.61982799,57633604,0.0,0.0,0.5,0.5,0.0,-0.21379733085632324,-0.14521045982837677,0.0,0.0,0.0,0,0
1678293366.71978784,57733564,0.0,0.0,0.5,0.5,0.0,-0.2211436778306961,-0.3426989018917084,0.0,0.0,0.0,0,0
1678293366.81974792,57833524,0.0,0.0,0.5,0.5,0.0,-0.22887484729290009,-0.3135283887386322,0.0,0.0,0.0,0,0
1678293366.91970801,57933484,0.0,0.0,0.5,0.5,0.0,-0.23941580951213837,-0.3397839665412903,0.0,0.0,0.0,0,0
1678293367.01966786,58033444,0.0,0.0,0.5,0.5,0.0,-0.2519981265068054,-0.23981265723705292,0.0,0.0,0.0,0,-1
1678293367.11962795,58133404,0.0,0.0,0.5,0.5,0.0,-0.2624967396259308,-0.17017298936843872,0.0,0.0,0.0,0,-2
1678293367.21958804,58233364,0.0,0.0,0.5,0.5,0.0,-0.2667069435119629,-0.3433956503868103,0.0,0.0,0.0,0,-2
1678293367.31954789,58333324,0.0,0.0,0.5,0.5,0.0,-0.2711244821548462,-0.29806920886039734,0.0,0.0,0.0,0,-2
1678293367.41950798,58433284,0.0,0.0,0.5,0.5,0.0,-0.277289479970932,-0.1295938342809677,0.0,0.0,0.0,0,-2
1678293367.51946783,58533244,0.0,0.0,0.5,0.5,0.0,-0.277555376291275,-0.2576076090335846,0.0,0.0,0.0,0,-2
1678293367.61942792,58633204,0.0,0.0,0.5,0.5,0.0,-0.27491435408592224,-0.12844307720661163,0.0,0.0,0.0,0,-1
1678293367.71938801,58733164,0.0,0.0,0.5,0.5,0.0,-0.26812729239463806,-0.0979420468211174,0.0,0.0,0.0,0,-1
1678293367.81934786,58833124,0.0,0.0,0.5,0.5,0.0,-0.2550355792045593,-0.39651983976364136,0.0,0.0,0.0,0,0
1678293367.91930795,58933084,0.0,0.0,0.5,0.5,0.0,-0.2480160892009735,-0.18736566603183746,0.0,0.0,0.0,0,0
1678293368.01926804,59033044,0.0,0.0,0.5,0.5,0.0,-0.24387507140636444,-0.1793825775384903,0.0,0.0,0.0,0,0
1678293368.12006092,59133837,0.0,0.0,0.5,0.5,0.0,-0.23757433891296387,-0.30236008763313293,0.0,0.0,0.0,0,0
1678293368.22002101,59233797,0.0,0.0,0.5,0.5,0.0,-0.23418128490447998,-0.1363081932067871,0.0,0.0,0.0,0,0
1678293368.31998086,59333757,0.0,0.0,0.5,0.5,0.0,-0.22939804196357727,-0.10711455345153809,0.0,0.0,0.0,0,1
1678293368.41994095,59433717,0.0,0.0,0.5,0.5,0.0,-0.21952059864997864,-0.28645646572113037,0.0,0.0,0.0,0,1
1678293368.51990104,59533677,0.0,0.0,0.5,0.5,0.0,-0.2122320532798767,-0.03243861719965935,0.0,0.0,0.0,0,2
1678293368.61986089,59633637,0.0,0.0,0.5,0.5,0.0,-0.20143477618694305,-0.15430325269699097,0.0,0.0,0.0,0,2
1678293368.71982098,59733597,0.0,0.0,0.5,0.5,0.0,-0.1880093514919281,-0.2954576015472412,0.0,0.0,0.0,0,3
1678293368.81978083,59833557,0.0,0.0,0.5,0.5,0.0,-0.18061906099319458,-0.2728232741355896,0.0,0.0,0.0,0,3
1678293368.91974092,59933517,0.0,0.0,0.5,0.5,0.0,-0.1798165887594223,-0.08171556144952774,0.0,0.0,0.0,0,2
1678293369.01970100,60033477,0.0,0.0,0.5,0.5,0.0,-0.17723944783210754,-0.10613919049501419,0.0,0.0,0.0,0,2
1678293369.11966085,60133437,0.0,0.0,0.5,0.5,0.0,-0.17012222111225128,-0.2913520336151123,0.0,0.0,0.0,0,2
1678293369.21962094,60233397,0.0,0.0,0.5,0.5,0.0,-0.16714805364608765,-0.36131298542022705,0.0,0.0,0.0,0,2
1678293369.31958103,60333357,0.0,0.0,0.5,0.5,0.0,-0.17338086664676666,-0.17119938135147095,0.0,0.0,0.0,0,2
1678293369.41954088,60433317,0.0,0.0,0.5,0.5,0.0,-0.18052972853183746,-0.40836137533187866,0.0,0.0,0.0,0,1
1678293369.51950097,60533277,0.0,0.0,0.5,0.5,0.0,-0.1928933709859848,-0.3080369234085083,0.0,0.0,0.0,0,0
1678293369.61946082,60633237,0.0,0.0,0.5,0.5,0.0,-0.20953461527824402,-0.09087053686380386,0.0,0.0,0.0,0,0
1678293369.71942091,60733197,0.0,0.0,0.5,0.5,0.0,-0.21891921758651733,-0.018010204657912254,0.0,0.0,0.0,0,-1
1678293369.81938100,60833157,0.0,0.0,0.5,0.5,0.0,-0.21598365902900696,-0.04880978912115097,0.0,0.0,0.0,0,0
1678293369.91934085,60933117,0.0,0.0,0.5,0.5,0.0,-0.204082190990448,-0.04234853386878967,0.0,0.0,0.0,0,0
1678293370.01930094,61033077,0.0,0.0,0.5,0.5,0.0,-0.1866329312324524,-0.36410075426101685,0.0,0.0,0.0,0,1
1678293370.11926103,61133037,0.0,0.0,0.5,0.5,0.0,-0.17729584872722626,-0.07138751447200775,0.0,0.0,0.0,0,2
1678293370.22005391,61233830,0.0,0.0,0.5,0.5,0.0,-0.16983909904956818,-0.12248485535383224,0.0,0.0,0.0,0,2
1678293370.32001400,61333790,0.0,0.0,0.5,0.5,0.0,-0.16027392446994781,-0.013044881634414196,0.0,0.0,0.0,0,3
1678293370.41997385,61433750,0.0,0.0,0.5,0.5,0.0,-0.1465626358985901,-0.4042147696018219,0.0,0.0,0.0,0,3
1678293370.51993394,61533710,0.0,0.0,0.5,0.5,0.0,-0.142290860414505,-0.12184072285890579,0.0,0.0,0.0,0,3
1678293370.61989403,61633670,0.0,0.0,0.5,0.5,0.0,-0.14237891137599945,-0.26054686307907104,0.0,0.0,0.0,0,3
1678293370.71985388,61733630,0.0,0.0,0.5,0.5,0.0,-0.14512160420417786,-0.20237962901592255,0.0,0.0,0.0,0,2
1678293370.81981397,61833590,0.0,0.0,0.5,0.5,0.0,-0.15024328231811523,-0.33494898676872253,0.0,0.0,0.0,0,2
1678293370.91977382,61933550,0.0,0.0,0.5,0.5,0.0,-0.16051629185676575,-0.3676183819770813,0.0,0.0,0.0,0,1
1678293371.01973391,62033510,0.0,0.0,0.5,0.5,0.0,-0.1778491735458374,-0.07030811905860901,0.0,0.0,0.0,0,0
1678293371.11969399,62133470,0.0,0.0,0.5,0.5,0.0,-0.18960607051849365,-0.23916374146938324,0.0,0.0,0.0,0,0
1678293371.21965384,62233430,0.0,0.0,0.5,0.5,0.0,-0.19726212322711945,-0.0792354941368103,0.0,0.0,0.0,0,0
1678293371.31961393,62333390,0.0,0.0,0.5,0.5,0.0,-0.19926194846630096,-0.19502511620521545,0.0,0.0,0.0,0,0
1678293371.41957402,62433350,0.0,0.0,0.5,0.5,0.0,-0.1982506662607193,-0.14343670010566711,0.0,0.0,0.0,0,0
1678293371.51953387,62533310,0.0,0.0,0.5,0.5,0.0,-0.19555434584617615,-0.14025989174842834,0.0,0.0,0.0,0,0
1678293371.61949396,62633270,0.0,0.0,0.5,0.5,0.0,-0.19067519903182983,-0.38261958956718445,0.0,0.0,0.0,0,0
1678293371.71945405,62733230,0.0,0.0,0.5,0.5,0.0,-0.19306227564811707,-0.2961989939212799,0.0,0.0,0.0,0,0
1678293371.81941390,62833190,0.0,0.0,0.5,0.5,0.0,-0.20215445756912231,-0.23700055480003357,0.0,0.0,0.0,0,0
1678293371.91937399,62933150,0.0,0.0,0.5,0.5,0.0,-0.21188537776470184,-0.0942641869187355,0.0,0.0,0.0,0,-1
1678293372.01933384,63033110,0.0,0.0,0.5,0.5,0.0,-0.21542514860630035,-0.09805922955274582,0.0,0.0,0.0,0,-1
1678293372.11929393,63133070,0.0,0.0,0.5,0.5,0.0,-0.21178294718265533,-0.03756656497716904,0.0,0.0,0.0,0,0
1678293372.21925402,63233030,0.0,0.0,0.5,0.5,0.0,-0.2010425478219986,-0.07091597467660904,0.0,0.0,0.0,0,0
1678293372.32004690,63333823,0.0,0.0,0.5,0.5,0.0,-0.18566004931926727,-0.04557597264647484,0.0,0.0,0.0,0,1
1678293372.42000699,63433783,0.0,0.0,0.5,0.5,0.0,-0.1672828048467636,-0.2928886413574219,0.0,0.0,0.0,0,2
1678293372.51996684,63533743,0.0,0.0,0.5,0.5,0.0,-0.15582266449928284,-0.07047871500253677,0.0,0.0,0.0,0,2
1678293372.61992693,63633703,0.0,0.0,0.5,0.5,0.0,-0.14653025567531586,-0.2745906412601471,0.0,0.0,0.0,0,3
1678293372.71988702,63733663,0.0,0.0,0.5,0.5,0.0,-0.1421477049589157,-0.06494419276714325,0.0,0.0,0.0,0,3
1678293372.81984687,63833623,0.0,0.0,0.5,0.5,0.0,-0.1378404200077057,-0.18855269253253937,0.0,0.0,0.0,0,3
1678293372.91980696,63933583,0.0,0.0,0.5,0.5,0.0,-0.1341296285390854,-0.20119498670101166,0.0,0.0,0.0,0,3
1678293373.01976705,64033543,0.0,0.0,0.5,0.5,0.0,-0.1338081806898117,-0.31386318802833557,0.0,0.0,0.0,0,3
1678293373.11972690,64133503,0.0,0.0,0.5,0.5,0.0,-0.14023861289024353,-0.3315923810005188,0.0,0.0,0.0,0,2
1678293373.21968699,64233463,0.0,0.0,0.5,0.5,0.0,-0.15408717095851898,-0.36000001430511475,0.0,0.0,0.0,0,1
1678293373.31964684,64333423,0.0,0.0,0.5,0.5,0.0,-0.17410129308700562,-0.41635602712631226,0.0,0.0,0.0,0,0
1678293373.41960692,64433383,0.0,0.0,0.5,0.5,0.0,-0.20038524270057678,-0.17633450031280518,0.0,0.0,0.0,0,-2
1678293373.51956701,64533343,0.0,0.0,0.5,0.5,0.0,-0.22263628244400024,-0.337512344121933,0.0,0.0,0.0,0,-3
1678293373.61952686,64633303,0.0,0.0,0.5,0.5,0.0,-0.24236363172531128,-0.06790656596422195,0.0,0.0,0.0,0,-4
1678293373.71948695,64733263,0.0,0.0,0.5,0.5,0.0,-0.25299665331840515,-0.3530994951725006,0.0,0.0,0.0,0,-4
1678293373.81944704,64833223,0.0,0.0,0.5,0.5,0.0,-0.26181355118751526,-0.17712253332138062,0.0,0.0,0.0,0,-4
1678293373.91940689,64933183,0.0,0.0,0.5,0.5,0.0,-0.26820939779281616,-0.033832110464572906,0.0,0.0,0.0,0,-4
1678293374.01936698,65033143,0.0,0.0,0.5,0.5,0.0,-0.2641395032405853,-0.2876211702823639,0.0,0.0,0.0,0,-3
1678293374.11932683,65133103,0.0,0.0,0.5,0.5,0.0,-0.25901147723197937,-0.2617446482181549,0.0,0.0,0.0,0,-3
1678293374.21928692,65233063,0.0,0.0,0.5,0.5,0.0,-0.2573501169681549,-0.41145169734954834,0.0,0.0,0.0,0,-2
1678293374.31924701,65333023,0.0,0.0,0.5,0.5,0.0,-0.26301631331443787,-0.12575414776802063,0.0,0.0,0.0,0,-3
1678293374.42003989,65433816,0.0,0.0,0.5,0.5,0.0,-0.26600995659828186,-0.027769850566983223,0.0,0.0,0.0,0,-3
1678293374.51999998,65533776,0.0,0.0,0.5,0.5,0.0,-0.2570852041244507,-0.04210977256298065,0.0,0.0,0.0,0,-2
1678293374.61995983,65633736,0.0,0.0,0.5,0.5,0.0,-0.23981373012065887,-0.37739914655685425,0.0,0.0,0.0,0,0
1678293374.71991992,65733696,0.0,0.0,0.5,0.5,0.0,-0.23144744336605072,-0.19008250534534454,0.0,0.0,0.0,0,0
1678293374.81988001,65833656,0.0,0.0,0.5,0.5,0.0,-0.22608084976673126,-0.06650948524475098,0.0,0.0,0.0,0,0
1678293374.91983986,65933616,0.0,0.0,0.5,0.5,0.0,-0.21546530723571777,-0.18011638522148132,0.0,0.0,0.0,0,0
1678293375.01979995,66033576,0.0,0.0,0.5,0.5,0.0,-0.2046418935060501,-0.2702738344669342,0.0,0.0,0.0,0,1
1678293375.11976004,66133536,0.0,0.0,0.5,0.5,0.0,-0.19926093518733978,-0.23827049136161804,0.0,0.0,0.0,0,1
1678293375.21971989,66233496,0.0,0.0,0.5,0.5,0.0,-0.19773417711257935,-0.1636778563261032,0.0,0.0,0.0,0,1
1678293375.31967998,66333456,0.0,0.0,0.5,0.5,0.0,-0.19545404613018036,-0.23650789260864258,0.0,0.0,0.0,0,1
1678293375.41963983,66433416,0.0,0.0,0.5,0.5,0.0,-0.1949751228094101,-0.3051096200942993,0.0,0.0,0.0,0,0
1678293375.51959991,66533376,0.0,0.0,0.5,0.5,0.0,-0.20015349984169006,-0.16148994863033295,0.0,0.0,0.0,0,0
1678293375.61956000,66633336,0.0,0.0,0.5,0.5,0.0,-0.2035263180732727,-0.3422345221042633,0.0,0.0,0.0,0,0
1678293375.71951985,66733296,0.0,0.0,0.5,0.5,0.0,-0.21127592027187347,-0.35676100850105286,0.0,0.0,0.0,0,0
1678293375.81947994,66833256,0.0,0.0,0.5,0.5,0.0,-0.22474883496761322,-0.3226255476474762,0.0,0.0,0.0,0,-1
1678293375.91944003,66933216,0.0,0.0,0.5,0.5,0.0,-0.24054203927516937,-0.16225884854793549,0.0,0.0,0.0,0,-2
1678293376.01939988,67033176,0.0,0.0,0.5,0.5,0.0,-0.2501978278160095,-0.06604472547769547,0.0,0.0,0.0,0,-3
1678293376.11935997,67133136,0.0,0.0,0.5,0.5,0.0,-0.2489774227142334,-0.3751741945743561,0.0,0.0,0.0,0,-2
1678293376.21931982,67233096,0.0,0.0,0.5,0.5,0.0,-0.2518835961818695,-0.32927295565605164,0.0,0.0,0.0,0,-2
1678293376.31927991,67333056,0.0,0.0,0.5,0.5,0.0,-0.2595699429512024,-0.35722655057907104,0.0,0.0,0.0,0,-2
1678293376.41924000,67433016,0.0,0.0,0.5,0.5,0.0,-0.2709960341453552,-0.10495137423276901,0.0,0.0,0.0,0,-3
1678293376.52003288,67533809,0.0,0.0,0.5,0.5,0.0,-0.2744016945362091,-0.0945172980427742,0.0,0.0,0.0,0,-3
1678293376.61999297,67633769,0.0,0.0,0.5,0.5,0.0,-0.26815319061279297,-0.23429608345031738,0.0,0.0,0.0,0,-2
1678293376.71995282,67733729,0.0,0.0,0.5,0.5,0.0,-0.2610112130641937,-0.1587802916765213,0.0,0.0,0.0,0,-1
1678293376.81991291,67833689,0.0,0.0,0.5,0.5,0.0,-0.2520528733730316,-0.30812498927116394,0.0,0.0,0.0,0,-1
1678293376.91987300,67933649,0.0,0.0,0.5,0.5,0.0,-0.24745365977287292,-0.2584347128868103,0.0,0.0,0.0,0,0
1678293377.01983285,68033609,0.0,0.0,0.5,0.5,0.0,-0.24588105082511902,-0.24260403215885162,0.0,0.0,0.0,0,0
1678293377.11979294,68133569,0.0,0.0,0.5,0.5,0.0,-0.24517665803432465,-0.2757370173931122,0.0,0.0,0.0,0,0
1678293377.21975303,68233529,0.0,0.0,0.5,0.5,0.0,-0.2462577223777771,-0.359773188829422,0.0,0.0,0.0,0,0
1678293377.31971288,68333489,0.0,0.0,0.5,0.5,0.0,-0.25247594714164734,-0.18290457129478455,0.0,0.0,0.0,0,-1
1678293377.41967297,68433449,0.0,0.0,0.5,0.5,0.0,-0.2556976079940796,-0.4014158248901367,0.0,0.0,0.0,0,-1
1678293377.51963305,68533409,0.0,0.0,0.5,0.5,0.0,-0.26359549164772034,-0.052175939083099365,0.0,0.0,0.0,0,-1
1678293377.61959291,68633369,0.0,0.0,0.5,0.5,0.0,-0.26251739263534546,-0.20626713335514069,0.0,0.0,0.0,0,-1
1678293377.71955299,68733329,0.0,0.0,0.5,0.5,0.0,-0.25713062286376953,-0.299516499042511,0.0,0.0,0.0,0,0
1678293377.81951284,68833289,0.0,0.0,0.5,0.5,0.0,-0.2547191381454468,-0.12624043226242065,0.0,0.0,0.0,0,0
1678293377.91947293,68933249,0.0,0.0,0.5,0.5,0.0,-0.24838463962078094,-0.14151586592197418,0.0,0.0,0.0,0,0
1678293378.01943302,69033209,0.0,0.0,0.5,0.5,0.0,-0.23791201412677765,-0.2477463334798813,0.0,0.0,0.0,0,0
1678293378.11939287,69133169,0.0,0.0,0.5,0.5,0.0,-0.22952383756637573,-0.3335658609867096,0.0,0.0,0.0,0,1
1678293378.21935296,69233129,0.0,0.0,0.5,0.5,0.0,-0.2278849333524704,-0.37825414538383484,0.0,0.0,0.0,0,1
1678293378.31931305,69333089,0.0,0.0,0.5,0.5,0.0,-0.23405525088310242,-0.27874520421028137,0.0,0.0,0.0,0,0
1678293378.41927290,69433049,0.0,0.0,0.5,0.5,0.0,-0.2419300228357315,-0.41903698444366455,0.0,0.0,0.0,0,0
1678293378.52006602,69533842,0.0,0.0,0.5,0.5,0.0,-0.25536003708839417,-0.03414899483323097,0.0,0.0,0.0,0,0
1678293378.62002587,69633802,0.0,0.0,0.5,0.5,0.0,-0.25777706503868103,-0.33411911129951477,0.0,0.0,0.0,0,0
1678293378.71998596,69733762,0.0,0.0,0.5,0.5,0.0,-0.2599964439868927,-0.18642139434814453,0.0,0.0,0.0,0,0
1678293378.81994605,69833722,0.0,0.0,0.5,0.5,0.0,-0.2595510184764862,-0.21434590220451355,0.0,0.0,0.0,0,0
1678293378.91990590,69933682,0.0,0.0,0.5,0.5,0.0,-0.2565494179725647,-0.10327447205781937,0.0,0.0,0.0,0,0
1678293379.01986599,70033642,0.0,0.0,0.5,0.5,0.0,-0.24750350415706635,-0.039871253073215485,0.0,0.0,0.0,0,0
1678293379.11982584,70133602,0.0,0.0,0.5,0.5,0.0,-0.2304077297449112,-0.2652303874492645,0.0,0.0,0.0,0,1
1678293379.21978593,70233562,0.0,0.0,0.5,0.5,0.0,-0.21687394380569458,-0.3397747874259949,0.0,0.0,0.0,0,2
1678293379.31974602,70333522,0.0,0.0,0.5,0.5,0.0,-0.2123873233795166,-0.3556194305419922,0.0,0.0,0.0,0,2
1678293379.41970587,70433482,0.0,0.0,0.5,0.5,0.0,-0.21614253520965576,-0.2273465394973755,0.0,0.0,0.0,0,1
1678293379.51966596,70533442,0.0,0.0,0.5,0.5,0.0,-0.2204313576221466,-0.33876752853393555,0.0,0.0,0.0,0,1
1678293379.61962605,70633402,0.0,0.0,0.5,0.5,0.0,-0.22799833118915558,-0.11177016794681549,0.0,0.0,0.0,0,0
1678293379.71958590,70733362,0.0,0.0,0.5,0.5,0.0,-0.2294362187385559,-0.17444156110286713,0.0,0.0,0.0,0,0
1678293379.81954598,70833322,0.0,0.0,0.5,0.5,0.0,-0.22622737288475037,-0.3905133903026581,0.0,0.0,0.0,0,1
1678293379.91950583,70933282,0.0,0.0,0.5,0.5,0.0,-0.2297419309616089,-0.20877909660339355,0.0,0.0,0.0,0,0
1678293380.01946592,71033242,0.0,0.0,0.5,0.5,0.0,-0.23301871120929718,-0.19354073703289032,0.0,0.0,0.0,0,0
1678293380.11942601,71133202,0.0,0.0,0.5,0.5,0.0,-0.23309172689914703,-0.40857261419296265,0.0,0.0,0.0,0,0
1678293380.21938586,71233162,0.0,0.0,0.5,0.5,0.0,-0.2397683709859848,-0.40520089864730835,0.0,0.0,0.0,0,0
1678293380.31934595,71333122,0.0,0.0,0.5,0.5,0.0,-0.25349339842796326,-0.30097657442092896,0.0,0.0,0.0,0,0
1678293380.41930604,71433082,0.0,0.0,0.5,0.5,0.0,-0.2673376500606537,-0.2418769896030426,0.0,0.0,0.0,0,-1
1678293380.51926589,71533042,0.0,0.0,0.5,0.5,0.0,-0.27692902088165283,-0.2915250360965729,0.0,0.0,0.0,0,-2
1678293380.62005901,71633835,0.0,0.0,0.5,0.5,0.0,-0.2845178246498108,-0.41342633962631226,0.0,0.0,0.0,0,-2
1678293380.72001886,71733795,0.0,0.0,0.5,0.5,0.0,-0.29608574509620667,-0.2049848586320877,0.0,0.0,0.0,0,-3
1678293380.81997895,71833755,0.0,0.0,0.5,0.5,0.0,-0.30350324511528015,-0.07200255244970322,0.0,0.0,0.0,0,-3
1678293380.91993904,71933715,0.0,0.0,0.5,0.5,0.0,-0.29952558875083923,-0.08895328640937805,0.0,0.0,0.0,0,-2
1678293381.01989889,72033675,0.0,0.0,0.5,0.5,0.0,-0.28560370206832886,-0.27129384875297546,0.0,0.0,0.0,0,-1
1678293381.11985898,72133635,0.0,0.0,0.5,0.5,0.0,-0.2720116078853607,-0.08164142072200775,0.0,0.0,0.0,0,0
1678293381.21981883,72233595,0.0,0.0,0.5,0.5,0.0,-0.2559114098548889,-0.29908522963523865,0.0,0.0,0.0,0,0
1678293381.31977892,72333555,0.0,0.0,0.5,0.5,0.0,-0.24274221062660217,-0.16190050542354584,0.0,0.0,0.0,0,1
1678293381.41973901,72433515,0.0,0.0,0.5,0.5,0.0,-0.23141604661941528,-0.18401706218719482,0.0,0.0,0.0,0,2
1678293381.51969886,72533475,0.0,0.0,0.5,0.5,0.0,-0.2199489325284958,-0.1035223975777626,0.0,0.0,0.0,0,2
1678293381.61965895,72633435,0.0,0.0,0.5,0.5,0.0,-0.20631729066371918,-0.08515824377536774,0.0,0.0,0.0,0,3
1678293381.71961904,72733395,0.0,0.0,0.5,0.5,0.0,-0.18943707644939423,-0.3386284410953522,0.0,0.0,0.0,0,4
1678293381.81957889,72833355,0.0,0.0,0.5,0.5,0.0,-0.17954641580581665,-0.3073034882545471,0.0,0.0,0.0,0,4
1678293381.91953897,72933315,0.0,0.0,0.5,0.5,0.0,-0.17909196019172668,-0.10629105567932129,0.0,0.0,0.0,0,3
1678293382.01949883,73033275,0.0,0.0,0.5,0.5,0.0,-0.17797547578811646,-0.24373285472393036,0.0,0.0,0.0,0,3
1678293382.11945891,73133235,0.0,0.0,0.5,0.5,0.0,-0.1770857721567154,-0.06057198718190193,0.0,0.0,0.0,0,2
1678293382.21941900,73233195,0.0,0.0,0.5,0.5,0.0,-0.17250119149684906,-0.1550809144973755,0.0,0.0,0.0,0,3
1678293382.31937885,73333155,0.0,0.0,0.5,0.5,0.0,-0.1653364598751068,-0.17209582030773163,0.0,0.0,0.0,0,3
1678293382.41933894,73433115,0.0,0.0,0.5,0.5,0.0,-0.1590745449066162,-0.04353635385632515,0.0,0.0,0.0,0,3
1678293382.51929903,73533075,0.0,0.0,0.5,0.5,0.0,-0.1494554579257965,-0.4056030809879303,0.0,0.0,0.0,0,4
1678293382.61925888,73633035,0.0,0.0,0.5,0.5,0.0,-0.1482597440481186,-0.16283561289310455,0.0,0.0,0.0,0,3
1678293382.72005200,73733828,0.0,0.0,0.5,0.5,0.0,-0.15146885812282562,-0.22533442080020905,0.0,0.0,0.0,0,3
1678293382.82001185,73833788,0.0,0.0,0.5,0.5,0.0,-0.15538832545280457,-0.2766450047492981,0.0,0.0,0.0,0,2
1678293382.91997194,73933748,0.0,0.0,0.5,0.5,0.0,-0.16269440948963165,-0.32825854420661926,0.0,0.0,0.0,0,2
1678293383.01993203,74033708,0.0,0.0,0.5,0.5,0.0,-0.17501166462898254,-0.3289385437965393,0.0,0.0,0.0,0,1
1678293383.11989188,74133668,0.0,0.0,0.5,0.5,0.0,-0.1915188729763031,-0.13691964745521545,0.0,0.0,0.0,0,0
1678293383.21985197,74233628,0.0,0.0,0.5,0.5,0.0,-0.20362132787704468,-0.27287188172340393,0.0,0.0,0.0,0,0
1678293383.31981182,74333588,0.0,0.0,0.5,0.5,0.0,-0.2132965475320816,-0.13449297845363617,0.0,0.0,0.0,0,-1
1678293383.41977191,74433548,0.0,0.0,0.5,0.5,0.0,-0.21860963106155396,-0.040207669138908386,0.0,0.0,0.0,0,-1
1678293383.51973200,74533508,0.0,0.0,0.5,0.5,0.0,-0.21461892127990723,-0.1792059987783432,0.0,0.0,0.0,0,0
1678293383.61969185,74633468,0.0,0.0,0.5,0.5,0.0,-0.20729796588420868,-0.35592395067214966,0.0,0.0,0.0,0,0
1678293383.71965194,74733428,0.0,0.0,0.5,0.5,0.0,-0.20690608024597168,-0.26941925287246704,0.0,0.0,0.0,0,0
1678293383.81961203,74833388,0.0,0.0,0.5,0.5,0.0,-0.2118256688117981,-0.01851004548370838,0.0,0.0,0.0,0,0
1678293383.91957188,74933348,0.0,0.0,0.5,0.5,0.0,-0.20971927046775818,-0.09664341807365417,0.0,0.0,0.0,0,0
1678293384.01953197,75033308,0.0,0.0,0.5,0.5,0.0,-0.20059186220169067,-0.1393335461616516,0.0,0.0,0.0,0,0
1678293384.11949205,75133268,0.0,0.0,0.5,0.5,0.0,-0.18981820344924927,-0.3609749674797058,0.0,0.0,0.0,0,1
1678293384.21945190,75233228,0.0,0.0,0.5,0.5,0.0,-0.18700987100601196,-0.22921516001224518,0.0,0.0,0.0,0,1
1678293384.31941199,75333188,0.0,0.0,0.5,0.5,0.0,-0.18958108127117157,-0.22076012194156647,0.0,0.0,0.0,0,0
1678293384.41937184,75433148,0.0,0.0,0.5,0.5,0.0,-0.1930372565984726,-0.33313775062561035,0.0,0.0,0.0,0,0
1678293384.51933193,75533108,0.0,0.0,0.5,0.5,0.0,-0.20081788301467896,-0.021130818873643875,0.0,0.0,0.0,0,0
1678293384.61929202,75633068,0.0,0.0,0.5,0.5,0.0,-0.20240724086761475,-0.07068479061126709,0.0,0.0,0.0,0,0
1678293384.71925187,75733028,0.0,0.0,0.5,0.5,0.0,-0.1952638328075409,-0.3129998445510864,0.0,0.0,0.0,0,0
1678293384.82004499,75833821,0.0,0.0,0.5,0.5,0.0,-0.1917327642440796,-0.1228746846318245,0.0,0.0,0.0,0,0
1678293384.92000484,75933781,0.0,0.0,0.5,0.5,0.0,-0.1888497918844223,-0.41385841369628906,0.0,0.0,0.0,0,0
1678293385.01996493,76033741,0.0,0.0,0.5,0.5,0.0,-0.1932852864265442,-0.3103475868701935,0.0,0.0,0.0,0,0
1678293385.11992502,76133701,0.0,0.0,0.5,0.5,0.0,-0.20468993484973907,-0.06454838812351227,0.0,0.0,0.0,0,0
1678293385.21988487,76233661,0.0,0.0,0.5,0.5,0.0,-0.2098495364189148,-0.16834382712841034,0.0,0.0,0.0,0,0
1678293385.31984496,76333621,0.0,0.0,0.5,0.5,0.0,-0.20929503440856934,-0.05011918023228645,0.0,0.0,0.0,0,0
1678293385.41980505,76433581,0.0,0.0,0.5,0.5,0.0,-0.20245976746082306,-0.35120654106140137,0.0,0.0,0.0,0,0
1678293385.51976490,76533541,0.0,0.0,0.5,0.5,0.0,-0.19989526271820068,-0.26219746470451355,0.0,0.0,0.0,0,0
1678293385.61972499,76633501,0.0,0.0,0.5,0.5,0.0,-0.2031237930059433,-0.05443279817700386,0.0,0.0,0.0,0,0
1678293385.71968484,76733461,0.0,0.0,0.5,0.5,0.0,-0.20123770833015442,-0.32666096091270447,0.0,0.0,0.0,0,0
1678293385.81964493,76833421,0.0,0.0,0.5,0.5,0.0,-0.201468363404274,-0.20492227375507355,0.0,0.0,0.0,0,0
1678293385.91960502,76933381,0.0,0.0,0.5,0.5,0.0,-0.204097718000412,-0.09266621619462967,0.0,0.0,0.0,0,0
1678293386.01956487,77033341,0.0,0.0,0.5,0.5,0.0,-0.20197932422161102,-0.19962292909622192,0.0,0.0,0.0,0,0
1678293386.11952496,77133301,0.0,0.0,0.5,0.5,0.0,-0.1981959044933319,-0.37732183933258057,0.0,0.0,0.0,0,0
1678293386.21948504,77233261,0.0,0.0,0.5,0.5,0.0,-0.20178699493408203,-0.40431880950927734,0.0,0.0,0.0,0,0
1678293386.31944489,77333221,0.0,0.0,0.5,0.5,0.0,-0.21491679549217224,-0.3364154100418091,0.0,0.0,0.0,0,0
1678293386.41940498,77433181,0.0,0.0,0.5,0.5,0.0,-0.23247066140174866,-0.08166533708572388,0.0,0.0,0.0,0,-2
1678293386.51936483,77533141,0.0,0.0,0.5,0.5,0.0,-0.24204182624816895,-0.39401984214782715,0.0,0.0,0.0,0,-2
1678293386.61932492,77633101,0.0,0.0,0.5,0.5,0.0,-0.25182899832725525,-0.12591437995433807,0.0,0.0,0.0,0,-2
1678293386.71928501,77733061,0.0,0.0,0.5,0.5,0.0,-0.2578221261501312,-0.2031485140323639,0.0,0.0,0.0,0,-2
1678293386.81924486,77833021,0.0,0.0,0.5,0.5,0.0,-0.25850313901901245,-0.1883067637681961,0.0,0.0,0.0,0,-2
1678293386.92003798,77933814,0.0,0.0,0.5,0.5,0.0,-0.2563375234603882,-0.20777064561843872,0.0,0.0,0.0,0,-2
1678293387.01999784,78033774,0.0,0.0,0.5,0.5,0.0,-0.2525748312473297,-0.25447624921798706,0.0,0.0,0.0,0,-1
1678293387.11995792,78133734,0.0,0.0,0.5,0.5,0.0,-0.24986451864242554,-0.3934275209903717,0.0,0.0,0.0,0,-1
1678293387.21991801,78233694,0.0,0.0,0.5,0.5,0.0,-0.25385305285453796,-0.2588197588920593,0.0,0.0,0.0,0,-1
1678293387.31987786,78333654,0.0,0.0,0.5,0.5,0.0,-0.2603093385696411,-0.18196667730808258,0.0,0.0,0.0,0,-2
1678293387.41983795,78433614,0.0,0.0,0.5,0.5,0.0,-0.26292723417282104,-0.2155931144952774,0.0,0.0,0.0,0,-2
1678293387.51979804,78533574,0.0,0.0,0.5,0.5,0.0,-0.262356162071228,-0.039000317454338074,0.0,0.0,0.0,0,-2
1678293387.61975789,78633534,0.0,0.0,0.5,0.5,0.0,-0.25383731722831726,-0.15685386955738068,0.0,0.0,0.0,0,-1
1678293387.71971798,78733494,0.0,0.0,0.5,0.5,0.0,-0.2407311350107193,-0.2739776074886322,0.0,0.0,0.0,0,0
1678293387.81967783,78833454,0.0,0.0,0.5,0.5,0.0,-0.2312738299369812,-0.031822383403778076,0.0,0.0,0.0,0,0
1678293387.91963792,78933414,0.0,0.0,0.5,0.5,0.0,-0.21837560832500458,-0.3592267334461212,0.0,0.0,0.0,0,1
1678293388.01959801,79033374,0.0,0.0,0.5,0.5,0.0,-0.21050694584846497,-0.2787320613861084,0.0,0.0,0.0,0,1
1678293388.11955786,79133334,0.0,0.0,0.5,0.5,0.0,-0.20995093882083893,-0.06899753212928772,0.0,0.0,0.0,0,1
1678293388.21951795,79233294,0.0,0.0,0.5,0.5,0.0,-0.2055543065071106,-0.18059590458869934,0.0,0.0,0.0,0,1
1678293388.31947803,79333254,0.0,0.0,0.5,0.5,0.0,-0.19848565757274628,-0.10628467798233032,0.0,0.0,0.0,0,1
1678293388.41943789,79433214,0.0,0.0,0.5,0.5,0.0,-0.19004088640213013,-0.3916322588920593,0.0,0.0,0.0,0,0
1678293388.51939797,79533174,0.0,0.0,0.5,0.5,0.0,-0.19004136323928833,-0.33452367782592773,0.0,0.0,0.0,0,0
1678293388.61935782,79633134,0.0,0.0,0.5,0.5,0.0,-0.19895023107528687,-0.08615592867136002,0.0,0.0,0.0,0,0
1678293388.71931791,79733094,0.0,0.0,0.5,0.5,0.0,-0.20386731624603271,-0.16479352116584778,0.0,0.0,0.0,0,0
1678293388.81927800,79833054,0.0,0.0,0.5,0.5,0.0,-0.20373721420764923,-0.4114779829978943,0.0,0.0,0.0,0,0
1678293388.91923785,79933014,0.0,0.0,0.5,0.5,0.0,-0.21032017469406128,-0.40582388639450073,0.0,0.0,0.0,0,0
1678293389.02003098,80033807,0.0,0.0,0.5,0.5,0.0,-0.22801150381565094,-0.13710260391235352,0.0,0.0,0.0,0,-2
1678293389.11999083,80133767,0.0,0.0,0.5,0.5,0.0,-0.23864082992076874,-0.11167609691619873,0.0,0.0,0.0,0,-2
1678293389.21995091,80233727,0.0,0.0,0.5,0.5,0.0,-0.24023112654685974,-0.13649354875087738,0.0,0.0,0.0,0,-2
1678293389.31991100,80333687,0.0,0.0,0.47874999046325684,0.5,0.0,-0.23598119616508484,-0.2646970748901367,0.0,0.0,0.0,0,-1
1678293389.41987085,80433647,0.0,0.0,0.4399999976158142,0.5,0.0,-0.23352012038230896,-0.25160515308380127,0.0,0.0,0.0,0,-1
1678293389.51983094,80533607,0.0,0.0,0.3812499940395355,0.5,0.0,-0.23512636125087738,-0.19730429351329803,0.0,0.0,0.0,0,-5
1678293389.61979103,80633567,0.0,0.0,0.32124999165534973,0.5,0.0,-0.24273069202899933,-0.09680963307619095,0.0,0.0,0.0,0,-15
1678293389.71975088,80733527,0.0,0.0,0.25,0.5,0.0,-0.25891628861427307,-0.10633210837841034,0.0,0.0,0.0,0,-32
1678293389.81971097,80833487,0.0,0.0,0.25,0.5,0.0,-0.28678634762763977,-0.30569514632225037,0.0,0.0,0.0,0,-45
1678293389.91967082,80933447,0.0,0.0,0.25,0.5,0.0,-0.32878315448760986,-0.3235156238079071,0.0,0.0,0.0,0,-52
1678293390.01963091,81033407,0.0,0.0,0.25,0.5,0.0,-0.37999236583709717,-0.49535396695137024,0.0,0.0,0.0,0,-55
1678293390.11959100,81133367,0.0,0.0,0.25,0.5,0.0,-0.441335529088974,-0.6130823493003845,0.0,0.0,0.0,0,-57
1678293390.21955085,81233327,0.0,0.0,0.25,0.5,0.0,-0.5132536292076111,-0.7205859422683716,0.0,0.0,0.0,0,-59
1678293390.31951094,81333287,0.0,0.0,0.25,0.5,0.0,-0.594762921333313,-0.4888879060745239,0.0,0.0,0.0,0,-61
1678293390.41947103,81433247,0.0,0.0,0.25,0.5,0.0,-0.6705303192138672,-0.7390856146812439,0.0,0.0,0.0,0,-62
1678293390.51943088,81533207,0.0,0.0,0.25,0.5,0.0,-0.745857298374176,-0.6861611008644104,0.0,0.0,0.0,0,-63
1678293390.61939096,81633167,0.0,0.0,0.25,0.5,0.0,-0.8179215788841248,-0.6171540021896362,0.0,0.0,0.0,0,-64
1678293390.71935105,81733127,0.0,0.0,0.25,0.5,0.0,-0.8798015117645264,-0.9969072937965393,0.0,0.0,0.0,0,-63
1678293390.81931090,81833087,0.0,0.0,0.25,0.5,0.0,-0.9470710754394531,-0.9787444472312927,0.0,0.0,0.0,0,-64
1678293390.91927099,81933047,0.0,0.0,0.25,0.5,0.0,-1.0182673931121826,-0.8731529116630554,0.0,0.0,0.0,0,-64
1678293391.02006388,82033840,0.0,0.0,0.25,0.5,0.0,-1.084991455078125,-1.1502244472503662,0.0,0.0,0.0,0,-64
1678293391.12002397,82133800,0.0,0.0,0.25,0.5,0.0,-1.1534451246261597,-1.2357927560806274,0.0,0.0,0.0,0,-64
1678293391.21998405,82233760,0.0,0.0,0.25,0.5,0.0,-1.2274123430252075,-1.139280915260315,0.0,0.0,0.0,0,-65
1678293391.31994390,82333720,0.0,0.0,0.25,0.5,0.0,-1.298494577407837,-1.0695774555206299,0.0,0.0,0.0,0,-65
1678293391.41990399,82433680,0.0,0.0,0.25,0.5,0.0,-1.3596299886703491,-1.1430097818374634,0.0,0.0,0.0,0,-65
1678293391.51986384,82533640,0.0,0.0,0.25,0.5,0.0,-1.4124479293823242,-1.400755763053894,0.0,0.0,0.0,0,-64
1678293391.61982393,82633600,0.0,0.0,0.25,0.5,0.0,-1.468037724494934,-1.391847848892212,0.0,0.0,0.0,0,-64
1678293391.71978402,82733560,0.0,0.0,0.25,0.5,0.0,-1.525305151939392,-1.4200502634048462,0.0,0.0,0.0,0,-63
1678293391.81974387,82833520,0.0,0.0,0.25,0.5,0.0,-1.581612467765808,-1.6839544773101807,0.0,0.0,0.0,0,-63
1678293391.91970396,82933480,0.0,0.0,0.25,0.5,0.0,-1.6454628705978394,-1.3835411071777344,0.0,0.0,0.0,0,-63
1678293392.01966405,83033440,0.0,0.0,0.25,0.5,0.0,-1.7018734216690063,-1.7128666639328003,0.0,0.0,0.0,0,-62
1678293392.11962390,83133400,0.0,0.0,0.25,0.5,0.0,-1.7598154544830322,-1.629897952079773,0.0,0.0,0.0,0,-62
1678293392.21958399,83233360,0.0,0.0,0.25,0.5,0.0,-1.816218376159668,-1.8953217267990112,0.0,0.0,0.0,0,-62
1678293392.31954384,83333320,0.0,0.0,0.25,0.5,0.0,-1.8784501552581787,-1.8099509477615356,0.0,0.0,0.0,0,-62
1678293392.41950393,83433280,0.0,0.0,0.25,0.5,0.0,-1.9411656856536865,-2.0319602489471436,0.0,0.0,0.0,0,-62
1678293392.51946402,83533240,0.0,0.0,0.25,0.5,0.0,-2.009052038192749,-1.8927104473114014,0.0,0.0,0.0,0,-62
1678293392.61942387,83633200,0.0,0.0,0.25,0.5,0.0,-2.0739200115203857,-2.001854658126831,0.0,0.0,0.0,0,-63
1678293392.71938396,83733160,0.0,0.0,0.25,0.5,0.0,-2.1359403133392334,-2.017958402633667,0.0,0.0,0.0,0,-62
1678293392.81934404,83833120,0.0,0.0,0.25,0.5,0.0,-2.1940500736236572,-2.247434139251709,0.0,0.0,0.0,0,-62
1678293392.91930389,83933080,0.0,0.0,0.25,0.5,0.0,-2.2568581104278564,-2.150362730026245,0.0,0.0,0.0,0,-62
1678293393.01926398,84033040,0.0,0.0,0.25,0.5,0.0,-2.318056583404541,-2.1318507194519043,0.0,0.0,0.0,0,-62
1678293393.12005687,84133833,0.0,0.0,0.25,0.5,0.0,-2.373755693435669,-2.201038360595703,0.0,0.0,0.0,0,-62
1678293393.22001696,84233793,0.0,0.0,0.25,0.5,0.0,-2.4232776165008545,-2.362666130065918,0.0,0.0,0.0,0,-61
1678293393.31997705,84333753,0.0,0.0,0.25,0.5,0.0,-2.47385835647583,-2.273531198501587,0.0,0.0,0.0,0,-60
1678293393.41993690,84433713,0.0,0.0,0.25,0.5,0.0,-2.52048659324646,-2.3950467109680176,0.0,0.0,0.0,0,-59
1678293393.51989698,84533673,0.0,0.0,0.25,0.5,0.0,-2.565480947494507,-2.7493882179260254,0.0,0.0,0.0,0,-58
1678293393.61985683,84633633,0.0,0.0,0.25,0.5,0.0,-2.6230392456054688,-2.6422979831695557,0.0,0.0,0.0,0,-58
1678293393.71981692,84733593,0.0,0.0,0.25,0.5,0.0,-2.68630051612854,-2.669870376586914,0.0,0.0,0.0,0,-59
1678293393.81977701,84833553,0.0,0.0,0.25,0.5,0.0,-2.7499918937683105,-2.8236348628997803,0.0,0.0,0.0,0,-59
1678293393.91973686,84933513,0.0,0.0,0.25,0.5,0.0,-2.8173561096191406,-2.81728196144104,0.0,0.0,0.0,0,-60
1678293394.01969695,85033473,0.0,0.0,0.25,0.5,0.0,-2.8854339122772217,-2.8490500450134277,0.0,0.0,0.0,0,-60
1678293394.11965704,85133433,0.0,0.0,0.25,0.5,0.0,-2.9516708850860596,-2.9881341457366943,0.0,0.0,0.0,0,-60
1678293394.21961689,85233393,0.0,0.0,0.25,0.5,0.0,-3.0193474292755127,-3.0278823375701904,0.0,0.0,0.0,0,-61
1678293394.31957698,85333353,0.0,0.0,0.25,0.5,0.0,-3.087909460067749,-2.955160617828369,0.0,0.0,0.0,0,-61
1678293394.41953683,85433313,0.0,0.0,0.25,0.5,0.0,-3.1509361267089844,-3.1321544647216797,0.0,0.0,0.0,0,-61
1678293394.51949692,85533273,0.0,0.0,0.25,0.5,0.0,-3.2131528854370117,-3.3692104816436768,0.0,0.0,0.0,0,-61
1678293394.61945701,85633233,0.0,0.0,0.25,0.5,0.0,-3.283669948577881,-3.057652711868286,0.0,0.0,0.0,0,-62
1678293394.71941686,85733193,0.0,0.0,0.25,0.5,0.0,-3.3462753295898438,-3.2167861461639404,0.0,0.0,0.0,0,-62
1678293394.81937695,85833153,0.0,0.0,0.25,0.5,0.0,-3.4026167392730713,-3.5427985191345215,0.0,0.0,0.0,0,-61
1678293394.91933703,85933113,0.0,0.0,0.25,0.5,0.0,-3.466550827026367,-3.230860471725464,0.0,0.0,0.0,0,-62
1678293395.01929688,86033073,0.0,0.0,0.25,0.5,0.0,-3.5243239402770996,-3.2887790203094482,0.0,0.0,0.0,0,-61
1678293395.11925697,86133033,0.0,0.0,0.25,0.5,0.0,-3.572613477706909,-3.4170889854431152,0.0,0.0,0.0,0,-60
1678293395.22004986,86233826,0.0,0.0,0.25,0.5,0.0,-3.618380546569824,-3.677104949951172,0.0,0.0,0.0,0,-59
1678293395.32000995,86333786,0.0,0.0,0.25,0.5,0.0,-3.670480251312256,-3.78755784034729,0.0,0.0,0.0,0,-59
1678293395.41997004,86433746,0.0,0.0,0.25,0.5,0.0,-3.7315099239349365,-3.825112819671631,0.0,0.0,0.0,0,-59
1678293395.51992989,86533706,0.0,0.0,0.25,0.5,0.0,-3.799659013748169,-3.996096611022949,0.0,0.0,0.0,0,-60
1678293395.61988997,86633666,0.0,0.0,0.25,0.5,0.0,-3.876084566116333,-3.949726104736328,0.0,0.0,0.0,0,-61
1678293395.71984982,86733626,0.0,0.0,0.25,0.5,0.0,-3.9560563564300537,-3.797207832336426,0.0,0.0,0.0,0,-62
1678293395.81980991,86833586,0.0,0.0,0.25,0.5,0.0,-4.0280866622924805,-4.1038031578063965,0.0,0.0,0.0,0,-63
1678293395.91977000,86933546,0.0,0.0,0.25,0.5,0.0,-4.09867000579834,-3.8901519775390625,0.0,0.0,0.0,0,-63
1678293396.01972985,87033506,0.0,0.0,0.25,0.5,0.0,-4.162820339202881,-4.283730506896973,0.0,0.0,0.0,0,-63
1678293396.11968994,87133466,0.0,0.0,0.25,0.5,0.0,-4.228853225708008,-4.053914546966553,0.0,0.0,0.0,0,-63
1678293396.21965003,87233426,0.0,0.0,0.25,0.5,0.0,-4.292092323303223,-4.370141506195068,0.0,0.0,0.0,0,-63
1678293396.31960988,87333386,0.0,0.0,0.25,0.5,0.0,-4.356749534606934,-4.395214080810547,0.0,0.0,0.0,0,-63
1678293396.41956997,87433346,0.0,0.0,0.25,0.5,0.0,-4.425918102264404,-4.330750465393066,0.0,0.0,0.0,0,-64
1678293396.51952982,87533306,0.0,0.0,0.25,0.5,0.0,-4.492800235748291,-4.221738338470459,0.0,0.0,0.0,0,-64
1678293396.61948991,87633266,0.0,0.0,0.25,0.5,0.0,-4.5493245124816895,-4.547065734863281,0.0,0.0,0.0,0,-63
1678293396.71945000,87733226,0.0,0.0,0.25,0.5,0.0,-4.604719638824463,-4.40041971206665,0.0,0.0,0.0,0,-63
1678293396.81940985,87833186,0.0,0.0,0.25,0.5,0.0,-4.657186985015869,-4.621713638305664,0.0,0.0,0.0,0,-62
1678293396.91936994,87933146,0.0,0.0,0.25,0.5,0.0,-4.7095746994018555,-4.696603775024414,0.0,0.0,0.0,0,-61
1678293397.01933002,88033106,0.0,0.0,0.25,0.5,0.0,-4.765264511108398,-4.603976726531982,0.0,0.0,0.0,0,-61
1678293397.11928988,88133066,0.0,0.0,0.25,0.5,0.0,-4.819149017333984,-4.768330097198486,0.0,0.0,0.0,0,-60
