timestamp,TimeUS,ThI,ABst,ThO,ThH,DAlt,Alt,BAlt,DSAlt,SAlt,TAlt,DCRt,CRt
1678467045.21999216,12234271,0.0,0.0,0.5,0.5,0.0,-0.25590211153030396,-0.20523637533187866,0.0,0.0,0.0,0,2
1678467045.31995201,12334231,0.0,0.0,0.5,0.5,0.0,-0.25828710198402405,-0.2598285973072052,0.0,0.0,0.0,0,2
1678467045.41991210,12434191,0.0,0.0,0.5,0.5,0.0,-0.25829315185546875,-0.2046269178390503,0.0,0.0,0.0,0,2
1678467045.51987219,12534151,0.0,0.0,0.5,0.5,0.0,-0.2548253834247589,-0.4158107340335846,0.0,0.0,0.0,0,2
1678467045.61983204,12634111,0.0,0.0,0.5,0.5,0.0,-0.2580755949020386,-0.06101403012871742,0.0,0.0,0.0,0,2
1678467045.71979213,12734071,0.0,0.0,0.5,0.5,0.0,-0.2526032626628876,-0.3724473714828491,0.0,0.0,0.0,0,2
1678467045.81975222,12834031,0.0,0.0,0.5,0.5,0.0,-0.25055742263793945,-0.4537304639816284,0.0,0.0,0.0,0,2
1678467045.91971207,12933991,0.0,0.0,0.5,0.5,0.0,-0.2591691017150879,-0.13723613321781158,0.0,0.0,0.0,0,1
1678467046.01967216,13033951,0.0,0.0,0.5,0.5,0.0,-0.26171764731407166,-0.09113679826259613,0.0,0.0,0.0,0,1
1678467046.11963201,13133911,0.0,0.0,0.5,0.5,0.0,-0.2533315420150757,-0.06256537139415741,0.0,0.0,0.0,0,2
1678467046.21959209,13233871,0.0,0.0,0.5,0.5,0.0,-0.23547011613845825,-0.32434311509132385,0.0,0.0,0.0,0,3
1678467046.31955218,13333831,0.0,0.0,0.5,0.5,0.0,-0.22322078049182892,-0.0866350457072258,0.0,0.0,0.0,0,4
1678467046.41951203,13433791,0.0,0.0,0.5,0.5,0.0,-0.20827937126159668,-0.18313176929950714,0.0,0.0,0.0,0,5
1678467046.51947212,13533751,0.0,0.0,0.5,0.5,0.0,-0.19320525228977203,-0.16287627816200256,0.0,0.0,0.0,0,5
1678467046.61943221,13633711,0.0,0.0,0.5,0.5,0.0,-0.17908473312854767,-0.1427941620349884,0.0,0.0,0.0,0,6
1678467046.71939206,13733671,0.0,0.0,0.5,0.5,0.0,-0.16506078839302063,-0.1740453541278839,0.0,0.0,0.0,0,7
1678467046.81935215,13833631,0.0,0.0,0.5,0.5,0.0,-0.15288029611110687,-0.1290322095155716,0.0,0.0,0.0,0,7
1678467046.91931200,13933591,0.0,0.0,0.5,0.5,0.0,-0.14094699919223785,-0.08414779603481293,0.0,0.0,0.0,0,7
1678467047.01927209,14033551,0.0,0.0,0.5,0.5,0.0,-0.1270485669374466,-0.26196587085723877,0.0,0.0,0.0,0,8
1678467047.11923218,14133511,0.0,0.0,0.5,0.5,0.0,-0.11994335055351257,-0.28307676315307617,0.0,0.0,0.0,0,8
1678467047.21919203,14233471,0.0,0.0,0.5,0.5,0.0,-0.12156245857477188,-0.32839125394821167,0.0,0.0,0.0,0,7
1678467047.31998515,14334264,0.0,0.0,0.5,0.5,0.0,-0.13182692229747772,-0.056339286267757416,0.0,0.0,0.0,0,5
1678467047.41994500,14434224,0.0,0.0,0.5,0.5,0.0,-0.13704846799373627,-0.30766621232032776,0.0,0.0,0.0,0,5
1678467047.51990509,14534184,0.0,0.0,0.5,0.5,0.0,-0.14485600590705872,-0.08534359186887741,0.0,0.0,0.0,0,-1
1678467047.61986518,14634144,0.0,0.0,0.5,0.5,0.0,-0.15469782054424286,-0.10670878738164902,0.0,0.0,0.0,0,-1
1678467047.71982503,14734104,0.0,0.0,0.5,0.5,0.0,-0.1585858166217804,-0.38971301913261414,0.0,0.0,0.0,0,-1
1678467047.81978512,14834064,0.0,0.0,0.5,0.5,0.0,-0.16957147419452667,-0.0532485656440258,0.0,0.0,0.0,0,-2
1678467047.91974521,14934024,0.0,0.0,0.5,0.5,0.0,-0.17810389399528503,-0.12162189185619354,0.0,0.0,0.0,0,-2
1678467048.01970506,15033984,0.0,0.0,0.5,0.5,0.0,-0.18000522255897522,-0.324231892824173,0.0,0.0,0.0,0,-2
1678467048.11966515,15133944,0.0,0.0,0.5,0.5,0.0,-0.1863897293806076,-0.18300342559814453,0.0,0.0,0.0,0,-2
1678467048.21962500,15233904,0.0,0.0,0.5,0.5,0.0,-0.19450050592422485,-0.1800195276737213,0.0,0.0,0.0,0,-2
1678467048.31958508,15333864,0.0,0.0,0.5,0.5,0.0,-0.20038478076457977,-0.36836695671081543,0.0,0.0,0.0,0,-2
1678467048.41954517,15433824,0.0,0.0,0.5,0.5,0.0,-0.21163855493068695,-0.21043367683887482,0.0,0.0,0.0,0,-3
1678467048.51950502,15533784,0.0,0.0,0.5,0.5,0.0,-0.22409923374652863,-0.1796603947877884,0.0,0.0,0.0,0,-4
1678467048.61946511,15633744,0.0,0.0,0.5,0.5,0.0,-0.23230063915252686,-0.23627232015132904,0.0,0.0,0.0,0,-4
1678467048.71942520,15733704,0.0,0.0,0.5,0.5,0.0,-0.2385728359222412,-0.3417542278766632,0.0,0.0,0.0,0,-4
1678467048.81938505,15833664,0.0,0.0,0.5,0.5,0.0,-0.2484602928161621,-0.3123337924480438,0.0,0.0,0.0,0,-4
1678467048.91934514,15933624,0.0,0.0,0.5,0.5,0.0,-0.26158517599105835,-0.1564815789461136,0.0,0.0,0.0,0,-5
1678467049.01930523,16033584,0.0,0.0,0.5,0.5,0.0,-0.2697225511074066,-0.13302694261074066,0.0,0.0,0.0,0,-5
1678467049.11926508,16133544,0.0,0.0,0.5,0.5,0.0,-0.2696079611778259,-0.08291015774011612,0.0,0.0,0.0,0,-4
1678467049.21922517,16233504,0.0,0.0,0.5,0.5,0.0,-0.2609970271587372,-0.40209582448005676,0.0,0.0,0.0,0,-3
1678467049.31918502,16333464,0.0,0.0,0.5,0.5,0.0,-0.25793758034706116,-0.10875757038593292,0.0,0.0,0.0,0,-3
1678467049.41997814,16434257,0.0,0.0,0.5,0.5,0.0,-0.25428831577301025,-0.07538225501775742,0.0,0.0,0.0,0,-2
1678467049.51993799,16534217,0.0,0.0,0.5,0.5,0.0,-0.24266907572746277,-0.3818000555038452,0.0,0.0,0.0,0,-1
1678467049.61989808,16634177,0.0,0.0,0.5,0.5,0.0,-0.23692747950553894,-0.07046317309141159,0.0,0.0,0.0,0,0
1678467049.71985817,16734137,0.0,0.0,0.5,0.5,0.0,-0.22990596294403076,-0.1082286387681961,0.0,0.0,0.0,0,0
1678467049.81981802,16834097,0.0,0.0,0.5,0.5,0.0,-0.21699219942092896,-0.058771923184394836,0.0,0.0,0.0,0,0
1678467049.91977811,16934057,0.0,0.0,0.5,0.5,0.0,-0.19910289347171783,-0.3438062071800232,0.0,0.0,0.0,0,2
1678467050.01973820,17034017,0.0,0.0,0.5,0.5,0.0,-0.18835662305355072,-0.3667263090610504,0.0,0.0,0.0,0,3
1678467050.11969805,17133977,0.0,0.0,0.5,0.5,0.0,-0.190100759267807,-0.3174310326576233,0.0,0.0,0.0,0,2
1678467050.21965814,17233937,0.0,0.0,0.5,0.5,0.0,-0.199253648519516,-0.18307557702064514,0.0,0.0,0.0,0,1
1678467050.31961823,17333897,0.0,0.0,0.5,0.5,0.0,-0.2070007622241974,-0.11184351146221161,0.0,0.0,0.0,0,1
1678467050.41957808,17433857,0.0,0.0,0.5,0.5,0.0,-0.207663431763649,-0.18150071799755096,0.0,0.0,0.0,0,1
1678467050.51953816,17533817,0.0,0.0,0.5,0.5,0.0,-0.20437198877334595,-0.19318558275699615,0.0,0.0,0.0,0,1
1678467050.61949801,17633777,0.0,0.0,0.5,0.5,0.0,-0.20031318068504333,-0.37618184089660645,0.0,0.0,0.0,0,1
1678467050.71945810,17733737,0.0,0.0,0.5,0.5,0.0,-0.2033112794160843,-0.08006377518177032,0.0,0.0,0.0,0,1
1678467050.81941819,17833697,0.0,0.0,0.5,0.5,0.0,-0.20357461273670197,-0.4064425230026245,0.0,0.0,0.0,0,1
1678467050.91937804,17933657,0.0,0.0,0.5,0.5,0.0,-0.20832641422748566,-0.32384565472602844,0.0,0.0,0.0,0,1
1678467051.01933813,18033617,0.0,0.0,0.5,0.5,0.0,-0.24983792006969452,-0.2874242663383484,0.0,0.0,0.0,0,0
1678467051.11929822,18133577,0.0,0.0,0.5,0.5,0.0,-0.262560099363327,-0.22591876983642578,0.0,0.0,0.0,0,0
1678467051.21925807,18233537,0.0,0.0,0.5,0.5,0.0,-0.272438108921051,-0.46026507019996643,0.0,0.0,0.0,0,-1
1678467051.31921816,18333497,0.0,0.0,0.5,0.5,0.0,-0.2877458333969116,-0.152681365609169,0.0,0.0,0.0,0,-2
1678467051.42001104,18434290,0.0,0.0,0.5,0.5,0.0,-0.2998725473880768,-0.1597995012998581,0.0,0.0,0.0,0,-2
1678467051.51997113,18534250,0.0,0.0,0.5,0.5,0.0,-0.30102357268333435,-0.17349450290203094,0.0,0.0,0.0,0,-2
1678467051.61993122,18634210,0.0,0.0,0.5,0.5,0.0,-0.2964504361152649,-0.3965936005115509,0.0,0.0,0.0,0,-1
1678467051.71989107,18734170,0.0,0.0,0.5,0.5,0.0,-0.29835546016693115,-0.4055381119251251,0.0,0.0,0.0,0,-1
1678467051.81985116,18834130,0.0,0.0,0.5,0.5,0.0,-0.30836814641952515,-0.43619978427886963,0.0,0.0,0.0,0,-2
1678467051.91981101,18934090,0.0,0.0,0.5,0.5,0.0,-0.32538989186286926,-0.21250119805335999,0.0,0.0,0.0,0,-3
1678467052.01977110,19034050,0.0,0.0,0.5,0.5,0.0,-0.3368760347366333,-0.4232712984085083,0.0,0.0,0.0,0,-4
1678467052.11973119,19134010,0.0,0.0,0.4399999976158142,0.5,0.0,-0.3504914343357086,-0.4122186005115509,0.0,0.0,0.0,0,-5
1678467052.21969104,19233970,0.0,0.0,0.25,0.5,0.0,-0.3725377321243286,-0.18767060339450836,0.0,0.0,0.0,0,-20
1678467052.31965113,19333930,0.0,0.0,0.25,0.5,0.0,-0.40598586201667786,-0.30469226837158203,0.0,0.0,0.0,0,-40
1678467052.41961122,19433890,0.0,0.0,0.25,0.5,0.0,-0.4516979455947876,-0.17558275163173676,0.0,0.0,0.0,0,-54
1678467052.51957107,19533850,0.0,0.0,0.25,0.5,0.0,-0.49863603711128235,-0.5398090481758118,0.0,0.0,0.0,0,-60
1678467052.61953115,19633810,0.0,0.0,0.25,0.5,0.0,-0.5534247159957886,-0.40132173895835876,0.0,0.0,0.0,0,-63
1678467052.71949100,19733770,0.0,0.0,0.25,0.5,0.0,-0.6119149923324585,-0.5692920684814453,0.0,0.0,0.0,0,-64
1678467052.81945109,19833730,0.0,0.0,0.25,0.5,0.0,-0.6725975871086121,-0.5446719527244568,0.0,0.0,0.0,0,-65
1678467052.91941118,19933690,0.0,0.0,0.25,0.5,0.0,-0.7334960699081421,-0.5804324746131897,0.0,0.0,0.0,0,-65
1678467053.01937103,20033650,0.0,0.0,0.25,0.5,0.0,-0.7915371060371399,-0.6245643496513367,0.0,0.0,0.0,0,-65
1678467053.11933112,20133610,0.0,0.0,0.25,0.5,0.0,-0.8462964296340942,-0.9009853601455688,0.0,0.0,0.0,0,-64
1678467053.21929121,20233570,0.0,0.0,0.25,0.5,0.0,-0.9068962931632996,-0.9431023001670837,0.0,0.0,0.0,0,-64
1678467053.31925106,20333530,0.0,0.0,0.25,0.5,0.0,-0.9754723310470581,-0.9155727624893188,0.0,0.0,0.0,0,-64
1678467053.41921115,20433490,0.0,0.0,0.25,0.5,0.0,-1.0455292463302612,-0.8506154417991638,0.0,0.0,0.0,0,-65
1678467053.52000403,20534283,0.0,0.0,0.25,0.5,0.0,-1.1099175214767456,-0.8167003989219666,0.0,0.0,0.0,0,-65
1678467053.61996412,20634243,0.0,0.0,0.25,0.5,0.0,-1.162770390510559,-1.172599196434021,0.0,0.0,0.0,0,-64
1678467053.71992421,20734203,0.0,0.0,0.25,0.5,0.0,-1.2174421548843384,-1.0157246589660645,0.0,0.0,0.0,0,-63
1678467053.81988406,20834163,0.0,0.0,0.25,0.5,0.0,-1.2713918685913086,-1.0789353847503662,0.0,0.0,0.0,0,-62
1678467053.91984415,20934123,0.0,0.0,0.25,0.5,0.0,-1.319985032081604,-1.131587266921997,0.0,0.0,0.0,0,-61
1678467054.01980400,21034083,0.0,0.0,0.25,0.5,0.0,-1.3657370805740356,-1.2491848468780518,0.0,0.0,0.0,0,-60
1678467054.11976409,21134043,0.0,0.0,0.25,0.5,0.0,-1.4116381406784058,-1.2596559524536133,0.0,0.0,0.0,0,-59
1678467054.21972418,21234003,0.0,0.0,0.25,0.5,0.0,-1.4574265480041504,-1.4162511825561523,0.0,0.0,0.0,0,-58
1678467054.31968403,21333963,0.0,0.0,0.25,0.5,0.0,-1.5068315267562866,-1.4238213300704956,0.0,0.0,0.0,0,-57
1678467054.41964412,21433923,0.0,0.0,0.25,0.5,0.0,-1.5583844184875488,-1.4825900793075562,0.0,0.0,0.0,0,-57
1678467054.51960421,21533883,0.0,0.0,0.25,0.5,0.0,-1.6109458208084106,-1.6471372842788696,0.0,0.0,0.0,0,-57
1678467054.61956406,21633843,0.0,0.0,0.25,0.5,0.0,-1.6685339212417603,-1.6959295272827148,0.0,0.0,0.0,0,-57
1678467054.71952415,21733803,0.0,0.0,0.25,0.5,0.0,-1.731588363647461,-1.9156285524368286,0.0,0.0,0.0,0,-57
1678467054.81948400,21833763,0.0,0.0,0.25,0.5,0.0,-1.8044430017471313,-1.930680751800537,0.0,0.0,0.0,0,-59
1678467054.91944408,21933723,0.0,0.0,0.25,0.5,0.0,-1.8854647874832153,-2.0214717388153076,0.0,0.0,0.0,0,-60
1678467055.01940417,22033683,0.0,0.0,0.25,0.5,0.0,-1.9717521667480469,-1.7407035827636719,0.0,0.0,0.0,0,-62
1678467055.11936402,22133643,0.0,0.0,0.25,0.5,0.0,-2.0480856895446777,-2.0101709365844727,0.0,0.0,0.0,0,-63
1678467055.21932411,22233603,0.0,0.0,0.25,0.5,0.0,-2.117528200149536,-2.0298664569854736,0.0,0.0,0.0,0,-63
1678467055.31928420,22333563,0.0,0.0,0.25,0.5,0.0,-2.1845762729644775,-2.117539405822754,0.0,0.0,0.0,0,-63
1678467055.41924405,22433523,0.0,0.0,0.25,0.5,0.0,-2.2499077320098877,-2.027207851409912,0.0,0.0,0.0,0,-63
1678467055.51920414,22533483,0.0,0.0,0.25,0.5,0.0,-2.3085238933563232,-2.4168143272399902,0.0,0.0,0.0,0,-63
1678467055.61999702,22634276,0.0,0.0,0.25,0.5,0.0,-2.373142719268799,-2.119199514389038,0.0,0.0,0.0,0,-63
1678467055.71995711,22734236,0.0,0.0,0.25,0.5,0.0,-2.431697130203247,-2.2714173793792725,0.0,0.0,0.0,0,-63
1678467055.81991720,22834196,0.0,0.0,0.25,0.5,0.0,-2.484907865524292,-2.5650038719177246,0.0,0.0,0.0,0,-62
1678467055.91987705,22934156,0.0,0.0,0.25,0.5,0.0,-2.5464603900909424,-2.4416446685791016,0.0,0.0,0.0,0,-62
1678467056.01983714,23034116,0.0,0.0,0.25,0.5,0.0,-2.608243942260742,-2.4563958644866943,0.0,0.0,0.0,0,-62
1678467056.11979723,23134076,0.0,0.0,0.25,0.5,0.0,-2.6663308143615723,-2.5312275886535645,0.0,0.0,0.0,0,-62
1678467056.21975708,23234036,0.0,0.0,0.25,0.5,0.0,-2.7214317321777344,-2.6083688735961914,0.0,0.0,0.0,0,-61
1678467056.31971717,23333996,0.0,0.0,0.25,0.5,0.0,-2.775508403778076,-2.6324050426483154,0.0,0.0,0.0,0,-60
1678467056.41967702,23433956,0.0,0.0,0.25,0.5,0.0,-2.828134059906006,-2.7944133281707764,0.0,0.0,0.0,0,-60
1678467056.51963711,23533916,0.0,0.0,0.25,0.5,0.0,-2.8833067417144775,-2.877659320831299,0.0,0.0,0.0,0,-59
1678467056.61959720,23633876,0.0,0.0,0.25,0.5,0.0,-2.9433741569519043,-2.9576220512390137,0.0,0.0,0.0,0,-60
1678467056.71955705,23733836,0.0,0.0,0.25,0.5,0.0,-3.008193254470825,-2.753668785095215,0.0,0.0,0.0,0,-60
1678467056.81951714,23833796,0.0,0.0,0.25,0.5,0.0,-3.0643270015716553,-2.838848114013672,0.0,0.0,0.0,0,-60
1678467056.91947722,23933756,0.0,0.0,0.25,0.5,0.0,-3.111785888671875,-3.0098063945770264,0.0,0.0,0.0,0,-58
1678467057.01943707,24033716,0.0,0.0,0.25,0.5,0.0,-3.15891695022583,-3.3409461975097656,0.0,0.0,0.0,0,-58
1678467057.11939716,24133676,0.0,0.0,0.25,0.5,0.0,-3.2203800678253174,-3.222693681716919,0.0,0.0,0.0,0,-58
1678467057.21935701,24233636,0.0,0.0,0.25,0.5,0.0,-3.2876744270324707,-3.110267162322998,0.0,0.0,0.0,0,-59
1678467057.31931710,24333596,0.0,0.0,0.25,0.5,0.0,-3.348417043685913,-3.3086647987365723,0.0,0.0,0.0,0,-59
1678467057.41927719,24433556,0.0,0.0,0.25,0.5,0.0,-3.4083495140075684,-3.3765130043029785,0.0,0.0,0.0,0,-59
1678467057.51923704,24533516,0.0,0.0,0.25,0.5,0.0,-3.4699809551239014,-3.5060787200927734,0.0,0.0,0.0,0,-59
1678467057.61919713,24633476,0.0,0.0,0.25,0.5,0.0,-3.536115884780884,-3.3219172954559326,0.0,0.0,0.0,0,-59
1678467057.71999002,24734269,0.0,0.0,0.25,0.5,0.0,-3.5954430103302,-3.421895742416382,0.0,0.0,0.0,0,-59
1678467057.81995010,24834229,0.0,0.0,0.25,0.5,0.0,-3.6478986740112305,-3.787447452545166,0.0,0.0,0.0,0,-58
1678467057.91991019,24934189,0.0,0.0,0.25,0.5,0.0,-3.7078263759613037,-3.7737388610839844,0.0,0.0,0.0,0,-59
1678467058.01987004,25034149,0.0,0.0,0.25,0.5,0.0,-3.7768304347991943,-3.837067127227783,0.0,0.0,0.0,0,-59
1678467058.11983013,25134109,0.0,0.0,0.25,0.5,0.0,-3.8500277996063232,-3.7514796257019043,0.0,0.0,0.0,0,-61
1678467058.21979022,25234069,0.0,0.0,0.25,0.5,0.0,-3.920903205871582,-3.9887349605560303,0.0,0.0,0.0,0,-61
1678467058.31975007,25334029,0.0,0.0,0.25,0.5,0.0,-3.9931373596191406,-3.941732406616211,0.0,0.0,0.0,0,-62
1678467058.41971016,25433989,0.0,0.0,0.25,0.5,0.0,-4.065451622009277,-4.100950241088867,0.0,0.0,0.0,0,-63
1678467058.51967001,25533949,0.0,0.0,0.25,0.5,0.0,-4.139469623565674,-3.973726987838745,0.0,0.0,0.0,0,-63
1678467058.61963010,25633909,0.0,0.0,0.25,0.5,0.0,-4.208028793334961,-4.019340515136719,0.0,0.0,0.0,0,-64
1678467058.71959019,25733869,0.0,0.0,0.25,0.5,0.0,-4.268123626708984,-4.319553375244141,0.0,0.0,0.0,0,-63
1678467058.81955004,25833829,0.0,0.0,0.25,0.5,0.0,-4.331204891204834,-4.11466121673584,0.0,0.0,0.0,0,-63
1678467058.91951013,25933789,0.0,0.0,0.25,0.5,0.0,-4.391073226928711,-4.348805904388428,0.0,0.0,0.0,0,-63
1678467059.01947021,26033749,0.0,0.0,0.25,0.5,0.0,-4.449778079986572,-4.355348587036133,0.0,0.0,0.0,0,-63
1678467059.11943007,26133709,0.0,0.0,0.25,0.5,0.0,-4.509268760681152,-4.607697486877441,0.0,0.0,0.0,0,-62
1678467059.21939015,26233669,0.0,0.0,0.25,0.5,0.0,-4.575674057006836,-4.664608478546143,0.0,0.0,0.0,0,-63
1678467059.31935000,26333629,0.0,0.0,0.25,0.5,0.0,-4.65071439743042,-4.693608283996582,0.0,0.0,0.0,0,-64
1678467059.41931009,26433589,0.0,0.0,0.25,0.5,0.0,-4.730019569396973,-4.713662147521973,0.0,0.0,0.0,0,-65
1678467059.51927018,26533549,0.0,0.0,0.25,0.5,0.0,-4.809319019317627,-4.584425449371338,0.0,0.0,0.0,0,-66
1678467059.61923003,26633509,0.0,0.0,0.25,0.5,0.0,-4.879519939422607,-4.918941974639893,0.0,0.0,0.0,0,-66
1678467059.71919012,26733469,0.0,0.0,0.25,0.5,0.0,-4.949377536773682,-4.957508563995361,0.0,0.0,0.0,0,-67
1678467059.81998301,26834262,0.0,0.0,0.25,0.5,0.0,-5.024092674255371,-4.685798645019531,0.0,0.0,0.0,0,-67
1678467059.91994309,26934222,0.0,0.0,0.25,0.5,0.0,-5.087520599365234,-4.809041976928711,0.0,0.0,0.0,0,-67
1678467060.01990318,27034182,0.0,0.0,0.25,0.5,0.0,-5.138461112976074,-5.175315856933594,0.0,0.0,0.0,0,-65
1678467060.11986303,27134142,0.0,0.0,0.25,0.5,0.0,-5.193375110626221,-5.256039619445801,0.0,0.0,0.0,0,-65
1678467060.21982312,27234102,0.0,0.0,0.25,0.5,0.0,-5.259535312652588,-5.248833656311035,0.0,0.0,0.0,0,-65
1678467060.31978321,27334062,0.0,0.0,0.25,0.5,0.0,-5.330915927886963,-5.308841705322266,0.0,0.0,0.0,0,-66
1678467060.41974306,27434022,0.0,0.0,0.25,0.5,0.0,-5.404051780700684,-5.371358394622803,0.0,0.0,0.0,0,-66
1678467060.51970315,27533982,0.0,0.0,0.25,0.5,0.0,-5.477886199951172,-5.391512870788574,0.0,0.0,0.0,0,-67
1678467060.61966300,27633942,0.0,0.0,0.25,0.5,0.0,-5.55097770690918,-5.440814018249512,0.0,0.0,0.0,0,-67
1678467060.71962309,27733902,0.0,0.0,0.25,0.5,0.0,-5.61968469619751,-5.624879837036133,0.0,0.0,0.0,0,-68
1678467060.81958318,27833862,0.0,0.0,0.25,0.5,0.0,-5.691304683685303,-5.644852638244629,0.0,0.0,0.0,0,-68
1678467060.91954303,27933822,0.0,0.0,0.25,0.5,0.0,-5.764344215393066,-5.763935565948486,0.0,0.0,0.0,0,-68
1678467061.01950312,28033782,0.0,0.0,0.25,0.5,0.0,-5.839942455291748,-5.650318145751953,0.0,0.0,0.0,0,-69
1678467061.11946321,28133742,0.0,0.0,0.25,0.5,0.0,-5.9094767570495605,-5.578184127807617,0.0,0.0,0.0,0,-69
1678467061.21942306,28233702,0.0,0.0,0.25,0.5,0.0,-5.9656219482421875,-5.880115509033203,0.0,0.0,0.0,0,-68
1678467061.31938314,28333662,0.0,0.0,0.25,0.5,0.0,-6.021439075469971,-5.692692756652832,0.0,0.0,0.0,0,-67
1678467061.41934299,28433622,0.0,0.0,0.25,0.5,0.0,-6.069035530090332,-5.997630596160889,0.0,0.0,0.0,0,-65
1678467061.51930308,28533582,0.0,0.0,0.25,0.5,0.0,-6.118934154510498,-5.832377910614014,0.0,0.0,0.0,0,-64
1678467061.61926317,28633542,0.0,0.0,0.25,0.5,0.0,-6.163804054260254,-5.89042329788208,0.0,0.0,0.0,0,-63
1678467061.71922302,28733502,0.0,0.0,0.25,0.5,0.0,-6.202296733856201,-6.050548553466797,0.0,0.0,0.0,0,-61
1678467061.82001615,28834295,0.0,0.0,0.25,0.5,0.0,-6.241992473602295,-5.989085674285889,0.0,0.0,0.0,0,-59
1678467061.91997600,28934255,0.0,0.0,0.25,0.5,0.0,-6.278172492980957,-6.1425909996032715,0.0,0.0,0.0,0,-58
1678467062.01993608,29034215,0.0,0.0,0.25,0.5,0.0,-6.315643310546875,-6.352266311645508,0.0,0.0,0.0,0,-56
1678467062.11989617,29134175,0.0,0.0,0.25,0.5,0.0,-6.3630290031433105,-6.2862677574157715,0.0,0.0,0.0,0,-56
1678467062.21985602,29234135,0.0,0.0,0.25,0.5,0.0,-6.413775444030762,-6.526858329772949,0.0,0.0,0.0,0,-55
1678467062.31981611,29334095,0.0,0.0,0.25,0.5,0.0,-6.474584579467773,-6.395103454589844,0.0,0.0,0.0,0,-56
1678467062.41977620,29434055,0.0,0.0,0.25,0.5,0.0,-6.535876274108887,-6.548962116241455,0.0,0.0,0.0,0,-56
1678467062.51973605,29534015,0.0,0.0,0.25,0.5,0.0,-6.599082946777344,-6.511117458343506,0.0,0.0,0.0,0,-57
1678467062.61969614,29633975,0.0,0.0,0.25,0.5,0.0,-6.660773754119873,-6.435276508331299,0.0,0.0,0.0,0,-57
1678467062.71965623,29733935,0.0,0.0,0.25,0.5,0.0,-6.712860584259033,-6.626532077789307,0.0,0.0,0.0,0,-56
1678467062.81961608,29833895,0.0,0.0,0.25,0.5,0.0,-6.762857437133789,-6.819079399108887,0.0,0.0,0.0,0,-56
1678467062.91957617,29933855,0.0,0.0,0.25,0.5,0.0,-6.819756984710693,-6.765255928039551,0.0,0.0,0.0,0,-56
1678467063.01953602,30033815,0.0,0.0,0.25,0.5,0.0,-6.878394603729248,-7.035556316375732,0.0,0.0,0.0,0,-56
1678467063.11949611,30133775,0.0,0.0,0.25,0.5,0.0,-6.946523189544678,-6.992644309997559,0.0,0.0,0.0,0,-57
1678467063.21945620,30233735,0.0,0.0,0.25,0.5,0.0,-7.019355297088623,-6.9138360023498535,0.0,0.0,0.0,0,-58
1678467063.31941605,30333695,0.0,0.0,0.25,0.5,0.0,-7.087230682373047,-7.090466499328613,0.0,0.0,0.0,0,-58
1678467063.41937613,30433655,0.0,0.0,0.25,0.5,0.0,-7.15470552444458,-7.227813243865967,0.0,0.0,0.0,0,-59
1678467063.51933622,30533615,0.0,0.0,0.25,0.5,0.0,-7.226842403411865,-7.167153358459473,0.0,0.0,0.0,0,-60
1678467063.61929607,30633575,0.0,0.0,0.25,0.5,0.0,-7.2974066734313965,-7.184473037719727,0.0,0.0,0.0,0,-60
1678467063.71925616,30733535,0.0,0.0,0.25,0.5,0.0,-7.362809181213379,-7.371057033538818,0.0,0.0,0.0,0,-61
1678467063.81921601,30833495,0.0,0.0,0.25,0.5,0.0,-7.429575443267822,-7.387105464935303,0.0,0.0,0.0,0,-61
1678467063.92000914,30934288,0.0,0.0,0.25,0.5,0.0,-7.497335433959961,-7.335921764373779,0.0,0.0,0.0,0,-61
1678467064.01996922,31034248,0.0,0.0,0.25,0.5,0.0,-7.558930397033691,-7.37724494934082,0.0,0.0,0.0,0,-61
1678467064.11992908,31134208,0.0,0.0,0.25,0.5,0.0,-7.614498615264893,-7.602476119995117,0.0,0.0,0.0,0,-61
1678467064.21988916,31234168,0.0,0.0,0.25,0.5,0.0,-7.671270370483398,-7.774512767791748,0.0,0.0,0.0,0,-60
1678467064.31984901,31334128,0.0,0.0,0.25,0.5,0.0,-7.736501216888428,-7.59718132019043,0.0,0.0,0.0,0,-61
1678467064.41980910,31434088,0.0,0.0,0.25,0.5,0.0,-7.801527976989746,-7.7966742515563965,0.0,0.0,0.0,0,-61
1678467064.51976919,31534048,0.0,0.0,0.25,0.5,0.0,-7.866194725036621,-7.952704906463623,0.0,0.0,0.0,0,-61
1678467064.61972904,31634008,0.0,0.0,0.25,0.5,0.0,-7.937119483947754,-7.893679618835449,0.0,0.0,0.0,0,-62
1678467064.71968913,31733968,0.0,0.0,0.25,0.5,0.0,-8.009998321533203,-8.001948356628418,0.0,0.0,0.0,0,-63
1678467064.81964922,31833928,0.0,0.0,0.25,0.5,0.0,-8.08218765258789,-7.8030571937561035,0.0,0.0,0.0,0,-63
1678467064.91960907,31933888,0.0,0.0,0.25,0.5,0.0,-8.144731521606445,-8.21184253692627,0.0,0.0,0.0,0,-63
1678467065.01956916,32033848,0.0,0.0,0.25,0.5,0.0,-8.208333015441895,-7.884082317352295,0.0,0.0,0.0,0,-63
1678467065.11952901,32133808,0.0,0.0,0.25,0.5,0.0,-8.264815330505371,-7.936823844909668,0.0,0.0,0.0,0,-62
1678467065.21948910,32233768,0.0,0.0,0.25,0.5,0.0,-8.307744979858398,-8.335786819458008,0.0,0.0,0.0,0,-61
1678467065.31944919,32333728,0.0,0.0,0.25,0.5,0.0,-8.354643821716309,-8.425737380981445,0.0,0.0,0.0,0,-60
1678467065.41940904,32433688,0.0,0.0,0.25,0.5,0.0,-8.413320541381836,-8.461337089538574,0.0,0.0,0.0,0,-60
1678467065.51936913,32533648,0.0,0.0,0.25,0.5,0.0,-8.480179786682129,-8.452189445495605,0.0,0.0,0.0,0,-60
1678467065.61932921,32633608,0.0,0.0,0.25,0.5,0.0,-8.549345970153809,-8.438493728637695,0.0,0.0,0.0,0,-61
1678467065.71928906,32733568,0.0,0.0,0.25,0.5,0.0,-8.6153564453125,-8.703584671020508,0.0,0.0,0.0,0,-62
1678467065.81924915,32833528,0.0,0.0,0.25,0.5,0.0,-8.68524169921875,-8.497139930725098,0.0,0.0,0.0,0,-62
1678467065.91920900,32933488,0.0,0.0,0.25,0.5,0.0,-8.751420021057129,-8.6480712890625,0.0,0.0,0.0,0,-62
1678467066.02000213,33034281,0.0,0.0,0.25,0.5,0.0,-8.812768936157227,-8.682340621948242,0.0,0.0,0.0,0,-62
1678467066.11996222,33134241,0.0,0.0,0.25,0.5,0.0,-8.870829582214355,-8.581217765808105,0.0,0.0,0.0,0,-62
1678467066.21992207,33234201,0.0,0.0,0.25,0.5,0.0,-8.919147491455078,-8.69166088104248,0.0,0.0,0.0,0,-61
1678467066.31988215,33334161,0.0,0.0,0.25,0.5,0.0,-8.960953712463379,-8.850576400756836,0.0,0.0,0.0,0,-59
1678467066.41984200,33434121,0.0,0.0,0.25,0.5,0.0,-9.003540992736816,-8.900794982910156,0.0,0.0,0.0,0,-58
1678467066.51980209,33534081,0.0,0.0,0.25,0.5,0.0,-9.04911994934082,-9.036260604858398,0.0,0.0,0.0,0,-57
1678467066.61976218,33634041,0.0,0.0,0.25,0.5,0.0,-9.10037899017334,-8.9360990524292,0.0,0.0,0.0,0,-56
1678467066.71972203,33734001,0.0,0.0,0.25,0.5,0.0,-9.149703025817871,-9.163385391235352,0.0,0.0,0.0,0,-56
1678467066.81968212,33833961,0.0,0.0,0.25,0.5,0.0,-9.20395565032959,-9.038119316101074,0.0,0.0,0.0,0,-56
1678467066.91964221,33933921,0.0,0.0,0.25,0.5,0.0,-9.254956245422363,-9.46135425567627,0.0,0.0,0.0,0,-55
1678467067.01960206,34033881,0.0,0.0,0.25,0.5,0.0,-9.31848430633545,-9.290472984313965,0.0,0.0,0.0,0,-56
1678467067.11956215,34133841,0.0,0.0,0.25,0.5,0.0,-9.385296821594238,-9.23813533782959,0.0,0.0,0.0,0,-57
1678467067.21952200,34233801,0.0,0.0,0.25,0.5,0.0,-9.445818901062012,-9.392012596130371,0.0,0.0,0.0,0,-57
1678467067.31948209,34333761,0.0,0.0,0.25,0.5,0.0,-9.504552841186523,-9.540986061096191,0.0,0.0,0.0,0,-57
1678467067.41944218,34433721,0.0,0.0,0.25,0.5,0.0,-9.567497253417969,-9.520927429199219,0.0,0.0,0.0,0,-57
1678467067.51940203,34533681,0.0,0.0,0.25,0.5,0.0,-9.630963325500488,-9.425512313842773,0.0,0.0,0.0,0,-58
1678467067.61936212,34633641,0.0,0.0,0.25,0.5,0.0,-9.686423301696777,-9.533385276794434,0.0,0.0,0.0,0,-57
1678467067.71932220,34733601,0.0,0.0,0.25,0.5,0.0,-9.73638916015625,-9.787801742553711,0.0,0.0,0.0,0,-56
1678467067.81928205,34833561,0.0,0.0,0.25,0.5,0.0,-9.792508125305176,-9.8761568069458,0.0,0.0,0.0,0,-56
1678467067.91924214,34933521,0.0,0.0,0.25,0.5,0.0,-9.857304573059082,-10.031177520751953,0.0,0.0,0.0,0,-57
1678467068.01920199,35033481,0.0,0.0,0.25,0.5,0.0,-9.932984352111816,-9.850635528564453,0.0,0.0,0.0,0,-58
1678467068.11999512,35134274,0.0,0.0,0.25,0.5,0.0,-10.006600379943848,-9.999101638793945,0.0,0.0,0.0,0,-60
1678467068.21995521,35234234,0.0,0.0,0.25,0.5,0.0,-10.078145980834961,-10.003985404968262,0.0,0.0,0.0,0,-60
1678467068.31991506,35334194,0.0,0.0,0.25,0.5,0.0,-10.146760940551758,-10.106813430786133,0.0,0.0,0.0,0,-61
1678467068.41987514,35434154,0.0,0.0,0.25,0.5,0.0,-10.213557243347168,-10.040359497070312,0.0,0.0,0.0,0,-61
1678467068.51983500,35534114,0.0,0.0,0.25,0.5,0.0,-10.274251937866211,-10.439091682434082,0.0,0.0,0.0,0,-61
1678467068.61979508,35634074,0.0,0.0,0.25,0.5,0.0,-10.342020988464355,-10.192205429077148,0.0,0.0,0.0,0,-61
1678467068.71975517,35734034,0.0,0.0,0.25,0.5,0.0,-10.409473419189453,-10.517695426940918,0.0,0.0,0.0,0,-62
1678467068.81971502,35833994,0.0,0.0,0.5,0.5,0.0,-10.47943115234375,-10.414856910705566,0.0,0.0,0.0,0,-57
1678467068.91967511,35933954,0.0,0.0,0.5,0.5,0.0,-10.537714958190918,-10.626056671142578,0.0,0.0,0.0,0,-42
1678467069.01963520,36033914,0.0,0.0,0.5,0.5,0.0,-10.587281227111816,-10.549793243408203,0.0,0.0,0.0,0,-35
1678467069.11959505,36133874,0.0,0.0,0.5,0.5,0.0,-10.630219459533691,-10.555721282958984,0.0,0.0,0.0,0,-30
1678467069.21955514,36233834,0.0,0.0,0.5,0.5,0.0,-10.664515495300293,-10.46771240234375,0.0,0.0,0.0,0,-26
1678467069.31951523,36333794,0.0,0.0,0.5,0.5,0.0,-10.68704891204834,-10.412545204162598,0.0,0.0,0.0,0,-23
1678467069.41947508,36433754,0.0,0.0,0.5,0.5,0.0,-10.695365905761719,-10.451828002929688,0.0,0.0,0.0,0,-19
1678467069.51943517,36533714,0.0,0.0,0.5,0.5,0.0,-10.692720413208008,-10.483996391296387,0.0,0.0,0.0,0,-15
1678467069.61939502,36633674,0.0,0.0,0.5,0.5,0.0,-10.683707237243652,-10.547484397888184,0.0,0.0,0.0,0,-12
1678467069.71935511,36733634,0.0,0.0,0.5,0.5,0.0,-10.673009872436523,-10.58159351348877,0.0,0.0,0.0,0,-9
1678467069.81931520,36833594,0.0,0.0,0.5,0.5,0.0,-10.663639068603516,-10.586235046386719,0.0,0.0,0.0,0,-6
1678467069.91927505,36933554,0.0,0.0,0.5,0.5,0.0,-10.655950546264648,-10.576904296875,0.0,0.0,0.0,0,-4
1678467070.01923513,37033514,0.0,0.0,0.5,0.5,0.0,-10.64900016784668,-10.562928199768066,0.0,0.0,0.0,0,-3
1678467070.11919522,37133474,0.0,0.0,0.5,0.5,0.0,-10.641632080078125,-10.740818977355957,0.0,0.0,0.0,0,-1
1678467070.21998811,37234267,0.0,0.0,0.5,0.5,0.0,-10.640496253967285,-10.721834182739258,0.0,0.0,0.0,0,0
1678467070.31994820,37334227,0.0,0.0,0.5,0.5,0.0,-10.646529197692871,-10.580192565917969,0.0,0.0,0.0,0,0
1678467070.41990805,37434187,0.0,0.0,0.5,0.5,0.0,-10.65122127532959,-10.573175430297852,0.0,0.0,0.0,0,0
1678467070.51986814,37534147,0.0,0.0,0.5,0.5,0.0,-10.651148796081543,-10.613961219787598,0.0,0.0,0.0,0,0
1678467070.61982822,37634107,0.0,0.0,0.5,0.5,0.0,-10.648839950561523,-10.767417907714844,0.0,0.0,0.0,0,1
1678467070.71978807,37734067,0.0,0.0,0.5,0.5,0.0,-10.651657104492188,-10.892287254333496,0.0,0.0,0.0,0,1
1678467070.81974816,37834027,0.0,0.0,0.5,0.5,0.0,-10.666029930114746,-10.731898307800293,0.0,0.0,0.0,0,1
1678467070.91970801,37933987,0.0,0.0,0.5,0.5,0.0,-10.684370040893555,-10.89452075958252,0.0,0.0,0.0,0,0
1678467071.01966810,38033947,0.0,0.0,0.5,0.5,0.0,-10.707611083984375,-10.838288307189941,0.0,0.0,0.0,0,-1
1678467071.11962819,38133907,0.0,0.0,0.5,0.5,0.0,-10.734536170959473,-10.649670600891113,0.0,0.0,0.0,0,-2
1678467071.21958804,38233867,0.0,0.0,0.5,0.5,0.0,-10.754278182983398,-10.767760276794434,0.0,0.0,0.0,0,-2
1678467071.31954813,38333827,0.0,0.0,0.5,0.5,0.0,-10.768524169921875,-10.82666015625,0.0,0.0,0.0,0,-3
1678467071.41950822,38433787,0.0,0.0,0.5,0.5,0.0,-10.78296947479248,-10.74038028717041,0.0,0.0,0.0,0,-3
1678467071.51946807,38533747,0.0,0.0,0.5,0.5,0.0,-10.794777870178223,-10.625096321105957,0.0,0.0,0.0,0,-3
1678467071.61942816,38633707,0.0,0.0,0.5,0.5,0.0,-10.79775333404541,-10.680708885192871,0.0,0.0,0.0,0,-2
1678467071.71938801,38733667,0.0,0.0,0.5,0.5,0.0,-10.793874740600586,-10.615788459777832,0.0,0.0,0.0,0,-1
1678467071.81934810,38833627,0.0,0.0,0.5,0.5,0.0,-10.78377914428711,-10.783361434936523,0.0,0.0,0.0,0,0
1678467071.91930819,38933587,0.0,0.0,0.5,0.5,0.0,-10.77472972869873,-10.767228126525879,0.0,0.0,0.0,0,0
1678467072.01926804,39033547,0.0,0.0,0.5,0.5,0.0,-10.76966381072998,-10.546314239501953,0.0,0.0,0.0,0,1
1678467072.11922812,39133507,0.0,0.0,0.5,0.5,0.0,-10.758576393127441,-10.558964729309082,0.0,0.0,0.0,0,2
1678467072.21918821,39233467,0.0,0.0,0.5,0.5,0.0,-10.737197875976562,-10.668769836425781,0.0,0.0,0.0,0,4
1678467072.31998110,39334260,0.0,0.0,0.5,0.5,0.0,-10.717761993408203,-10.774599075317383,0.0,0.0,0.0,0,5
1678467072.41994119,39434220,0.0,0.0,0.5,0.5,0.0,-10.70580768585205,-10.771132469177246,0.0,0.0,0.0,0,6
1678467072.51990104,39534180,0.0,0.0,0.5,0.5,0.0,-10.700968742370605,-10.554902076721191,0.0,0.0,0.0,0,6
1678467072.61986113,39634140,0.0,0.0,0.5,0.5,0.0,-10.69152545928955,-10.56401538848877,0.0,0.0,0.0,0,6
1678467072.71982121,39734100,0.0,0.0,0.5,0.5,0.0,-10.676444053649902,-10.595987319946289,0.0,0.0,0.0,0,7
1678467072.81978106,39834060,0.0,0.0,0.5,0.5,0.0,-10.65954303741455,-10.743730545043945,0.0,0.0,0.0,0,8
1678467072.91974115,39934020,0.0,0.0,0.5,0.5,0.0,-10.649306297302246,-10.542732238769531,0.0,0.0,0.0,0,8
1678467073.01970100,40033980,0.0,0.0,0.5,0.5,0.0,-10.63716983795166,-10.521870613098145,0.0,0.0,0.0,0,9
1678467073.11966109,40133940,0.0,0.0,0.5,0.5,0.0,-10.620402336120605,-10.63516616821289,0.0,0.0,0.0,0,9
1678467073.21962118,40233900,0.0,0.0,0.5,0.5,0.0,-10.60580825805664,-10.407381057739258,0.0,0.0,0.0,0,10
1678467073.31958103,40333860,0.0,0.0,0.5,0.5,0.0,-10.586377143859863,-10.654072761535645,0.0,0.0,0.0,0,11
1678467073.41954112,40433820,0.0,0.0,0.5,0.5,0.0,-10.569198608398438,-10.657255172729492,0.0,0.0,0.0,0,11
1678467073.51950121,40533780,0.0,0.0,0.5,0.5,0.0,-10.559907913208008,-10.552237510681152,0.0,0.0,0.0,0,11
1678467073.61946106,40633740,0.0,0.0,0.5,0.5,0.0,-10.552775382995605,-10.643350601196289,0.0,0.0,0.0,0,11
1678467073.71942115,40733700,0.0,0.0,0.5,0.5,0.0,-10.548952102661133,-10.664775848388672,0.0,0.0,0.0,0,10
1678467073.81938100,40833660,0.0,0.0,0.5,0.5,0.0,-10.55061149597168,-10.337559700012207,0.0,0.0,0.0,0,10
1678467073.91934109,40933620,0.0,0.0,0.5,0.5,0.0,-10.543986320495605,-10.523192405700684,0.0,0.0,0.0,0,9
1678467074.01930118,41033580,0.0,0.0,0.5,0.5,0.0,-10.532135009765625,-10.341217041015625,0.0,0.0,0.0,0,10
1678467074.11926103,41133540,0.0,0.0,0.5,0.5,0.0,-10.514052391052246,-10.488014221191406,0.0,0.0,0.0,0,11
1678467074.21922112,41233500,0.0,0.0,0.5,0.5,0.0,-10.494316101074219,-10.449115753173828,0.0,0.0,0.0,0,11
1678467074.32001400,41334293,0.0,0.0,0.5,0.5,0.0,-10.475943565368652,-10.600092887878418,0.0,0.0,0.0,0,12
1678467074.41997409,41434253,0.0,0.0,0.5,0.5,0.0,-10.464709281921387,-10.428240776062012,0.0,0.0,0.0,0,12
1678467074.51993418,41534213,0.0,0.0,0.5,0.5,0.0,-10.455724716186523,-10.317684173583984,0.0,0.0,0.0,0,12
1678467074.61989403,41634173,0.0,0.0,0.5,0.5,0.0,-10.44096565246582,-10.59600830078125,0.0,0.0,0.0,0,12
1678467074.71985412,41734133,0.0,0.0,0.5,0.5,0.0,-10.431406021118164,-10.367805480957031,0.0,0.0,0.0,0,12
1678467074.81981421,41834093,0.0,0.0,0.5,0.5,0.0,-10.42302131652832,-10.593077659606934,0.0,0.0,0.0,0,11
1678467074.91977406,41934053,0.0,0.0,0.5,0.5,0.0,-10.420042037963867,-10.257999420166016,0.0,0.0,0.0,0,11
1678467075.01973414,42034013,0.0,0.0,0.5,0.5,0.0,-10.41305160522461,-10.629939079284668,0.0,0.0,0.0,0,11
1678467075.11969399,42133973,0.0,0.0,0.5,0.5,0.0,-10.410927772521973,-10.558460235595703,0.0,0.0,0.0,0,10
1678467075.21965408,42233933,0.0,0.0,0.5,0.5,0.0,-10.417841911315918,-10.577146530151367,0.0,0.0,0.0,0,9
1678467075.31961417,42333893,0.0,0.0,0.5,0.5,0.0,-10.430356979370117,-10.317831039428711,0.0,0.0,0.0,0,7
1678467075.41957402,42433853,0.0,0.0,0.5,0.5,0.0,-10.436983108520508,-10.354650497436523,0.0,0.0,0.0,0,6
1678467075.51953411,42533813,0.0,0.0,0.5,0.5,0.0,-10.435234069824219,-10.50741195678711,0.0,0.0,0.0,0,6
1678467075.61949420,42633773,0.0,0.0,0.5,0.5,0.0,-10.434465408325195,-10.431601524353027,0.0,0.0,0.0,0,5
1678467075.71945405,42733733,0.0,0.0,0.5,0.5,0.0,-10.434928894042969,-10.290518760681152,0.0,0.0,0.0,0,5
1678467075.81941414,42833693,0.0,0.0,0.5,0.5,0.0,-10.429455757141113,-10.273780822753906,0.0,0.0,0.0,0,5
1678467075.91937423,42933653,0.0,0.0,0.5,0.5,0.0,-10.416470527648926,-10.225687980651855,0.0,0.0,0.0,0,6
1678467076.01933408,43033613,0.0,0.0,0.5,0.5,0.0,-10.396585464477539,-10.353476524353027,0.0,0.0,0.0,0,7
1678467076.11929417,43133573,0.0,0.0,0.5,0.5,0.0,-10.376638412475586,-10.130678176879883,0.0,0.0,0.0,0,8
1678467076.21925402,43233533,0.0,0.0,0.5,0.5,0.0,-10.3516845703125,-10.238750457763672,0.0,0.0,0.0,0,9
1678467076.31921411,43333493,0.0,0.0,0.5,0.5,0.0,-10.323781967163086,-10.327079772949219,0.0,0.0,0.0,0,10
1678467076.42000723,43434286,0.0,0.0,0.5,0.5,0.0,-10.299538612365723,-10.257201194763184,0.0,0.0,0.0,0,11
1678467076.51996708,43534246,0.0,0.0,0.5,0.5,0.0,-10.280431747436523,-10.238699913024902,0.0,0.0,0.0,0,12
1678467076.61992717,43634206,0.0,0.0,0.5,0.5,0.0,-10.262571334838867,-10.157816886901855,0.0,0.0,0.0,0,12
1678467076.71988702,43734166,0.0,0.0,0.5,0.5,0.0,-10.242542266845703,-10.197223663330078,0.0,0.0,0.0,0,13
1678467076.81984711,43834126,0.0,0.0,0.5,0.5,0.0,-10.222665786743164,-10.375770568847656,0.0,0.0,0.0,0,13
1678467076.91980720,43934086,0.0,0.0,0.5,0.5,0.0,-10.21230411529541,-10.154841423034668,0.0,0.0,0.0,0,13
1678467077.01976705,44034046,0.0,0.0,0.5,0.5,0.0,-10.201902389526367,-10.436365127563477,0.0,0.0,0.0,0,12
1678467077.11972713,44134006,0.0,0.0,0.5,0.5,0.0,-10.20181941986084,-10.366436004638672,0.0,0.0,0.0,0,11
1678467077.21968722,44233966,0.0,0.0,0.5,0.5,0.0,-10.209952354431152,-10.36989688873291,0.0,0.0,0.0,0,10
1678467077.31964707,44333926,0.0,0.0,0.5,0.5,0.0,-10.22322940826416,-10.324624061584473,0.0,0.0,0.0,0,8
1678467077.41960716,44433886,0.0,0.0,0.5,0.5,0.0,-10.237811088562012,-10.27764892578125,0.0,0.0,0.0,0,6
1678467077.51956701,44533846,0.0,0.0,0.5,0.5,0.0,-10.250223159790039,-10.171175956726074,0.0,0.0,0.0,0,5
1678467077.61952710,44633806,0.0,0.0,0.5,0.5,0.0,-10.255367279052734,-10.212752342224121,0.0,0.0,0.0,0,4
1678467077.71948719,44733766,0.0,0.0,0.5,0.5,0.0,-10.255702018737793,-9.955751419067383,0.0,0.0,0.0,0,4
1678467077.81944704,44833726,0.0,0.0,0.5,0.5,0.0,-10.241735458374023,-10.097648620605469,0.0,0.0,0.0,0,5
1678467077.91940713,44933686,0.0,0.0,0.5,0.5,0.0,-10.221158981323242,-10.112719535827637,0.0,0.0,0.0,0,6
1678467078.01936722,45033646,0.0,0.0,0.5,0.5,0.0,-10.199466705322266,-10.13657283782959,0.0,0.0,0.0,0,7
1678467078.11932707,45133606,0.0,0.0,0.5,0.5,0.0,-10.179327011108398,-10.295782089233398,0.0,0.0,0.0,0,8
1678467078.21928716,45233566,0.0,0.0,0.5,0.5,0.0,-10.168795585632324,-10.05220890045166,0.0,0.0,0.0,0,8
1678467078.31924701,45333526,0.0,0.0,0.5,0.5,0.0,-10.156871795654297,-10.101584434509277,0.0,0.0,0.0,0,8
1678467078.41920710,45433486,0.0,0.0,0.5,0.5,0.0,-10.14345645904541,-9.883910179138184,0.0,0.0,0.0,0,9
1678467078.52000022,45534279,0.0,0.0,0.5,0.5,0.0,-10.12035846710205,-10.069940567016602,0.0,0.0,0.0,0,10
1678467078.61996007,45634239,0.0,0.0,0.5,0.5,0.0,-10.096919059753418,-10.169343948364258,0.0,0.0,0.0,0,11
1678467078.71992016,45734199,0.0,0.0,0.5,0.5,0.0,-10.080657958984375,-10.214916229248047,0.0,0.0,0.0,0,11
1678467078.81988001,45834159,0.0,0.0,0.5,0.5,0.0,-10.074204444885254,-9.84901237487793,0.0,0.0,0.0,0,10
1678467078.91984010,45934119,0.0,0.0,0.5,0.5,0.0,-10.062170028686523,-10.048715591430664,0.0,0.0,0.0,0,11
1678467079.01980019,46034079,0.0,0.0,0.5,0.5,0.0,-10.046606063842773,-10.047996520996094,0.0,0.0,0.0,0,11
1678467079.11976004,46134039,0.0,0.0,0.5,0.5,0.0,-10.03350830078125,-9.87637996673584,0.0,0.0,0.0,0,11
1678467079.21972013,46233999,0.0,0.0,0.5,0.5,0.0,-10.016316413879395,-9.869050979614258,0.0,0.0,0.0,0,11
1678467079.31968021,46333959,0.0,0.0,0.5,0.5,0.0,-9.993114471435547,-10.15114688873291,0.0,0.0,0.0,0,12
1678467079.41964006,46433919,0.0,0.0,0.5,0.5,0.0,-9.977489471435547,-10.13301944732666,0.0,0.0,0.0,0,13
1678467079.51960015,46533879,0.0,0.0,0.5,0.5,0.0,-9.973278045654297,-9.86361026763916,0.0,0.0,0.0,0,12
1678467079.61956000,46633839,0.0,0.0,0.5,0.5,0.0,-9.96696662902832,-9.885880470275879,0.0,0.0,0.0,0,11
1678467079.71952009,46733799,0.0,0.0,0.5,0.5,0.0,-9.954834938049316,-9.993142127990723,0.0,0.0,0.0,0,11
1678467079.81948018,46833759,0.0,0.0,0.5,0.5,0.0,-9.943746566772461,-9.781946182250977,0.0,0.0,0.0,0,11
1678467079.91944003,46933719,0.0,0.0,0.5,0.5,0.0,-9.928262710571289,-10.092789649963379,0.0,0.0,0.0,0,12
1678467080.01940012,47033679,0.0,0.0,0.5,0.5,0.0,-9.91793441772461,-10.017468452453613,0.0,0.0,0.0,0,12
1678467080.11936021,47133639,0.0,0.0,0.5,0.5,0.0,-9.915534019470215,-9.958674430847168,0.0,0.0,0.0,0,11
1678467080.21932006,47233599,0.0,0.0,0.5,0.5,0.0,-9.915349006652832,-9.78693962097168,0.0,0.0,0.0,0,10
1678467080.31928015,47333559,0.0,0.0,0.5,0.5,0.0,-9.90920352935791,-10.092663764953613,0.0,0.0,0.0,0,10
1678467080.41924000,47433519,0.0,0.0,0.5,0.5,0.0,-9.907315254211426,-10.094379425048828,0.0,0.0,0.0,0,9
1678467080.51920009,47533479,0.0,0.0,0.5,0.5,0.0,-9.915189743041992,-9.960721015930176,0.0,0.0,0.0,0,8
1678467080.61999321,47634272,0.0,0.0,0.5,0.5,0.0,-9.92487621307373,-9.805450439453125,0.0,0.0,0.0,0,7
1678467080.71995306,47734232,0.0,0.0,0.5,0.5,0.0,-9.927116394042969,-10.020889282226562,0.0,0.0,0.0,0,6
1678467080.81991315,47834192,0.0,0.0,0.5,0.5,0.0,-9.929072380065918,-9.707155227661133,0.0,0.0,0.0,0,5
1678467080.91987300,47934152,0.0,0.0,0.5,0.5,0.0,-9.923473358154297,-9.869096755981445,0.0,0.0,0.0,0,5
1678467081.01983309,48034112,0.0,0.0,0.5,0.5,0.0,-9.912615776062012,-9.864578247070312,0.0,0.0,0.0,0,6
1678467081.11979318,48134072,0.0,0.0,0.5,0.5,0.0,-9.901667594909668,-9.936177253723145,0.0,0.0,0.0,0,6
1678467081.21975303,48234032,0.0,0.0,0.5,0.5,0.0,-9.893960952758789,-9.997767448425293,0.0,0.0,0.0,0,6
1678467081.31971312,48333992,0.0,0.0,0.5,0.5,0.0,-9.8928804397583,-9.620019912719727,0.0,0.0,0.0,0,6
1678467081.41967320,48433952,0.0,0.0,0.5,0.5,0.0,-9.882572174072266,-9.844903945922852,0.0,0.0,0.0,0,6
1678467081.51963305,48533912,0.0,0.0,0.5,0.5,0.0,-9.869023323059082,-9.933170318603516,0.0,0.0,0.0,0,7
1678467081.61959314,48633872,0.0,0.0,0.5,0.5,0.0,-9.861420631408691,-9.705556869506836,0.0,0.0,0.0,0,7
1678467081.71955299,48733832,0.0,0.0,0.5,0.5,0.0,-9.849550247192383,-9.591574668884277,0.0,0.0,0.0,0,7
1678467081.81951308,48833792,0.0,0.0,0.5,0.5,0.0,-9.827020645141602,-9.620107650756836,0.0,0.0,0.0,0,8
1678467081.91947317,48933752,0.0,0.0,0.5,0.5,0.0,-9.79755973815918,-9.893790245056152,0.0,0.0,0.0,0,10
1678467082.01943302,49033712,0.0,0.0,0.5,0.5,0.0,-9.777080535888672,-9.596375465393066,0.0,0.0,0.0,0,10
1678467082.11939311,49133672,0.0,0.0,0.5,0.5,0.0,-9.754388809204102,-9.555296897888184,0.0,0.0,0.0,0,11
1678467082.21935320,49233632,0.0,0.0,0.5,0.5,0.0,-9.725262641906738,-9.867209434509277,0.0,0.0,0.0,0,12
1678467082.31931305,49333592,0.0,0.0,0.5,0.5,0.0,-9.70626163482666,-9.505011558532715,0.0,0.0,0.0,0,13
1678467082.41927314,49433552,0.0,0.0,0.5,0.5,0.0,-9.683362007141113,-9.713408470153809,0.0,0.0,0.0,0,13
1678467082.51923323,49533512,0.0,0.0,0.5,0.5,0.0,-9.66321086883545,-9.604949951171875,0.0,0.0,0.0,0,14
1678467082.61919308,49633472,0.0,0.0,0.5,0.5,0.0,-9.64391040802002,-9.821206092834473,0.0,0.0,0.0,0,14
1678467082.71998620,49734265,0.0,0.0,0.5,0.5,0.0,-9.634336471557617,-9.78139877319336,0.0,0.0,0.0,0,14
1678467082.81994605,49834225,0.0,0.0,0.5,0.5,0.0,-9.633642196655273,-9.640097618103027,0.0,0.0,0.0,0,13
1678467082.91990614,49934185,0.0,0.0,0.5,0.5,0.0,-9.632611274719238,-9.477273941040039,0.0,0.0,0.0,0,12
1678467083.01986623,50034145,0.0,0.0,0.5,0.5,0.0,-9.62232780456543,-9.468727111816406,0.0,0.0,0.0,0,12
1678467083.11982608,50134105,0.0,0.0,0.5,0.5,0.0,-9.603534698486328,-9.61790943145752,0.0,0.0,0.0,0,12
1678467083.21978617,50234065,0.0,0.0,0.5,0.5,0.0,-9.586010932922363,-9.660421371459961,0.0,0.0,0.0,0,13
1678467083.31974602,50334025,0.0,0.0,0.5,0.5,0.0,-9.574392318725586,-9.728009223937988,0.0,0.0,0.0,0,13
1678467083.41970611,50433985,0.0,0.0,0.5,0.5,0.0,-9.5713529586792,-9.531461715698242,0.0,0.0,0.0,0,12
1678467083.51966619,50533945,0.0,0.0,0.5,0.5,0.0,-9.566822052001953,-9.533500671386719,0.0,0.0,0.0,0,11
1678467083.61962605,50633905,0.0,0.0,0.5,0.5,0.0,-9.559206008911133,-9.405008316040039,0.0,0.0,0.0,0,11
1678467083.71958613,50733865,0.0,0.0,0.5,0.5,0.0,-9.544060707092285,-9.589385032653809,0.0,0.0,0.0,0,12
1678467083.81954622,50833825,0.0,0.0,0.5,0.5,0.0,-9.530912399291992,-9.761375427246094,0.0,0.0,0.0,0,12
1678467083.91950607,50933785,0.0,0.0,0.5,0.5,0.0,-9.530247688293457,-9.423126220703125,0.0,0.0,0.0,0,11
1678467084.01946616,51033745,0.0,0.0,0.5,0.5,0.0,-9.525907516479492,-9.402233123779297,0.0,0.0,0.0,0,10
1678467084.11942601,51133705,0.0,0.0,0.5,0.5,0.0,-9.513792037963867,-9.690213203430176,0.0,0.0,0.0,0,11
1678467084.21938610,51233665,0.0,0.0,0.5,0.5,0.0,-9.509469985961914,-9.33065414428711,0.0,0.0,0.0,0,10
1678467084.31934619,51333625,0.0,0.0,0.5,0.5,0.0,-9.498866081237793,-9.398833274841309,0.0,0.0,0.0,0,10
1678467084.41930604,51433585,0.0,0.0,0.5,0.5,0.0,-9.482596397399902,-9.329828262329102,0.0,0.0,0.0,0,11
1678467084.51926613,51533545,0.0,0.0,0.5,0.5,0.0,-9.460941314697266,-9.31682014465332,0.0,0.0,0.0,0,12
1678467084.61922622,51633505,0.0,0.0,0.5,0.5,0.0,-9.434967041015625,-9.282878875732422,0.0,0.0,0.0,0,13
1678467084.71918607,51733465,0.0,0.0,0.5,0.5,0.0,-9.405468940734863,-9.411982536315918,0.0,0.0,0.0,0,14
1678467084.81997919,51834258,0.0,0.0,0.5,0.5,0.0,-9.380038261413574,-9.53722858428955,0.0,0.0,0.0,0,15
1678467084.91993904,51934218,0.0,0.0,0.5,0.5,0.0,-9.365140914916992,-9.472736358642578,0.0,0.0,0.0,0,15
1678467085.01989913,52034178,0.0,0.0,0.5,0.5,0.0,-9.359033584594727,-9.307766914367676,0.0,0.0,0.0,0,14
1678467085.11985922,52134138,0.0,0.0,0.5,0.5,0.0,-9.35214900970459,-9.374608993530273,0.0,0.0,0.0,0,13
1678467085.21981907,52234098,0.0,0.0,0.5,0.5,0.0,-9.344079971313477,-9.340609550476074,0.0,0.0,0.0,0,13
1678467085.31977916,52334058,0.0,0.0,0.5,0.5,0.0,-9.33590030670166,-9.229473114013672,0.0,0.0,0.0,0,12
1678467085.41973901,52434018,0.0,0.0,0.5,0.5,0.0,-9.323254585266113,-9.491028785705566,0.0,0.0,0.0,0,13
1678467085.51969910,52533978,0.0,0.0,0.5,0.5,0.0,-9.315841674804688,-9.344476699829102,0.0,0.0,0.0,0,12
1678467085.61965919,52633938,0.0,0.0,0.5,0.5,0.0,-9.312450408935547,-9.419852256774902,0.0,0.0,0.0,0,11
1678467085.71961904,52733898,0.0,0.0,0.5,0.5,0.0,-9.312337875366211,-9.487850189208984,0.0,0.0,0.0,0,11
1678467085.81957912,52833858,0.0,0.0,0.5,0.5,0.0,-9.318889617919922,-9.566305160522461,0.0,0.0,0.0,0,9
1678467085.91953921,52933818,0.0,0.0,0.5,0.5,0.0,-9.334590911865234,-9.180027961730957,0.0,0.0,0.0,0,7
1678467086.01949906,53033778,0.0,0.0,0.5,0.5,0.0,-9.343474388122559,-9.477873802185059,0.0,0.0,0.0,0,6
1678467086.11945915,53133738,0.0,0.0,0.5,0.5,0.0,-9.350630760192871,-9.435151100158691,0.0,0.0,0.0,0,5
1678467086.21941900,53233698,0.0,0.0,0.5,0.5,0.0,-9.361048698425293,-9.142045021057129,0.0,0.0,0.0,0,4
1678467086.31937909,53333658,0.0,0.0,0.5,0.5,0.0,-9.361598014831543,-9.272038459777832,0.0,0.0,0.0,0,4
1678467086.41933918,53433618,0.0,0.0,0.5,0.5,0.0,-9.354169845581055,-9.505316734313965,0.0,0.0,0.0,0,4
1678467086.51929903,53533578,0.0,0.0,0.5,0.5,0.0,-9.353021621704102,-9.278697967529297,0.0,0.0,0.0,0,4
1678467086.61925912,53633538,0.0,0.0,0.5,0.5,0.0,-9.352887153625488,-9.18762493133545,0.0,0.0,0.0,0,4
1678467086.71921921,53733498,0.0,0.0,0.5,0.5,0.0,-9.345484733581543,-9.308347702026367,0.0,0.0,0.0,0,4
1678467086.82001209,53834291,0.0,0.0,0.5,0.5,0.0,-9.335458755493164,-9.282772064208984,0.0,0.0,0.0,0,4
1678467086.91997218,53934251,0.0,0.0,0.5,0.5,0.0,-9.326558113098145,-9.064254760742188,0.0,0.0,0.0,0,4
1678467087.01993203,54034211,0.0,0.0,0.5,0.5,0.0,-9.30832576751709,-9.124490737915039,0.0,0.0,0.0,0,5
1678467087.11989212,54134171,0.0,0.0,0.5,0.5,0.0,-9.283941268920898,-9.233384132385254,0.0,0.0,0.0,0,7
1678467087.21985221,54234131,0.0,0.0,0.5,0.5,0.0,-9.261927604675293,-9.250869750976562,0.0,0.0,0.0,0,8
1678467087.31981206,54334091,0.0,0.0,0.5,0.5,0.0,-9.244734764099121,-9.146209716796875,0.0,0.0,0.0,0,8
1678467087.41977215,54434051,0.0,0.0,0.5,0.5,0.0,-9.227411270141602,-9.159117698669434,0.0,0.0,0.0,0,9
1678467087.51973200,54534011,0.0,0.0,0.5,0.5,0.0,-9.209944725036621,-9.171469688415527,0.0,0.0,0.0,0,9
1678467087.61969209,54633971,0.0,0.0,0.5,0.5,0.0,-9.1937894821167,-9.047393798828125,0.0,0.0,0.0,0,10
1678467087.71965218,54733931,0.0,0.0,0.5,0.5,0.0,-9.174103736877441,-9.308246612548828,0.0,0.0,0.0,0,10
1678467087.81961203,54833891,0.0,0.0,0.5,0.5,0.0,-9.162689208984375,-9.2164945602417,0.0,0.0,0.0,0,10
1678467087.91957211,54933851,0.0,0.0,0.5,0.5,0.0,-9.15721607208252,-9.314513206481934,0.0,0.0,0.0,0,10
1678467088.01953220,55033811,0.0,0.0,0.5,0.5,0.0,-9.15951919555664,-9.264495849609375,0.0,0.0,0.0,0,9
1678467088.11949205,55133771,0.0,0.0,0.5,0.5,0.0,-9.166540145874023,-9.337818145751953,0.0,0.0,0.0,0,7
1678467088.21945214,55233731,0.0,0.0,0.5,0.5,0.0,-9.179438591003418,-9.214457511901855,0.0,0.0,0.0,0,6
1678467088.31941199,55333691,0.0,0.0,0.5,0.5,0.0,-9.19167423248291,-9.205085754394531,0.0,0.0,0.0,0,4
1678467088.41937208,55433651,0.0,0.0,0.5,0.5,0.0,-9.201081275939941,-9.051359176635742,0.0,0.0,0.0,0,3
1678467088.51933217,55533611,0.0,0.0,0.5,0.5,0.0,-9.20125675201416,-9.252647399902344,0.0,0.0,0.0,0,3
1678467088.61929202,55633571,0.0,0.0,0.5,0.5,0.0,-9.201910018920898,-9.021476745605469,0.0,0.0,0.0,0,3
1678467088.71925211,55733531,0.0,0.0,0.5,0.5,0.0,-9.195449829101562,-9.160935401916504,0.0,0.0,0.0,0,3
1678467088.81921220,55833491,0.0,0.0,0.5,0.5,0.0,-9.187439918518066,-9.135369300842285,0.0,0.0,0.0,0,4
1678467088.92000508,55934284,0.0,0.0,0.5,0.5,0.0,-9.179452896118164,-9.042630195617676,0.0,0.0,0.0,0,4
1678467089.01996517,56034244,0.0,0.0,0.5,0.5,0.0,-9.167564392089844,-9.073368072509766,0.0,0.0,0.0,0,4
1678467089.11992502,56134204,0.0,0.0,0.5,0.5,0.0,-9.15383529663086,-9.088053703308105,0.0,0.0,0.0,0,5
1678467089.21988511,56234164,0.0,0.0,0.5,0.5,0.0,-9.14005184173584,-8.8627347946167,0.0,0.0,0.0,0,6
1678467089.31984520,56334124,0.0,0.0,0.5,0.5,0.0,-9.118718147277832,-8.879287719726562,0.0,0.0,0.0,0,7
1678467089.41980505,56434084,0.0,0.0,0.5,0.5,0.0,-9.088838577270508,-8.912464141845703,0.0,0.0,0.0,0,8
1678467089.51976514,56534044,0.0,0.0,0.5,0.5,0.0,-9.055737495422363,-8.972940444946289,0.0,0.0,0.0,0,10
1678467089.61972523,56634004,0.0,0.0,0.5,0.5,0.0,-9.024687767028809,-9.071027755737305,0.0,0.0,0.0,0,11
1678467089.71968508,56733964,0.0,0.0,0.5,0.5,0.0,-9.00129508972168,-8.809447288513184,0.0,0.0,0.0,0,12
1678467089.81964517,56833924,0.0,0.0,0.5,0.5,0.0,-8.97676944732666,-8.895058631896973,0.0,0.0,0.0,0,13
1678467089.91960502,56933884,0.0,0.0,0.5,0.5,0.0,-8.950307846069336,-9.136653900146484,0.0,0.0,0.0,0,14
1678467090.01956511,57033844,0.0,0.0,0.5,0.5,0.0,-8.934357643127441,-9.076623916625977,0.0,0.0,0.0,0,14
1678467090.11952519,57133804,0.0,0.0,0.5,0.5,0.0,-8.929451942443848,-8.806633949279785,0.0,0.0,0.0,0,13
1678467090.21948504,57233764,0.0,0.0,0.5,0.5,0.0,-8.921468734741211,-8.911198616027832,0.0,0.0,0.0,0,12
1678467090.31944513,57333724,0.0,0.0,0.5,0.5,0.0,-8.910179138183594,-9.11824893951416,0.0,0.0,0.0,0,12
1678467090.41940522,57433684,0.0,0.0,0.5,0.5,0.0,-8.907027244567871,-9.033393859863281,0.0,0.0,0.0,0,12
1678467090.51936507,57533644,0.0,0.0,0.5,0.5,0.0,-8.911127090454102,-8.95775318145752,0.0,0.0,0.0,0,10
1678467090.61932516,57633604,0.0,0.0,0.5,0.5,0.0,-8.915935516357422,-8.822860717773438,0.0,0.0,0.0,0,9
1678467090.71928501,57733564,0.0,0.0,0.5,0.5,0.0,-8.914668083190918,-9.010101318359375,0.0,0.0,0.0,0,9
1678467090.81924510,57833524,0.0,0.0,0.5,0.5,0.0,-8.913594245910645,-8.970685005187988,0.0,0.0,0.0,0,8
1678467090.91920519,57933484,0.0,0.0,0.5,0.5,0.0,-8.915266990661621,-8.986692428588867,0.0,0.0,0.0,0,8
1678467091.01999807,58034277,0.0,0.0,0.5,0.5,0.0,-8.91883659362793,-8.876474380493164,0.0,0.0,0.0,0,7
1678467091.11995816,58134237,0.0,0.0,0.5,0.5,0.0,-8.920127868652344,-8.796588897705078,0.0,0.0,0.0,0,6
1678467091.21991801,58234197,0.0,0.0,0.5,0.5,0.0,-8.914679527282715,-8.959564208984375,0.0,0.0,0.0,0,6
1678467091.31987810,58334157,0.0,0.0,0.5,0.5,0.0,-8.909270286560059,-8.914237022399902,0.0,0.0,0.0,0,6
1678467091.41983819,58434117,0.0,0.0,0.5,0.5,0.0,-8.905998229980469,-8.735514640808105,0.0,0.0,0.0,0,6
1678467091.51979804,58534077,0.0,0.0,0.5,0.5,0.0,-8.896846771240234,-8.85328197479248,0.0,0.0,0.0,0,6
1678467091.61975813,58634037,0.0,0.0,0.5,0.5,0.0,-8.884824752807617,-8.71387004852295,0.0,0.0,0.0,0,7
1678467091.71971822,58733997,0.0,0.0,0.5,0.5,0.0,-8.868532180786133,-8.683369636535645,0.0,0.0,0.0,0,7
1678467091.81967807,58833957,0.0,0.0,0.5,0.5,0.0,-8.845916748046875,-8.971700668334961,0.0,0.0,0.0,0,9
1678467091.91963816,58933917,0.0,0.0,0.5,0.5,0.0,-8.83012866973877,-8.752300262451172,0.0,0.0,0.0,0,9
1678467092.01959801,59033877,0.0,0.0,0.5,0.5,0.0,-8.817605018615723,-8.73406982421875,0.0,0.0,0.0,0,9
1678467092.11955810,59133837,0.0,0.0,0.5,0.5,0.0,-8.802899360656738,-8.84679889678955,0.0,0.0,0.0,0,9
1678467092.21951818,59233797,0.0,0.0,0.5,0.5,0.0,-8.791186332702637,-8.670499801635742,0.0,0.0,0.0,0,9
1678467092.31947803,59333757,0.0,0.0,0.5,0.5,0.0,-8.777899742126465,-8.631060600280762,0.0,0.0,0.0,0,10
1678467092.41943812,59433717,0.0,0.0,0.5,0.5,0.0,-8.759074211120605,-8.800155639648438,0.0,0.0,0.0,0,10
1678467092.51939821,59533677,0.0,0.0,0.5,0.5,0.0,-8.742724418640137,-8.535890579223633,0.0,0.0,0.0,0,11
1678467092.61935806,59633637,0.0,0.0,0.5,0.5,0.0,-8.7224702835083,-8.657753944396973,0.0,0.0,0.0,0,11
1678467092.71931815,59733597,0.0,0.0,0.5,0.5,0.0,-8.699604988098145,-8.78866195678711,0.0,0.0,0.0,0,12
1678467092.81927800,59833557,0.0,0.0,0.5,0.5,0.0,-8.68329906463623,-8.755780220031738,0.0,0.0,0.0,0,12
1678467092.91923809,59933517,0.0,0.0,0.5,0.5,0.0,-8.673982620239258,-8.554425239562988,0.0,0.0,0.0,0,12
1678467093.01919818,60033477,0.0,0.0,0.5,0.5,0.0,-8.661985397338867,-8.568603515625,0.0,0.0,0.0,0,12
1678467093.11999106,60134270,0.0,0.0,0.5,0.5,0.0,-8.644442558288574,-8.743568420410156,0.0,0.0,0.0,0,12
1678467093.21995115,60234230,0.0,0.0,0.5,0.5,0.0,-8.632795333862305,-8.80328369140625,0.0,0.0,0.0,0,12
1678467093.31991100,60334190,0.0,0.0,0.5,0.5,0.0,-8.630743026733398,-8.592674255371094,0.0,0.0,0.0,0,11
1678467093.41987109,60434150,0.0,0.0,0.5,0.5,0.0,-8.62744140625,-8.819591522216797,0.0,0.0,0.0,0,11
1678467093.51983118,60534110,0.0,0.0,0.5,0.5,0.0,-8.63084602355957,-8.709019660949707,0.0,0.0,0.0,0,10
1678467093.61979103,60634070,0.0,0.0,0.5,0.5,0.0,-8.637129783630371,-8.481605529785156,0.0,0.0,0.0,0,9
1678467093.71975112,60734030,0.0,0.0,0.5,0.5,0.0,-8.634066581726074,-8.39849853515625,0.0,0.0,0.0,0,8
1678467093.81971121,60833990,0.0,0.0,0.5,0.5,0.0,-8.617947578430176,-8.419052124023438,0.0,0.0,0.0,0,9
1678467093.91967106,60933950,0.0,0.0,0.5,0.5,0.0,-8.593012809753418,-8.412590980529785,0.0,0.0,0.0,0,10
1678467094.01963115,61033910,0.0,0.0,0.5,0.5,0.0,-8.563074111938477,-8.724096298217773,0.0,0.0,0.0,0,12
1678467094.11959100,61133870,0.0,0.0,0.5,0.5,0.0,-8.543156623840332,-8.421134948730469,0.0,0.0,0.0,0,12
1678467094.21955109,61233830,0.0,0.0,0.5,0.5,0.0,-8.525659561157227,-8.461984634399414,0.0,0.0,0.0,0,13
1678467094.31951118,61333790,0.0,0.0,0.5,0.5,0.0,-8.506134986877441,-8.34229850769043,0.0,0.0,0.0,0,13
1678467094.41947103,61433750,0.0,0.0,0.5,0.5,0.0,-8.482417106628418,-8.723221778869629,0.0,0.0,0.0,0,14
1678467094.51943111,61533710,0.0,0.0,0.5,0.5,0.0,-8.468679428100586,-8.430601119995117,0.0,0.0,0.0,0,14
1678467094.61939120,61633670,0.0,0.0,0.5,0.5,0.0,-8.459610939025879,-8.559060096740723,0.0,0.0,0.0,0,13
1678467094.71935105,61733630,0.0,0.0,0.5,0.5,0.0,-8.45332145690918,-8.490645408630371,0.0,0.0,0.0,0,13
1678467094.81931114,61833590,0.0,0.0,0.5,0.5,0.0,-8.44950008392334,-8.612967491149902,0.0,0.0,0.0,0,12
1678467094.91927099,61933550,0.0,0.0,0.5,0.5,0.0,-8.451001167297363,-8.635390281677246,0.0,0.0,0.0,0,11
1678467095.01923108,62033510,0.0,0.0,0.5,0.5,0.0,-8.459799766540527,-8.317585945129395,0.0,0.0,0.0,0,9
1678467095.11919117,62133470,0.0,0.0,0.5,0.5,0.0,-8.46231460571289,-8.476195335388184,0.0,0.0,0.0,0,9
1678467095.21998405,62234263,0.0,0.0,0.5,0.5,0.0,-8.459860801696777,-8.30601978302002,0.0,0.0,0.0,0,8
1678467095.31994414,62334223,0.0,0.0,0.5,0.5,0.0,-8.451170921325684,-8.411561965942383,0.0,0.0,0.0,0,9
1678467095.41990399,62434183,0.0,0.0,0.5,0.5,0.0,-8.4390287399292,-8.349726676940918,0.0,0.0,0.0,0,9
1678467095.51986408,62534143,0.0,0.0,0.5,0.5,0.0,-8.424948692321777,-8.3363037109375,0.0,0.0,0.0,0,9
1678467095.61982417,62634103,0.0,0.0,0.5,0.5,0.0,-8.408587455749512,-8.568415641784668,0.0,0.0,0.0,0,10
1678467095.71978402,62734063,0.0,0.0,0.5,0.5,0.0,-8.399679183959961,-8.471748352050781,0.0,0.0,0.0,0,10
1678467095.81974411,62834023,0.0,0.0,0.5,0.5,0.0,-8.397811889648438,-8.402302742004395,0.0,0.0,0.0,0,9
1678467095.91970420,62933983,0.0,0.0,0.5,0.5,0.0,-8.396707534790039,-8.249320030212402,0.0,0.0,0.0,0,8
1678467096.01966405,63033943,0.0,0.0,0.5,0.5,0.0,-8.389189720153809,-8.253113746643066,0.0,0.0,0.0,0,8
1678467096.11962414,63133903,0.0,0.0,0.5,0.5,0.0,-8.374688148498535,-8.182374954223633,0.0,0.0,0.0,0,9
1678467096.21958423,63233863,0.0,0.0,0.5,0.5,0.0,-8.353307723999023,-8.205476760864258,0.0,0.0,0.0,0,10
1678467096.31954408,63333823,0.0,0.0,0.5,0.5,0.0,-8.327471733093262,-8.169890403747559,0.0,0.0,0.0,0,11
1678467096.41950417,63433783,0.0,0.0,0.5,0.5,0.0,-8.298758506774902,-8.406956672668457,0.0,0.0,0.0,0,12
1678467096.51946402,63533743,0.0,0.0,0.5,0.5,0.0,-8.27745532989502,-8.174299240112305,0.0,0.0,0.0,0,13
1678467096.61942410,63633703,0.0,0.0,0.5,0.5,0.0,-8.258564949035645,-8.3681640625,0.0,0.0,0.0,0,13
1678467096.71938419,63733663,0.0,0.0,0.5,0.5,0.0,-8.244866371154785,-8.148270606994629,0.0,0.0,0.0,0,13
1678467096.81934404,63833623,0.0,0.0,0.5,0.5,0.0,-8.231281280517578,-8.261631965637207,0.0,0.0,0.0,0,13
1678467096.91930413,63933583,0.0,0.0,0.5,0.5,0.0,-8.21828842163086,-8.264028549194336,0.0,0.0,0.0,0,13
1678467097.01926422,64033543,0.0,0.0,0.5,0.5,0.0,-8.208768844604492,-8.366448402404785,0.0,0.0,0.0,0,13
1678467097.11922407,64133503,0.0,0.0,0.5,0.5,0.0,-8.206212997436523,-8.373930931091309,0.0,0.0,0.0,0,12
1678467097.22001719,64234296,0.0,0.0,0.5,0.5,0.0,-8.213409423828125,-8.392091751098633,0.0,0.0,0.0,0,10
1678467097.31997705,64334256,0.0,0.0,0.5,0.5,0.0,-8.225310325622559,-8.448448181152344,0.0,0.0,0.0,0,9
1678467097.41993713,64434216,0.0,0.0,0.5,0.5,0.0,-8.244060516357422,-8.1981782913208,0.0,0.0,0.0,0,7
1678467097.51989722,64534176,0.0,0.0,0.5,0.5,0.0,-8.257068634033203,-8.34911060333252,0.0,0.0,0.0,0,5
1678467097.61985707,64634136,0.0,0.0,0.5,0.5,0.0,-8.269021987915039,-8.069258689880371,0.0,0.0,0.0,0,4
1678467097.71981716,64734096,0.0,0.0,0.5,0.5,0.0,-8.269622802734375,-8.34420394897461,0.0,0.0,0.0,0,4
1678467097.81977701,64834056,0.0,0.0,0.5,0.5,0.0,-8.270669937133789,-8.157980918884277,0.0,0.0,0.0,0,4
1678467097.91973710,64934016,0.0,0.0,0.5,0.5,0.0,-8.267650604248047,-8.00444221496582,0.0,0.0,0.0,0,4
1678467098.01969719,65033976,0.0,0.0,0.5,0.5,0.0,-8.252873420715332,-8.247983932495117,0.0,0.0,0.0,0,4
1678467098.11965704,65133936,0.0,0.0,0.5,0.5,0.0,-8.238966941833496,-8.222108840942383,0.0,0.0,0.0,0,5
1678467098.21961713,65233896,0.0,0.0,0.5,0.5,0.0,-8.228534698486328,-8.361568450927734,0.0,0.0,0.0,0,5
1678467098.31957722,65333856,0.0,0.0,0.5,0.5,0.0,-8.226853370666504,-8.065624237060547,0.0,0.0,0.0,0,5
1678467098.41953707,65433816,0.0,0.0,0.5,0.5,0.0,-8.22053337097168,-7.95739221572876,0.0,0.0,0.0,0,5
1678467098.51949716,65533776,0.0,0.0,0.5,0.5,0.0,-8.202554702758789,-7.961485385894775,0.0,0.0,0.0,0,6
1678467098.61945701,65633736,0.0,0.0,0.5,0.5,0.0,-8.175739288330078,-8.286526679992676,0.0,0.0,0.0,0,7
1678467098.71941710,65733696,0.0,0.0,0.5,0.5,0.0,-8.158051490783691,-8.088964462280273,0.0,0.0,0.0,0,8
1678467098.81937718,65833656,0.0,0.0,0.5,0.5,0.0,-8.143351554870605,-7.95514440536499,0.0,0.0,0.0,0,8
1678467098.91933703,65933616,0.0,0.0,0.5,0.5,0.0,-8.123005867004395,-8.058504104614258,0.0,0.0,0.0,0,9
1678467099.01929712,66033576,0.0,0.0,0.5,0.5,0.0,-8.102249145507812,-8.148661613464355,0.0,0.0,0.0,0,10
1678467099.11925721,66133536,0.0,0.0,0.5,0.5,0.0,-8.087448120117188,-8.10641098022461,0.0,0.0,0.0,0,10
1678467099.21921706,66233496,0.0,0.0,0.5,0.5,0.0,-8.076957702636719,-8.02157211303711,0.0,0.0,0.0,0,10
1678467099.32001019,66334289,0.0,0.0,0.5,0.5,0.0,-8.065730094909668,-8.084155082702637,0.0,0.0,0.0,0,10
1678467099.41997004,66434249,0.0,0.0,0.5,0.5,0.0,-8.05630874633789,-8.142509460449219,0.0,0.0,0.0,0,10
1678467099.51993012,66534209,0.0,0.0,0.4762499928474426,0.5,0.0,-8.051410675048828,-7.988643169403076,0.0,0.0,0.0,0,9
1678467099.61989021,66634169,0.0,0.0,0.25,0.5,0.0,-8.047947883605957,-8.159141540527344,0.0,0.0,0.0,0,0
1678467099.71985006,66734129,0.0,0.0,0.25,0.5,0.0,-8.066234588623047,-8.183913230895996,0.0,0.0,0.0,0,-22
1678467099.81981015,66834089,0.0,0.0,0.25,0.5,0.0,-8.111412048339844,-8.180520057678223,0.0,0.0,0.0,0,-41
1678467099.91977000,66934049,0.0,0.0,0.25,0.5,0.0,-8.174060821533203,-8.061140060424805,0.0,0.0,0.0,0,-52
1678467100.01973009,67034009,0.0,0.0,0.25,0.5,0.0,-8.240066528320312,-8.01616096496582,0.0,0.0,0.0,0,-58
1678467100.11969018,67133969,0.0,0.0,0.25,0.5,0.0,-8.30008602142334,-8.386773109436035,0.0,0.0,0.0,0,-61
1678467100.21965003,67233929,0.0,0.0,0.25,0.5,0.0,-8.363787651062012,-8.402352333068848,0.0,0.0,0.0,0,-62
1678467100.31961012,67333889,0.0,0.0,0.25,0.5,0.0,-8.434602737426758,-8.491787910461426,0.0,0.0,0.0,0,-63
1678467100.41957021,67433849,0.0,0.0,0.25,0.5,0.0,-8.510154724121094,-8.300994873046875,0.0,0.0,0.0,0,-64
1678467100.51953006,67533809,0.0,0.0,0.25,0.5,0.0,-8.579615592956543,-8.352042198181152,0.0,0.0,0.0,0,-65
1678467100.61949015,67633769,0.0,0.0,0.25,0.5,0.0,-8.638887405395508,-8.553302764892578,0.0,0.0,0.0,0,-64
1678467100.71945000,67733729,0.0,0.0,0.25,0.5,0.0,-8.695874214172363,-8.53926944732666,0.0,0.0,0.0,0,-64
1678467100.81941009,67833689,0.0,0.0,0.25,0.5,0.0,-8.751420021057129,-8.750094413757324,0.0,0.0,0.0,0,-63
1678467100.91937017,67933649,0.0,0.0,0.25,0.5,0.0,-8.810169219970703,-8.761886596679688,0.0,0.0,0.0,0,-63
1678467101.01933002,68033609,0.0,0.0,0.25,0.5,0.0,-8.872464179992676,-8.797290802001953,0.0,0.0,0.0,0,-63
1678467101.11929011,68133569,0.0,0.0,0.25,0.5,0.0,-8.9352388381958,-8.891905784606934,0.0,0.0,0.0,0,-63
1678467101.21925020,68233529,0.0,0.0,0.25,0.5,0.0,-8.998970985412598,-9.037423133850098,0.0,0.0,0.0,0,-63
1678467101.31921005,68333489,0.0,0.0,0.25,0.5,0.0,-9.067021369934082,-8.922037124633789,0.0,0.0,0.0,0,-63
1678467101.42000318,68434282,0.0,0.0,0.25,0.5,0.0,-9.133549690246582,-9.20202922821045,0.0,0.0,0.0,0,-64
1678467101.51996303,68534242,0.0,0.0,0.25,0.5,0.0,-9.202409744262695,-8.914270401000977,0.0,0.0,0.0,0,-64
1678467101.61992311,68634202,0.0,0.0,0.25,0.5,0.0,-9.264582633972168,-9.129844665527344,0.0,0.0,0.0,0,-64
1678467101.71988320,68734162,0.0,0.0,0.25,0.5,0.0,-9.320570945739746,-9.284575462341309,0.0,0.0,0.0,0,-63
1678467101.81984305,68834122,0.0,0.0,0.25,0.5,0.0,-9.378328323364258,-9.17278003692627,0.0,0.0,0.0,0,-63
1678467101.91980314,68934082,0.0,0.0,0.25,0.5,0.0,-9.43381118774414,-9.24953842163086,0.0,0.0,0.0,0,-62
1678467102.01976299,69034042,0.0,0.0,0.25,0.5,0.0,-9.48458194732666,-9.417250633239746,0.0,0.0,0.0,0,-61
1678467102.11972308,69134002,0.0,0.0,0.25,0.5,0.0,-9.53659439086914,-9.56455135345459,0.0,0.0,0.0,0,-61
