,TimeUS,timestamp,ThI,ABst,ThO,ThH,DAlt,Alt,BAlt,DSAlt,SAlt,TAlt,DCRt,CRt,terrain_z,sub_z,rf
0,12234271,1678467045.219992,0.0,0.0,0.5,0.5,0.0,-0.2559021115303039,-0.2052363753318786,0.0,0.0,0.0,0,2,,,
1,12334231,1678467045.319952,0.0,0.0,0.5,0.5,0.0,-0.258287101984024,-0.2598285973072052,0.0,0.0,0.0,0,2,,,
2,12434191,1678467045.419912,0.0,0.0,0.5,0.5,0.0,-0.2582931518554687,-0.2046269178390503,0.0,0.0,0.0,0,2,,,
3,12534151,1678467045.519872,0.0,0.0,0.5,0.5,0.0,-0.2548253834247589,-0.4158107340335846,0.0,0.0,0.0,0,2,,,
4,12634111,1678467045.619832,0.0,0.0,0.5,0.5,0.0,-0.2580755949020386,-0.0610140301287174,0.0,0.0,0.0,0,2,,,
5,12734071,1678467045.719792,0.0,0.0,0.5,0.5,0.0,-0.2526032626628876,-0.3724473714828491,0.0,0.0,0.0,0,2,,,
6,12834031,1678467045.8197522,0.0,0.0,0.5,0.5,0.0,-0.2505574226379394,-0.4537304639816284,0.0,0.0,0.0,0,2,,,
7,12933991,1678467045.919712,0.0,0.0,0.5,0.5,0.0,-0.2591691017150879,-0.1372361332178115,0.0,0.0,0.0,0,1,,,
8,13033951,1678467046.019672,0.0,0.0,0.5,0.5,0.0,-0.2617176473140716,-0.0911367982625961,0.0,0.0,0.0,0,1,,,
9,13133911,1678467046.119632,0.0,0.0,0.5,0.5,0.0,-0.2533315420150757,-0.0625653713941574,0.0,0.0,0.0,0,2,,,
10,13233871,1678467046.219592,0.0,0.0,0.5,0.5,0.0,-0.2354701161384582,-0.3243431150913238,0.0,0.0,0.0,0,3,,,
11,13333831,1678467046.319552,0.0,0.0,0.5,0.5,0.0,-0.2232207804918289,-0.0866350457072258,0.0,0.0,0.0,0,4,,,
12,13433791,1678467046.419512,0.0,0.0,0.5,0.5,0.0,-0.2082793712615966,-0.1831317692995071,0.0,0.0,0.0,0,5,,,
13,13533751,1678467046.519472,0.0,0.0,0.5,0.5,0.0,-0.193205252289772,-0.1628762781620025,0.0,0.0,0.0,0,5,,,
14,13633711,1678467046.6194322,0.0,0.0,0.5,0.5,0.0,-0.1790847331285476,-0.1427941620349884,0.0,0.0,0.0,0,6,,,
15,13733671,1678467046.719392,0.0,0.0,0.5,0.5,0.0,-0.1650607883930206,-0.1740453541278839,0.0,0.0,0.0,0,7,,,
16,13833631,1678467046.819352,0.0,0.0,0.5,0.5,0.0,-0.1528802961111068,-0.1290322095155716,0.0,0.0,0.0,0,7,,,
17,13933591,1678467046.919312,0.0,0.0,0.5,0.5,0.0,-0.1409469991922378,-0.0841477960348129,0.0,0.0,0.0,0,7,,,
18,14033551,1678467047.019272,0.0,0.0,0.5,0.5,0.0,-0.1270485669374466,-0.2619658708572387,0.0,0.0,0.0,0,8,,,
19,14133511,1678467047.119232,0.0,0.0,0.5,0.5,0.0,-0.1199433505535125,-0.2830767631530761,0.0,0.0,0.0,0,8,,,
20,14233471,1678467047.219192,0.0,0.0,0.5,0.5,0.0,-0.1215624585747718,-0.3283912539482116,0.0,0.0,0.0,0,7,,,
21,14334264,1678467047.3199852,0.0,0.0,0.5,0.5,0.0,-0.1318269222974777,-0.0563392862677574,0.0,0.0,0.0,0,5,,,
22,14434224,1678467047.419945,0.0,0.0,0.5,0.5,0.0,-0.1370484679937362,-0.3076662123203277,0.0,0.0,0.0,0,5,,,
23,14534184,1678467047.519905,0.0,0.0,0.5,0.5,0.0,-0.1448560059070587,-0.0853435918688774,0.0,0.0,0.0,0,-1,,,
24,14634144,1678467047.6198652,0.0,0.0,0.5,0.5,0.0,-0.1546978205442428,-0.106708787381649,0.0,0.0,0.0,0,-1,,,
25,14734104,1678467047.719825,0.0,0.0,0.5,0.5,0.0,-0.1585858166217804,-0.3897130191326141,0.0,0.0,0.0,0,-1,,,
26,14834064,1678467047.819785,0.0,0.0,0.5,0.5,0.0,-0.1695714741945266,-0.0532485656440258,0.0,0.0,0.0,0,-2,,,
27,14934024,1678467047.9197452,0.0,0.0,0.5,0.5,0.0,-0.178103893995285,-0.1216218918561935,0.0,0.0,0.0,0,-2,,,
28,15033984,1678467048.019705,0.0,0.0,0.5,0.5,0.0,-0.1800052225589752,-0.324231892824173,0.0,0.0,0.0,0,-2,,,
29,15133944,1678467048.1196651,0.0,0.0,0.5,0.5,0.0,-0.1863897293806076,-0.1830034255981445,0.0,0.0,0.0,0,-2,,,
30,15233904,1678467048.219625,0.0,0.0,0.5,0.5,0.0,-0.1945005059242248,-0.1800195276737213,0.0,0.0,0.0,0,-2,,,
31,15333864,1678467048.319585,0.0,0.0,0.5,0.5,0.0,-0.2003847807645797,-0.3683669567108154,0.0,0.0,0.0,0,-2,,,
32,15433824,1678467048.4195452,0.0,0.0,0.5,0.5,0.0,-0.2116385549306869,-0.2104336768388748,0.0,0.0,0.0,0,-3,,,
33,15533784,1678467048.519505,0.0,0.0,0.5,0.5,0.0,-0.2240992337465286,-0.1796603947877884,0.0,0.0,0.0,0,-4,,,
34,15633744,1678467048.619465,0.0,0.0,0.5,0.5,0.0,-0.2323006391525268,-0.236272320151329,0.0,0.0,0.0,0,-4,,,
35,15733704,1678467048.7194252,0.0,0.0,0.5,0.5,0.0,-0.2385728359222412,-0.3417542278766632,0.0,0.0,0.0,0,-4,,,
36,15833664,1678467048.819385,0.0,0.0,0.5,0.5,0.0,-0.2484602928161621,-0.3123337924480438,0.0,0.0,0.0,0,-4,,,
37,15933624,1678467048.9193451,0.0,0.0,0.5,0.5,0.0,-0.2615851759910583,-0.1564815789461136,0.0,0.0,0.0,0,-5,,,
38,16033584,1678467049.0193052,0.0,0.0,0.5,0.5,0.0,-0.2697225511074066,-0.1330269426107406,0.0,0.0,0.0,0,-5,,,
39,16133544,1678467049.119265,0.0,0.0,0.5,0.5,0.0,-0.2696079611778259,-0.0829101577401161,0.0,0.0,0.0,0,-4,,,
40,16233504,1678467049.2192252,0.0,0.0,0.5,0.5,0.0,-0.2609970271587372,-0.4020958244800567,0.0,0.0,0.0,0,-3,,,
41,16333464,1678467049.319185,0.0,0.0,0.5,0.5,0.0,-0.2579375803470611,-0.1087575703859329,0.0,0.0,0.0,0,-3,,,
42,16434257,1678467049.419978,0.0,0.0,0.5,0.5,0.0,-0.2542883157730102,-0.0753822550177574,0.0,0.0,0.0,0,-2,,,
43,16534217,1678467049.519938,0.0,0.0,0.5,0.5,0.0,-0.2426690757274627,-0.3818000555038452,0.0,0.0,0.0,0,-1,,,
44,16634177,1678467049.619898,0.0,0.0,0.5,0.5,0.0,-0.2369274795055389,-0.0704631730914115,0.0,0.0,0.0,0,0,,,
45,16734137,1678467049.719858,0.0,0.0,0.5,0.5,0.0,-0.2299059629440307,-0.1082286387681961,0.0,0.0,0.0,0,0,,,
46,16834097,1678467049.819818,0.0,0.0,0.5,0.5,0.0,-0.2169921994209289,-0.0587719231843948,0.0,0.0,0.0,0,0,,,
47,16934057,1678467049.919778,0.0,0.0,0.5,0.5,0.0,-0.1991028934717178,-0.3438062071800232,0.0,0.0,0.0,0,2,,,
48,17034017,1678467050.0197382,0.0,0.0,0.5,0.5,0.0,-0.1883566230535507,-0.3667263090610504,0.0,0.0,0.0,0,3,,,
49,17133977,1678467050.119698,0.0,0.0,0.5,0.5,0.0,-0.190100759267807,-0.3174310326576233,0.0,0.0,0.0,0,2,,,
50,17233937,1678467050.219658,0.0,0.0,0.5,0.5,0.0,-0.199253648519516,-0.1830755770206451,0.0,0.0,0.0,0,1,,,
51,17333897,1678467050.3196182,0.0,0.0,0.5,0.5,0.0,-0.2070007622241974,-0.1118435114622116,0.0,0.0,0.0,0,1,,,
52,17433857,1678467050.419578,0.0,0.0,0.5,0.5,0.0,-0.207663431763649,-0.1815007179975509,0.0,0.0,0.0,0,1,,,
53,17533817,1678467050.519538,0.0,0.0,0.5,0.5,0.0,-0.2043719887733459,-0.1931855827569961,0.0,0.0,0.0,0,1,,,
54,17633777,1678467050.619498,0.0,0.0,0.5,0.5,0.0,-0.2003131806850433,-0.3761818408966064,0.0,0.0,0.0,0,1,,,
55,17733737,1678467050.719458,0.0,0.0,0.5,0.5,0.0,-0.2033112794160843,-0.0800637751817703,0.0,0.0,0.0,0,1,,,
56,17833697,1678467050.819418,0.0,0.0,0.5,0.5,0.0,-0.2035746127367019,-0.4064425230026245,0.0,0.0,0.0,0,1,,,
57,17933657,1678467050.919378,0.0,0.0,0.5,0.5,0.0,-0.2083264142274856,-0.3238456547260284,0.0,0.0,0.0,0,1,,,
58,18033617,1678467051.019338,0.0,0.0,0.5,0.5,0.0,-0.2498379200696945,-0.2874242663383484,0.0,0.0,0.0,0,0,,,
59,18133577,1678467051.1192982,0.0,0.0,0.5,0.5,0.0,-0.262560099363327,-0.2259187698364257,0.0,0.0,0.0,0,0,,,
60,18233537,1678467051.219258,0.0,0.0,0.5,0.5,0.0,-0.272438108921051,-0.4602650701999664,0.0,0.0,0.0,0,-1,,,
61,18333497,1678467051.319218,0.0,0.0,0.5,0.5,0.0,-0.2877458333969116,-0.152681365609169,0.0,0.0,0.0,0,-2,,,
62,18434290,1678467051.420011,0.0,0.0,0.5,0.5,0.0,-0.2998725473880768,-0.1597995012998581,0.0,0.0,0.0,0,-2,,,
63,18534250,1678467051.5199711,0.0,0.0,0.5,0.5,0.0,-0.3010235726833343,-0.1734945029020309,0.0,0.0,0.0,0,-2,,,
64,18634210,1678467051.6199312,0.0,0.0,0.5,0.5,0.0,-0.2964504361152649,-0.3965936005115509,0.0,0.0,0.0,0,-1,,,
65,18734170,1678467051.719891,0.0,0.0,0.5,0.5,0.0,-0.2983554601669311,-0.4055381119251251,0.0,0.0,0.0,0,-1,,,
66,18834130,1678467051.8198512,0.0,0.0,0.5,0.5,0.0,-0.3083681464195251,-0.4361997842788696,0.0,0.0,0.0,0,-2,,,
67,18934090,1678467051.919811,0.0,0.0,0.5,0.5,0.0,-0.3253898918628692,-0.2125011980533599,0.0,0.0,0.0,0,-3,,,
68,19034050,1678467052.019771,0.0,0.0,0.5,0.5,0.0,-0.3368760347366333,-0.4232712984085083,0.0,0.0,0.0,0,-4,,,
69,19134010,1678467052.1197312,0.0,0.0,0.4399999976158142,0.5,0.0,-0.3504914343357086,-0.4122186005115509,0.0,0.0,0.0,0,-5,,,
70,19233970,1678467052.219691,0.0,0.0,0.25,0.5,0.0,-0.3725377321243286,-0.1876706033945083,0.0,0.0,0.0,0,-20,,,
71,19333930,1678467052.3196511,0.0,0.0,0.25,0.5,0.0,-0.4059858620166778,-0.304692268371582,0.0,0.0,0.0,0,-40,,,
72,19433890,1678467052.4196112,0.0,0.0,0.25,0.5,0.0,-0.4516979455947876,-0.1755827516317367,0.0,0.0,0.0,0,-54,,,
73,19533850,1678467052.519571,0.0,0.0,0.25,0.5,0.0,-0.4986360371112823,-0.5398090481758118,0.0,0.0,0.0,0,-60,,,
74,19633810,1678467052.6195312,0.0,0.0,0.25,0.5,0.0,-0.5534247159957886,-0.4013217389583587,0.0,0.0,0.0,0,-63,,,
75,19733770,1678467052.719491,0.0,0.0,0.25,0.5,0.0,-0.6119149923324585,-0.5692920684814453,0.0,0.0,0.0,0,-64,,,
76,19833730,1678467052.819451,0.0,0.0,0.25,0.5,0.0,-0.6725975871086121,-0.5446719527244568,0.0,0.0,0.0,0,-65,,,
77,19933690,1678467052.9194112,0.0,0.0,0.25,0.5,0.0,-0.7334960699081421,-0.5804324746131897,0.0,0.0,0.0,0,-65,,,
78,20033650,1678467053.019371,0.0,0.0,0.25,0.5,0.0,-0.7915371060371399,-0.6245643496513367,0.0,0.0,0.0,0,-65,,,
79,20133610,1678467053.1193311,0.0,0.0,0.25,0.5,0.0,-0.8462964296340942,-0.9009853601455688,0.0,0.0,0.0,0,-64,,,
80,20233570,1678467053.2192912,0.0,0.0,0.25,0.5,0.0,-0.9068962931632996,-0.9431023001670836,0.0,0.0,0.0,0,-64,,,
81,20333530,1678467053.319251,0.0,0.0,0.25,0.5,0.0,-0.975472331047058,-0.9155727624893188,0.0,0.0,0.0,0,-64,,,
82,20433490,1678467053.4192111,0.0,0.0,0.25,0.5,0.0,-1.0455292463302612,-0.8506154417991638,0.0,0.0,0.0,0,-65,,,
83,20534283,1678467053.520004,0.0,0.0,0.25,0.5,0.0,-1.1099175214767456,-0.8167003989219666,0.0,0.0,0.0,0,-65,,,
84,20634243,1678467053.619964,0.0,0.0,0.25,0.5,0.0,-1.162770390510559,-1.172599196434021,0.0,0.0,0.0,0,-64,,,
85,20734203,1678467053.7199242,0.0,0.0,0.25,0.5,0.0,-1.2174421548843384,-1.0157246589660645,0.0,0.0,0.0,0,-63,,,
86,20834163,1678467053.819884,0.0,0.0,0.25,0.5,0.0,-1.2713918685913086,-1.0789353847503662,0.0,0.0,0.0,0,-62,,,
87,20934123,1678467053.919844,0.0,0.0,0.25,0.5,0.0,-1.319985032081604,-1.131587266921997,0.0,0.0,0.0,0,-61,,,
88,21034083,1678467054.019804,0.0,0.0,0.25,0.5,0.0,-1.3657370805740356,-1.2491848468780518,0.0,0.0,0.0,0,-60,,,
89,21134043,1678467054.119764,0.0,0.0,0.25,0.5,0.0,-1.4116381406784058,-1.2596559524536133,0.0,0.0,0.0,0,-59,,,
90,21234003,1678467054.219724,0.0,0.0,0.25,0.5,0.0,-1.4574265480041504,-1.4162511825561523,0.0,0.0,0.0,0,-58,,,
91,21333963,1678467054.319684,0.0,0.0,0.25,0.5,0.0,-1.5068315267562866,-1.4238213300704956,0.0,0.0,0.0,0,-57,,,
92,21433923,1678467054.419644,0.0,0.0,0.25,0.5,0.0,-1.5583844184875488,-1.4825900793075562,0.0,0.0,0.0,0,-57,,,
93,21533883,1678467054.5196042,0.0,0.0,0.25,0.5,0.0,-1.6109458208084106,-1.6471372842788696,0.0,0.0,0.0,0,-57,,,
94,21633843,1678467054.619564,0.0,0.0,0.25,0.5,0.0,-1.6685339212417605,-1.6959295272827148,0.0,0.0,0.0,0,-57,,,
95,21733803,1678467054.719524,0.0,0.0,0.25,0.5,0.0,-1.731588363647461,-1.9156285524368288,0.0,0.0,0.0,0,-57,,,
96,21833763,1678467054.819484,0.0,0.0,0.25,0.5,0.0,-1.8044430017471316,-1.930680751800537,0.0,0.0,0.0,0,-59,,,
97,21933723,1678467054.919444,0.0,0.0,0.25,0.5,0.0,-1.8854647874832156,-2.021471738815308,0.0,0.0,0.0,0,-60,,,
98,22033683,1678467055.019404,0.0,0.0,0.25,0.5,0.0,-1.9717521667480469,-1.740703582763672,0.0,0.0,0.0,0,-62,,,
99,22133643,1678467055.119364,0.0,0.0,0.25,0.5,0.0,-2.0480856895446777,-2.0101709365844727,0.0,0.0,0.0,0,-63,,,
100,22233603,1678467055.219324,0.0,0.0,0.25,0.5,0.0,-2.117528200149536,-2.0298664569854736,0.0,0.0,0.0,0,-63,,,
101,22333563,1678467055.3192842,0.0,0.0,0.25,0.5,0.0,-2.184576272964477,-2.117539405822754,0.0,0.0,0.0,0,-63,,,
102,22433523,1678467055.419244,0.0,0.0,0.25,0.5,0.0,-2.249907732009888,-2.027207851409912,0.0,0.0,0.0,0,-63,,,
103,22533483,1678467055.519204,0.0,0.0,0.25,0.5,0.0,-2.3085238933563232,-2.4168143272399902,0.0,0.0,0.0,0,-63,,,
104,22634276,1678467055.619997,0.0,0.0,0.25,0.5,0.0,-2.373142719268799,-2.119199514389038,0.0,0.0,0.0,0,-63,,,
105,22734236,1678467055.719957,0.0,0.0,0.25,0.5,0.0,-2.431697130203247,-2.2714173793792725,0.0,0.0,0.0,0,-63,,,
106,22834196,1678467055.8199172,0.0,0.0,0.25,0.5,0.0,-2.484907865524292,-2.5650038719177246,0.0,0.0,0.0,0,-62,,,
107,22934156,1678467055.919877,0.0,0.0,0.25,0.5,0.0,-2.5464603900909424,-2.4416446685791016,0.0,0.0,0.0,0,-62,,,
108,23034116,1678467056.0198371,0.0,0.0,0.25,0.5,0.0,-2.608243942260742,-2.4563958644866943,0.0,0.0,0.0,0,-62,,,
109,23134076,1678467056.1197972,0.0,0.0,0.25,0.5,0.0,-2.6663308143615723,-2.5312275886535645,0.0,0.0,0.0,0,-62,,,
110,23234036,1678467056.219757,0.0,0.0,0.25,0.5,0.0,-2.7214317321777344,-2.6083688735961914,0.0,0.0,0.0,0,-61,,,
111,23333996,1678467056.3197172,0.0,0.0,0.25,0.5,0.0,-2.775508403778076,-2.6324050426483154,0.0,0.0,0.0,0,-60,,,
112,23433956,1678467056.419677,0.0,0.0,0.25,0.5,0.0,-2.828134059906006,-2.7944133281707764,0.0,0.0,0.0,0,-60,,,
113,23533916,1678467056.519637,0.0,0.0,0.25,0.5,0.0,-2.883306741714477,-2.877659320831299,0.0,0.0,0.0,0,-59,,,
114,23633876,1678467056.6195972,0.0,0.0,0.25,0.5,0.0,-2.9433741569519043,-2.9576220512390137,0.0,0.0,0.0,0,-60,,,
115,23733836,1678467056.719557,0.0,0.0,0.25,0.5,0.0,-3.008193254470825,-2.753668785095215,0.0,0.0,0.0,0,-60,,,
116,23833796,1678467056.8195171,0.0,0.0,0.25,0.5,0.0,-3.0643270015716557,-2.838848114013672,0.0,0.0,0.0,0,-60,,,
117,23933756,1678467056.9194772,0.0,0.0,0.25,0.5,0.0,-3.111785888671875,-3.0098063945770264,0.0,0.0,0.0,0,-58,,,
118,24033716,1678467057.019437,0.0,0.0,0.25,0.5,0.0,-3.15891695022583,-3.3409461975097656,0.0,0.0,0.0,0,-58,,,
119,24133676,1678467057.1193972,0.0,0.0,0.25,0.5,0.0,-3.2203800678253174,-3.222693681716919,0.0,0.0,0.0,0,-58,,,
120,24233636,1678467057.219357,0.0,0.0,0.25,0.5,0.0,-3.2876744270324707,-3.110267162322998,0.0,0.0,0.0,0,-59,,,
121,24333596,1678467057.319317,0.0,0.0,0.25,0.5,0.0,-3.348417043685913,-3.3086647987365723,0.0,0.0,0.0,0,-59,,,
122,24433556,1678467057.4192772,0.0,0.0,0.25,0.5,0.0,-3.4083495140075684,-3.3765130043029785,0.0,0.0,0.0,0,-59,,,
123,24533516,1678467057.519237,0.0,0.0,0.25,0.5,0.0,-3.4699809551239014,-3.506078720092773,0.0,0.0,0.0,0,-59,,,
124,24633476,1678467057.6191971,0.0,0.0,0.25,0.5,0.0,-3.536115884780884,-3.3219172954559326,0.0,0.0,0.0,0,-59,,,
125,24734269,1678467057.71999,0.0,0.0,0.25,0.5,0.0,-3.5954430103302,-3.421895742416382,0.0,0.0,0.0,0,-59,,,
126,24834229,1678467057.81995,0.0,0.0,0.25,0.5,0.0,-3.6478986740112314,-3.787447452545166,0.0,0.0,0.0,0,-58,,,
127,24934189,1678467057.91991,0.0,0.0,0.25,0.5,0.0,-3.707826375961304,-3.773738861083984,0.0,0.0,0.0,0,-59,,,
128,25034149,1678467058.01987,0.0,0.0,0.25,0.5,0.0,-3.7768304347991934,-3.837067127227783,0.0,0.0,0.0,0,-59,,,
129,25134109,1678467058.11983,0.0,0.0,0.25,0.5,0.0,-3.8500277996063232,-3.751479625701904,0.0,0.0,0.0,0,-61,,,
130,25234069,1678467058.2197902,0.0,0.0,0.25,0.5,0.0,-3.920903205871582,-3.9887349605560303,0.0,0.0,0.0,0,-61,,,
131,25334029,1678467058.31975,0.0,0.0,0.25,0.5,0.0,-3.9931373596191406,-3.941732406616211,0.0,0.0,0.0,0,-62,,,
132,25433989,1678467058.41971,0.0,0.0,0.25,0.5,0.0,-4.065451622009277,-4.100950241088867,0.0,0.0,0.0,0,-63,,,
133,25533949,1678467058.51967,0.0,0.0,0.25,0.5,0.0,-4.139469623565674,-3.973726987838745,0.0,0.0,0.0,0,-63,,,
134,25633909,1678467058.61963,0.0,0.0,0.25,0.5,0.0,-4.208028793334961,-4.019340515136719,0.0,0.0,0.0,0,-64,,,
135,25733869,1678467058.71959,0.0,0.0,0.25,0.5,0.0,-4.268123626708984,-4.319553375244141,0.0,0.0,0.0,0,-63,,,
136,25833829,1678467058.81955,0.0,0.0,0.25,0.5,0.0,-4.331204891204834,-4.11466121673584,0.0,0.0,0.0,0,-63,,,
137,25933789,1678467058.91951,0.0,0.0,0.25,0.5,0.0,-4.391073226928711,-4.348805904388428,0.0,0.0,0.0,0,-63,,,
138,26033749,1678467059.0194702,0.0,0.0,0.25,0.5,0.0,-4.449778079986572,-4.355348587036133,0.0,0.0,0.0,0,-63,,,
139,26133709,1678467059.11943,0.0,0.0,0.25,0.5,0.0,-4.509268760681152,-4.607697486877441,0.0,0.0,0.0,0,-62,,,
140,26233669,1678467059.21939,0.0,0.0,0.25,0.5,0.0,-4.575674057006836,-4.664608478546143,0.0,0.0,0.0,0,-63,,,
141,26333629,1678467059.31935,0.0,0.0,0.25,0.5,0.0,-4.65071439743042,-4.693608283996582,0.0,0.0,0.0,0,-64,,,
142,26433589,1678467059.41931,0.0,0.0,0.25,0.5,0.0,-4.730019569396973,-4.713662147521973,0.0,0.0,0.0,0,-65,,,
143,26533549,1678467059.51927,0.0,0.0,0.25,0.5,0.0,-4.809319019317627,-4.584425449371338,0.0,0.0,0.0,0,-66,,,
144,26633509,1678467059.61923,0.0,0.0,0.25,0.5,0.0,-4.879519939422607,-4.918941974639893,0.0,0.0,0.0,0,-66,,,
145,26733469,1678467059.71919,0.0,0.0,0.25,0.5,0.0,-4.949377536773682,-4.957508563995361,0.0,0.0,0.0,0,-67,,,
146,26834262,1678467059.819983,0.0,0.0,0.25,0.5,0.0,-5.024092674255371,-4.685798645019531,0.0,0.0,0.0,0,-67,,,
147,26934222,1678467059.919943,0.0,0.0,0.25,0.5,0.0,-5.087520599365234,-4.809041976928711,0.0,0.0,0.0,0,-67,,,
148,27034182,1678467060.0199032,0.0,0.0,0.25,0.5,0.0,-5.138461112976074,-5.175315856933594,0.0,0.0,0.0,0,-65,,,
149,27134142,1678467060.119863,0.0,0.0,0.25,0.5,0.0,-5.193375110626221,-5.256039619445801,0.0,0.0,0.0,0,-65,,,
150,27234102,1678467060.2198231,0.0,0.0,0.25,0.5,0.0,-5.259535312652588,-5.248833656311035,0.0,0.0,0.0,0,-65,,,
151,27334062,1678467060.3197832,0.0,0.0,0.25,0.5,0.0,-5.330915927886963,-5.308841705322266,0.0,0.0,0.0,0,-66,,,
152,27434022,1678467060.419743,0.0,0.0,0.25,0.5,0.0,-5.404051780700684,-5.371358394622803,0.0,0.0,0.0,0,-66,,,
153,27533982,1678467060.5197031,0.0,0.0,0.25,0.5,0.0,-5.477886199951172,-5.391512870788574,0.0,0.0,0.0,0,-67,,,
154,27633942,1678467060.619663,0.0,0.0,0.25,0.5,0.0,-5.55097770690918,-5.440814018249512,0.0,0.0,0.0,0,-67,,,
155,27733902,1678467060.719623,0.0,0.0,0.25,0.5,0.0,-5.61968469619751,-5.624879837036133,0.0,0.0,0.0,0,-68,,,
156,27833862,1678467060.8195832,0.0,0.0,0.25,0.5,0.0,-5.691304683685303,-5.644852638244629,0.0,0.0,0.0,0,-68,,,
157,27933822,1678467060.919543,0.0,0.0,0.25,0.5,0.0,-5.764344215393066,-5.763935565948486,0.0,0.0,0.0,0,-68,,,
158,28033782,1678467061.019503,0.0,0.0,0.25,0.5,0.0,-5.839942455291748,-5.650318145751953,0.0,0.0,0.0,0,-69,,,
159,28133742,1678467061.1194632,0.0,0.0,0.25,0.5,0.0,-5.9094767570495605,-5.578184127807617,0.0,0.0,0.0,0,-69,,,
160,28233702,1678467061.219423,0.0,0.0,0.25,0.5,0.0,-5.965621948242188,-5.880115509033203,0.0,0.0,0.0,0,-68,,,
161,28333662,1678467061.3193831,0.0,0.0,0.25,0.5,0.0,-6.021439075469971,-5.692692756652832,0.0,0.0,0.0,0,-67,,,
162,28433622,1678467061.4193428,0.0,0.0,0.25,0.5,0.0,-6.069035530090332,-5.997630596160889,0.0,0.0,0.0,0,-65,,,
163,28533582,1678467061.519303,0.0,0.0,0.25,0.5,0.0,-6.118934154510498,-5.832377910614014,0.0,0.0,0.0,0,-64,,,
164,28633542,1678467061.6192632,0.0,0.0,0.25,0.5,0.0,-6.163804054260254,-5.89042329788208,0.0,0.0,0.0,0,-63,,,
165,28733502,1678467061.719223,0.0,0.0,0.25,0.5,0.0,-6.202296733856201,-6.050548553466797,0.0,0.0,0.0,0,-61,,,
166,28834295,1678467061.820016,0.0,0.0,0.25,0.5,0.0,-6.241992473602295,-5.989085674285889,0.0,0.0,0.0,0,-59,,,
167,28934255,1678467061.919976,0.0,0.0,0.25,0.5,0.0,-6.278172492980957,-6.142590999603272,0.0,0.0,0.0,0,-58,,,
168,29034215,1678467062.019936,0.0,0.0,0.25,0.5,0.0,-6.315643310546875,-6.352266311645508,0.0,0.0,0.0,0,-56,,,
169,29134175,1678467062.119896,0.0,0.0,0.25,0.5,0.0,-6.363029003143311,-6.286267757415772,0.0,0.0,0.0,0,-56,,,
170,29234135,1678467062.219856,0.0,0.0,0.25,0.5,0.0,-6.413775444030762,-6.526858329772949,0.0,0.0,0.0,0,-55,,,
171,29334095,1678467062.319816,0.0,0.0,0.25,0.5,0.0,-6.474584579467773,-6.395103454589844,0.0,0.0,0.0,0,-56,,,
172,29434055,1678467062.4197762,0.0,0.0,0.25,0.5,0.0,-6.535876274108887,-6.548962116241455,0.0,0.0,0.0,0,-56,,,
173,29534015,1678467062.519736,0.0,0.0,0.25,0.5,0.0,-6.599082946777344,-6.511117458343506,0.0,0.0,0.0,0,-57,,,
174,29633975,1678467062.619696,0.0,0.0,0.25,0.5,0.0,-6.660773754119873,-6.435276508331299,0.0,0.0,0.0,0,-57,,,
175,29733935,1678467062.7196562,0.0,0.0,0.25,0.5,0.0,-6.712860584259033,-6.626532077789307,0.0,0.0,0.0,0,-56,,,
176,29833895,1678467062.819616,0.0,0.0,0.25,0.5,0.0,-6.762857437133789,-6.819079399108887,0.0,0.0,0.0,0,-56,,,
177,29933855,1678467062.919576,0.0,0.0,0.25,0.5,0.0,-6.819756984710693,-6.765255928039551,0.0,0.0,0.0,0,-56,,,
178,30033815,1678467063.019536,0.0,0.0,0.25,0.5,0.0,-6.878394603729248,-7.035556316375732,0.0,0.0,0.0,0,-56,,,
179,30133775,1678467063.119496,0.0,0.0,0.25,0.5,0.0,-6.946523189544678,-6.992644309997559,0.0,0.0,0.0,0,-57,,,
180,30233735,1678467063.2194562,0.0,0.0,0.25,0.5,0.0,-7.019355297088623,-6.9138360023498535,0.0,0.0,0.0,0,-58,,,
181,30333695,1678467063.319416,0.0,0.0,0.25,0.5,0.0,-7.087230682373047,-7.090466499328613,0.0,0.0,0.0,0,-58,,,
182,30433655,1678467063.419376,0.0,0.0,0.25,0.5,0.0,-7.15470552444458,-7.227813243865967,0.0,0.0,0.0,0,-59,,,
183,30533615,1678467063.5193362,0.0,0.0,0.25,0.5,0.0,-7.226842403411865,-7.167153358459473,0.0,0.0,0.0,0,-60,,,
184,30633575,1678467063.619296,0.0,0.0,0.25,0.5,0.0,-7.297406673431396,-7.184473037719727,0.0,0.0,0.0,0,-60,,,
185,30733535,1678467063.719256,0.0,0.0,0.25,0.5,0.0,-7.362809181213379,-7.371057033538818,0.0,0.0,0.0,0,-61,,,
186,30833495,1678467063.819216,0.0,0.0,0.25,0.5,0.0,-7.429575443267822,-7.387105464935303,0.0,0.0,0.0,0,-61,,,
187,30934288,1678467063.9200091,0.0,0.0,0.25,0.5,0.0,-7.497335433959961,-7.335921764373779,0.0,0.0,0.0,0,-61,,,
188,31034248,1678467064.0199692,0.0,0.0,0.25,0.5,0.0,-7.558930397033691,-7.37724494934082,0.0,0.0,0.0,0,-61,,,
189,31134208,1678467064.119929,0.0,0.0,0.25,0.5,0.0,-7.614498615264893,-7.602476119995117,0.0,0.0,0.0,0,-61,,,
190,31234168,1678467064.2198892,0.0,0.0,0.25,0.5,0.0,-7.671270370483398,-7.774512767791748,0.0,0.0,0.0,0,-60,,,
191,31334128,1678467064.319849,0.0,0.0,0.25,0.5,0.0,-7.736501216888428,-7.59718132019043,0.0,0.0,0.0,0,-61,,,
192,31434088,1678467064.419809,0.0,0.0,0.25,0.5,0.0,-7.801527976989746,-7.7966742515563965,0.0,0.0,0.0,0,-61,,,
193,31534048,1678467064.5197692,0.0,0.0,0.25,0.5,0.0,-7.866194725036621,-7.952704906463623,0.0,0.0,0.0,0,-61,,,
194,31634008,1678467064.619729,0.0,0.0,0.25,0.5,0.0,-7.937119483947754,-7.893679618835449,0.0,0.0,0.0,0,-62,,,
195,31733968,1678467064.7196891,0.0,0.0,0.25,0.5,0.0,-8.009998321533203,-8.001948356628418,0.0,0.0,0.0,0,-63,,,
196,31833928,1678467064.8196492,0.0,0.0,0.25,0.5,0.0,-8.08218765258789,-7.803057193756103,0.0,0.0,0.0,0,-63,,,
197,31933888,1678467064.919609,0.0,0.0,0.25,0.5,0.0,-8.144731521606445,-8.21184253692627,0.0,0.0,0.0,0,-63,,,
198,32033848,1678467065.0195692,0.0,0.0,0.25,0.5,0.0,-8.208333015441895,-7.884082317352295,0.0,0.0,0.0,0,-63,,,
199,32133808,1678467065.119529,0.0,0.0,0.25,0.5,0.0,-8.264815330505371,-7.936823844909668,0.0,0.0,0.0,0,-62,,,
200,32233768,1678467065.219489,0.0,0.0,0.25,0.5,0.0,-8.307744979858398,-8.335786819458008,0.0,0.0,0.0,0,-61,,,
201,32333728,1678467065.3194492,0.0,0.0,0.25,0.5,0.0,-8.354643821716309,-8.425737380981445,0.0,0.0,0.0,0,-60,,,
202,32433688,1678467065.419409,0.0,0.0,0.25,0.5,0.0,-8.413320541381836,-8.461337089538574,0.0,0.0,0.0,0,-60,,,
203,32533648,1678467065.5193691,0.0,0.0,0.25,0.5,0.0,-8.480179786682129,-8.452189445495605,0.0,0.0,0.0,0,-60,,,
204,32633608,1678467065.6193292,0.0,0.0,0.25,0.5,0.0,-8.549345970153809,-8.438493728637695,0.0,0.0,0.0,0,-61,,,
205,32733568,1678467065.719289,0.0,0.0,0.25,0.5,0.0,-8.6153564453125,-8.703584671020508,0.0,0.0,0.0,0,-62,,,
206,32833528,1678467065.8192492,0.0,0.0,0.25,0.5,0.0,-8.68524169921875,-8.497139930725098,0.0,0.0,0.0,0,-62,,,
207,32933488,1678467065.919209,0.0,0.0,0.25,0.5,0.0,-8.751420021057129,-8.6480712890625,0.0,0.0,0.0,0,-62,,,
208,33034281,1678467066.020002,0.0,0.0,0.25,0.5,0.0,-8.812768936157227,-8.682340621948242,0.0,0.0,0.0,0,-62,,,
209,33134241,1678467066.1199622,0.0,0.0,0.25,0.5,0.0,-8.870829582214355,-8.581217765808105,0.0,0.0,0.0,0,-62,,,
210,33234201,1678467066.219922,0.0,0.0,0.25,0.5,0.0,-8.919147491455078,-8.69166088104248,0.0,0.0,0.0,0,-61,,,
211,33334161,1678467066.319882,0.0,0.0,0.25,0.5,0.0,-8.960953712463379,-8.850576400756836,0.0,0.0,0.0,0,-59,,,
212,33434121,1678467066.419842,0.0,0.0,0.25,0.5,0.0,-9.003540992736816,-8.900794982910156,0.0,0.0,0.0,0,-58,,,
213,33534081,1678467066.519802,0.0,0.0,0.25,0.5,0.0,-9.04911994934082,-9.036260604858398,0.0,0.0,0.0,0,-57,,,
214,33634041,1678467066.619762,0.0,0.0,0.25,0.5,0.0,-9.10037899017334,-8.9360990524292,0.0,0.0,0.0,0,-56,,,
215,33734001,1678467066.719722,0.0,0.0,0.25,0.5,0.0,-9.149703025817873,-9.163385391235352,0.0,0.0,0.0,0,-56,,,
216,33833961,1678467066.819682,0.0,0.0,0.25,0.5,0.0,-9.20395565032959,-9.038119316101074,0.0,0.0,0.0,0,-56,,,
217,33933921,1678467066.9196422,0.0,0.0,0.25,0.5,0.0,-9.254956245422363,-9.46135425567627,0.0,0.0,0.0,0,-55,,,
218,34033881,1678467067.019602,0.0,0.0,0.25,0.5,0.0,-9.31848430633545,-9.290472984313965,0.0,0.0,0.0,0,-56,,,
219,34133841,1678467067.119562,0.0,0.0,0.25,0.5,0.0,-9.385296821594238,-9.23813533782959,0.0,0.0,0.0,0,-57,,,
220,34233801,1678467067.219522,0.0,0.0,0.25,0.5,0.0,-9.445818901062012,-9.392012596130373,0.0,0.0,0.0,0,-57,,,
221,34333761,1678467067.319482,0.0,0.0,0.25,0.5,0.0,-9.504552841186523,-9.540986061096191,0.0,0.0,0.0,0,-57,,,
222,34433721,1678467067.419442,0.0,0.0,0.25,0.5,0.0,-9.567497253417969,-9.52092742919922,0.0,0.0,0.0,0,-57,,,
223,34533681,1678467067.519402,0.0,0.0,0.25,0.5,0.0,-9.630963325500488,-9.425512313842772,0.0,0.0,0.0,0,-58,,,
224,34633641,1678467067.619362,0.0,0.0,0.25,0.5,0.0,-9.686423301696776,-9.533385276794434,0.0,0.0,0.0,0,-57,,,
225,34733601,1678467067.7193222,0.0,0.0,0.25,0.5,0.0,-9.73638916015625,-9.787801742553713,0.0,0.0,0.0,0,-56,,,
226,34833561,1678467067.819282,0.0,0.0,0.25,0.5,0.0,-9.792508125305176,-9.8761568069458,0.0,0.0,0.0,0,-56,,,
227,34933521,1678467067.919242,0.0,0.0,0.25,0.5,0.0,-9.857304573059082,-10.031177520751951,0.0,0.0,0.0,0,-57,,,
228,35033481,1678467068.019202,0.0,0.0,0.25,0.5,0.0,-9.932984352111816,-9.850635528564451,0.0,0.0,0.0,0,-58,,,
229,35134274,1678467068.119995,0.0,0.0,0.25,0.5,0.0,-10.006600379943848,-9.999101638793944,0.0,0.0,0.0,0,-60,,,
230,35234234,1678467068.2199552,0.0,0.0,0.25,0.5,0.0,-10.07814598083496,-10.003985404968262,0.0,0.0,0.0,0,-60,,,
231,35334194,1678467068.319915,0.0,0.0,0.25,0.5,0.0,-10.146760940551758,-10.106813430786133,0.0,0.0,0.0,0,-61,,,
232,35434154,1678467068.4198751,0.0,0.0,0.25,0.5,0.0,-10.213557243347168,-10.040359497070312,0.0,0.0,0.0,0,-61,,,
233,35534114,1678467068.519835,0.0,0.0,0.25,0.5,0.0,-10.274251937866213,-10.439091682434082,0.0,0.0,0.0,0,-61,,,
234,35634074,1678467068.619795,0.0,0.0,0.25,0.5,0.0,-10.342020988464355,-10.192205429077148,0.0,0.0,0.0,0,-61,,,
235,35734034,1678467068.7197552,0.0,0.0,0.25,0.5,0.0,-10.409473419189451,-10.517695426940918,0.0,0.0,0.0,0,-62,,,
236,35833994,1678467068.819715,0.0,0.0,0.5,0.5,0.0,-10.47943115234375,-10.414856910705566,0.0,0.0,0.0,0,-57,,,
237,35933954,1678467068.919675,0.0,0.0,0.5,0.5,0.0,-10.537714958190918,-10.626056671142578,0.0,0.0,0.0,0,-42,,,
238,36033914,1678467069.0196352,0.0,0.0,0.5,0.5,0.0,-10.587281227111816,-10.549793243408203,0.0,0.0,0.0,0,-35,,,
239,36133874,1678467069.119595,0.0,0.0,0.5,0.5,0.0,-10.630219459533691,-10.555721282958984,0.0,0.0,0.0,0,-30,,,
240,36233834,1678467069.2195551,0.0,0.0,0.5,0.5,0.0,-10.664515495300291,-10.46771240234375,0.0,0.0,0.0,0,-26,,,
241,36333794,1678467069.3195152,0.0,0.0,0.5,0.5,0.0,-10.68704891204834,-10.412545204162598,0.0,0.0,0.0,0,-23,,,
242,36433754,1678467069.419475,0.0,0.0,0.5,0.5,0.0,-10.69536590576172,-10.451828002929688,0.0,0.0,0.0,0,-19,,,
243,36533714,1678467069.5194352,0.0,0.0,0.5,0.5,0.0,-10.692720413208008,-10.483996391296388,0.0,0.0,0.0,0,-15,,,
244,36633674,1678467069.619395,0.0,0.0,0.5,0.5,0.0,-10.683707237243652,-10.547484397888184,0.0,0.0,0.0,0,-12,,,
245,36733634,1678467069.719355,0.0,0.0,0.5,0.5,0.0,-10.673009872436523,-10.58159351348877,0.0,0.0,0.0,0,-9,,,
246,36833594,1678467069.8193152,0.0,0.0,0.5,0.5,0.0,-10.663639068603516,-10.58623504638672,0.0,0.0,0.0,0,-6,,,
247,36933554,1678467069.919275,0.0,0.0,0.5,0.5,0.0,-10.655950546264648,-10.576904296875,0.0,0.0,0.0,0,-4,,,
248,37033514,1678467070.0192351,0.0,0.0,0.5,0.5,0.0,-10.64900016784668,-10.562928199768066,0.0,0.0,0.0,0,-3,,,
249,37133474,1678467070.1191952,0.0,0.0,0.5,0.5,0.0,-10.641632080078123,-10.740818977355955,0.0,0.0,0.0,0,-1,,,
250,37234267,1678467070.219988,0.0,0.0,0.5,0.5,0.0,-10.640496253967283,-10.721834182739258,0.0,0.0,0.0,0,0,,,
251,37334227,1678467070.3199482,0.0,0.0,0.5,0.5,0.0,-10.646529197692873,-10.580192565917969,0.0,0.0,0.0,0,0,,,
252,37434187,1678467070.419908,0.0,0.0,0.5,0.5,0.0,-10.65122127532959,-10.573175430297852,0.0,0.0,0.0,0,0,,,
253,37534147,1678467070.519868,0.0,0.0,0.5,0.5,0.0,-10.651148796081545,-10.613961219787598,0.0,0.0,0.0,0,0,,,
254,37634107,1678467070.6198282,0.0,0.0,0.5,0.5,0.0,-10.648839950561523,-10.767417907714844,0.0,0.0,0.0,0,1,,,
255,37734067,1678467070.719788,0.0,0.0,0.5,0.5,0.0,-10.651657104492188,-10.892287254333496,0.0,0.0,0.0,0,1,,,
256,37834027,1678467070.819748,0.0,0.0,0.5,0.5,0.0,-10.666029930114746,-10.731898307800291,0.0,0.0,0.0,0,1,,,
257,37933987,1678467070.919708,0.0,0.0,0.5,0.5,0.0,-10.684370040893556,-10.89452075958252,0.0,0.0,0.0,0,0,,,
258,38033947,1678467071.019668,0.0,0.0,0.5,0.5,0.0,-10.707611083984377,-10.83828830718994,0.0,0.0,0.0,0,-1,,,
259,38133907,1678467071.119628,0.0,0.0,0.5,0.5,0.0,-10.734536170959473,-10.649670600891112,0.0,0.0,0.0,0,-2,,,
260,38233867,1678467071.219588,0.0,0.0,0.5,0.5,0.0,-10.754278182983398,-10.767760276794434,0.0,0.0,0.0,0,-2,,,
261,38333827,1678467071.319548,0.0,0.0,0.5,0.5,0.0,-10.768524169921877,-10.82666015625,0.0,0.0,0.0,0,-3,,,
262,38433787,1678467071.4195082,0.0,0.0,0.5,0.5,0.0,-10.78296947479248,-10.74038028717041,0.0,0.0,0.0,0,-3,,,
263,38533747,1678467071.519468,0.0,0.0,0.5,0.5,0.0,-10.794777870178224,-10.625096321105955,0.0,0.0,0.0,0,-3,,,
264,38633707,1678467071.619428,0.0,0.0,0.5,0.5,0.0,-10.79775333404541,-10.680708885192873,0.0,0.0,0.0,0,-2,,,
265,38733667,1678467071.719388,0.0,0.0,0.5,0.5,0.0,-10.793874740600586,-10.615788459777832,0.0,0.0,0.0,0,-1,,,
266,38833627,1678467071.819348,0.0,0.0,0.5,0.5,0.0,-10.78377914428711,-10.783361434936523,0.0,0.0,0.0,0,0,,,
267,38933587,1678467071.919308,0.0,0.0,0.5,0.5,0.0,-10.77472972869873,-10.76722812652588,0.0,0.0,0.0,0,0,,,
268,39033547,1678467072.019268,0.0,0.0,0.5,0.5,0.0,-10.76966381072998,-10.546314239501951,0.0,0.0,0.0,0,1,,,
269,39133507,1678467072.119228,0.0,0.0,0.5,0.5,0.0,-10.75857639312744,-10.558964729309082,0.0,0.0,0.0,0,2,,,
270,39233467,1678467072.2191882,0.0,0.0,0.5,0.5,0.0,-10.737197875976562,-10.66876983642578,0.0,0.0,0.0,0,4,,,
271,39334260,1678467072.319981,0.0,0.0,0.5,0.5,0.0,-10.717761993408203,-10.774599075317385,0.0,0.0,0.0,0,5,,,
272,39434220,1678467072.4199412,0.0,0.0,0.5,0.5,0.0,-10.70580768585205,-10.771132469177246,0.0,0.0,0.0,0,6,,,
273,39534180,1678467072.519901,0.0,0.0,0.5,0.5,0.0,-10.700968742370604,-10.554902076721191,0.0,0.0,0.0,0,6,,,
274,39634140,1678467072.6198611,0.0,0.0,0.5,0.5,0.0,-10.69152545928955,-10.56401538848877,0.0,0.0,0.0,0,6,,,
275,39734100,1678467072.7198212,0.0,0.0,0.5,0.5,0.0,-10.676444053649902,-10.595987319946287,0.0,0.0,0.0,0,7,,,
276,39834060,1678467072.819781,0.0,0.0,0.5,0.5,0.0,-10.65954303741455,-10.743730545043944,0.0,0.0,0.0,0,8,,,
277,39934020,1678467072.9197412,0.0,0.0,0.5,0.5,0.0,-10.649306297302246,-10.542732238769531,0.0,0.0,0.0,0,8,,,
278,40033980,1678467073.019701,0.0,0.0,0.5,0.5,0.0,-10.63716983795166,-10.521870613098145,0.0,0.0,0.0,0,9,,,
279,40133940,1678467073.119661,0.0,0.0,0.5,0.5,0.0,-10.620402336120604,-10.63516616821289,0.0,0.0,0.0,0,9,,,
280,40233900,1678467073.2196212,0.0,0.0,0.5,0.5,0.0,-10.60580825805664,-10.407381057739258,0.0,0.0,0.0,0,10,,,
281,40333860,1678467073.319581,0.0,0.0,0.5,0.5,0.0,-10.586377143859863,-10.654072761535645,0.0,0.0,0.0,0,11,,,
282,40433820,1678467073.4195411,0.0,0.0,0.5,0.5,0.0,-10.569198608398438,-10.657255172729492,0.0,0.0,0.0,0,11,,,
283,40533780,1678467073.5195012,0.0,0.0,0.5,0.5,0.0,-10.559907913208008,-10.552237510681152,0.0,0.0,0.0,0,11,,,
284,40633740,1678467073.619461,0.0,0.0,0.5,0.5,0.0,-10.552775382995604,-10.643350601196287,0.0,0.0,0.0,0,11,,,
285,40733700,1678467073.7194211,0.0,0.0,0.5,0.5,0.0,-10.548952102661133,-10.664775848388672,0.0,0.0,0.0,0,10,,,
286,40833660,1678467073.819381,0.0,0.0,0.5,0.5,0.0,-10.55061149597168,-10.337559700012209,0.0,0.0,0.0,0,10,,,
287,40933620,1678467073.919341,0.0,0.0,0.5,0.5,0.0,-10.543986320495604,-10.523192405700684,0.0,0.0,0.0,0,9,,,
288,41033580,1678467074.0193012,0.0,0.0,0.5,0.5,0.0,-10.532135009765623,-10.341217041015623,0.0,0.0,0.0,0,10,,,
289,41133540,1678467074.119261,0.0,0.0,0.5,0.5,0.0,-10.514052391052246,-10.488014221191406,0.0,0.0,0.0,0,11,,,
290,41233500,1678467074.219221,0.0,0.0,0.5,0.5,0.0,-10.49431610107422,-10.449115753173828,0.0,0.0,0.0,0,11,,,
291,41334293,1678467074.320014,0.0,0.0,0.5,0.5,0.0,-10.475943565368652,-10.600092887878418,0.0,0.0,0.0,0,12,,,
292,41434253,1678467074.419974,0.0,0.0,0.5,0.5,0.0,-10.464709281921388,-10.428240776062012,0.0,0.0,0.0,0,12,,,
293,41534213,1678467074.519934,0.0,0.0,0.5,0.5,0.0,-10.455724716186523,-10.317684173583984,0.0,0.0,0.0,0,12,,,
294,41634173,1678467074.619894,0.0,0.0,0.5,0.5,0.0,-10.44096565246582,-10.59600830078125,0.0,0.0,0.0,0,12,,,
295,41734133,1678467074.719854,0.0,0.0,0.5,0.5,0.0,-10.431406021118164,-10.367805480957031,0.0,0.0,0.0,0,12,,,
296,41834093,1678467074.8198142,0.0,0.0,0.5,0.5,0.0,-10.42302131652832,-10.593077659606934,0.0,0.0,0.0,0,11,,,
297,41934053,1678467074.919774,0.0,0.0,0.5,0.5,0.0,-10.420042037963867,-10.257999420166016,0.0,0.0,0.0,0,11,,,
298,42034013,1678467075.019734,0.0,0.0,0.5,0.5,0.0,-10.41305160522461,-10.629939079284668,0.0,0.0,0.0,0,11,,,
299,42133973,1678467075.119694,0.0,0.0,0.5,0.5,0.0,-10.410927772521973,-10.558460235595703,0.0,0.0,0.0,0,10,,,
300,42233933,1678467075.219654,0.0,0.0,0.5,0.5,0.0,-10.417841911315918,-10.577146530151367,0.0,0.0,0.0,0,9,,,
301,42333893,1678467075.319614,0.0,0.0,0.5,0.5,0.0,-10.430356979370115,-10.317831039428713,0.0,0.0,0.0,0,7,,,
302,42433853,1678467075.419574,0.0,0.0,0.5,0.5,0.0,-10.436983108520508,-10.354650497436523,0.0,0.0,0.0,0,6,,,
303,42533813,1678467075.519534,0.0,0.0,0.5,0.5,0.0,-10.43523406982422,-10.50741195678711,0.0,0.0,0.0,0,6,,,
304,42633773,1678467075.6194942,0.0,0.0,0.5,0.5,0.0,-10.434465408325195,-10.431601524353027,0.0,0.0,0.0,0,5,,,
305,42733733,1678467075.719454,0.0,0.0,0.5,0.5,0.0,-10.434928894042969,-10.290518760681152,0.0,0.0,0.0,0,5,,,
306,42833693,1678467075.819414,0.0,0.0,0.5,0.5,0.0,-10.429455757141112,-10.273780822753906,0.0,0.0,0.0,0,5,,,
307,42933653,1678467075.9193742,0.0,0.0,0.5,0.5,0.0,-10.416470527648926,-10.225687980651855,0.0,0.0,0.0,0,6,,,
308,43033613,1678467076.019334,0.0,0.0,0.5,0.5,0.0,-10.39658546447754,-10.353476524353027,0.0,0.0,0.0,0,7,,,
309,43133573,1678467076.119294,0.0,0.0,0.5,0.5,0.0,-10.376638412475586,-10.130678176879885,0.0,0.0,0.0,0,8,,,
310,43233533,1678467076.219254,0.0,0.0,0.5,0.5,0.0,-10.3516845703125,-10.238750457763672,0.0,0.0,0.0,0,9,,,
311,43333493,1678467076.319214,0.0,0.0,0.5,0.5,0.0,-10.323781967163086,-10.32707977294922,0.0,0.0,0.0,0,10,,,
312,43434286,1678467076.4200072,0.0,0.0,0.5,0.5,0.0,-10.299538612365724,-10.257201194763184,0.0,0.0,0.0,0,11,,,
313,43534246,1678467076.519967,0.0,0.0,0.5,0.5,0.0,-10.280431747436523,-10.238699913024902,0.0,0.0,0.0,0,12,,,
314,43634206,1678467076.6199272,0.0,0.0,0.5,0.5,0.0,-10.262571334838867,-10.157816886901855,0.0,0.0,0.0,0,12,,,
315,43734166,1678467076.719887,0.0,0.0,0.5,0.5,0.0,-10.242542266845703,-10.197223663330078,0.0,0.0,0.0,0,13,,,
316,43834126,1678467076.819847,0.0,0.0,0.5,0.5,0.0,-10.222665786743164,-10.375770568847656,0.0,0.0,0.0,0,13,,,
317,43934086,1678467076.9198072,0.0,0.0,0.5,0.5,0.0,-10.21230411529541,-10.154841423034668,0.0,0.0,0.0,0,13,,,
318,44034046,1678467077.019767,0.0,0.0,0.5,0.5,0.0,-10.201902389526367,-10.436365127563477,0.0,0.0,0.0,0,12,,,
319,44134006,1678467077.1197271,0.0,0.0,0.5,0.5,0.0,-10.20181941986084,-10.366436004638672,0.0,0.0,0.0,0,11,,,
320,44233966,1678467077.2196872,0.0,0.0,0.5,0.5,0.0,-10.209952354431152,-10.36989688873291,0.0,0.0,0.0,0,10,,,
321,44333926,1678467077.319647,0.0,0.0,0.5,0.5,0.0,-10.22322940826416,-10.324624061584473,0.0,0.0,0.0,0,8,,,
322,44433886,1678467077.4196072,0.0,0.0,0.5,0.5,0.0,-10.237811088562012,-10.27764892578125,0.0,0.0,0.0,0,6,,,
323,44533846,1678467077.519567,0.0,0.0,0.5,0.5,0.0,-10.25022315979004,-10.171175956726074,0.0,0.0,0.0,0,5,,,
324,44633806,1678467077.619527,0.0,0.0,0.5,0.5,0.0,-10.255367279052734,-10.21275234222412,0.0,0.0,0.0,0,4,,,
325,44733766,1678467077.7194872,0.0,0.0,0.5,0.5,0.0,-10.255702018737791,-9.955751419067385,0.0,0.0,0.0,0,4,,,
326,44833726,1678467077.819447,0.0,0.0,0.5,0.5,0.0,-10.241735458374023,-10.097648620605469,0.0,0.0,0.0,0,5,,,
327,44933686,1678467077.9194071,0.0,0.0,0.5,0.5,0.0,-10.221158981323242,-10.112719535827637,0.0,0.0,0.0,0,6,,,
328,45033646,1678467078.0193672,0.0,0.0,0.5,0.5,0.0,-10.199466705322266,-10.13657283782959,0.0,0.0,0.0,0,7,,,
329,45133606,1678467078.119327,0.0,0.0,0.5,0.5,0.0,-10.179327011108398,-10.295782089233398,0.0,0.0,0.0,0,8,,,
330,45233566,1678467078.2192872,0.0,0.0,0.5,0.5,0.0,-10.168795585632324,-10.05220890045166,0.0,0.0,0.0,0,8,,,
331,45333526,1678467078.319247,0.0,0.0,0.5,0.5,0.0,-10.156871795654297,-10.101584434509276,0.0,0.0,0.0,0,8,,,
332,45433486,1678467078.419207,0.0,0.0,0.5,0.5,0.0,-10.14345645904541,-9.883910179138184,0.0,0.0,0.0,0,9,,,
333,45534279,1678467078.5200002,0.0,0.0,0.5,0.5,0.0,-10.12035846710205,-10.069940567016602,0.0,0.0,0.0,0,10,,,
334,45634239,1678467078.61996,0.0,0.0,0.5,0.5,0.0,-10.096919059753418,-10.169343948364258,0.0,0.0,0.0,0,11,,,
335,45734199,1678467078.71992,0.0,0.0,0.5,0.5,0.0,-10.080657958984377,-10.214916229248049,0.0,0.0,0.0,0,11,,,
336,45834159,1678467078.81988,0.0,0.0,0.5,0.5,0.0,-10.074204444885254,-9.84901237487793,0.0,0.0,0.0,0,10,,,
337,45934119,1678467078.91984,0.0,0.0,0.5,0.5,0.0,-10.062170028686523,-10.048715591430664,0.0,0.0,0.0,0,11,,,
338,46034079,1678467079.0198,0.0,0.0,0.5,0.5,0.0,-10.046606063842772,-10.047996520996094,0.0,0.0,0.0,0,11,,,
339,46134039,1678467079.11976,0.0,0.0,0.5,0.5,0.0,-10.03350830078125,-9.87637996673584,0.0,0.0,0.0,0,11,,,
340,46233999,1678467079.21972,0.0,0.0,0.5,0.5,0.0,-10.016316413879396,-9.869050979614258,0.0,0.0,0.0,0,11,,,
341,46333959,1678467079.3196802,0.0,0.0,0.5,0.5,0.0,-9.993114471435549,-10.15114688873291,0.0,0.0,0.0,0,12,,,
342,46433919,1678467079.41964,0.0,0.0,0.5,0.5,0.0,-9.977489471435549,-10.13301944732666,0.0,0.0,0.0,0,13,,,
343,46533879,1678467079.5196,0.0,0.0,0.5,0.5,0.0,-9.973278045654297,-9.86361026763916,0.0,0.0,0.0,0,12,,,
344,46633839,1678467079.61956,0.0,0.0,0.5,0.5,0.0,-9.96696662902832,-9.88588047027588,0.0,0.0,0.0,0,11,,,
345,46733799,1678467079.71952,0.0,0.0,0.5,0.5,0.0,-9.954834938049316,-9.993142127990724,0.0,0.0,0.0,0,11,,,
346,46833759,1678467079.81948,0.0,0.0,0.5,0.5,0.0,-9.94374656677246,-9.781946182250977,0.0,0.0,0.0,0,11,,,
347,46933719,1678467079.91944,0.0,0.0,0.5,0.5,0.0,-9.928262710571287,-10.09278964996338,0.0,0.0,0.0,0,12,,,
348,47033679,1678467080.0194,0.0,0.0,0.5,0.5,0.0,-9.91793441772461,-10.017468452453612,0.0,0.0,0.0,0,12,,,
349,47133639,1678467080.1193602,0.0,0.0,0.5,0.5,0.0,-9.915534019470217,-9.958674430847168,0.0,0.0,0.0,0,11,,,
350,47233599,1678467080.21932,0.0,0.0,0.5,0.5,0.0,-9.915349006652832,-9.78693962097168,0.0,0.0,0.0,0,10,,,
351,47333559,1678467080.31928,0.0,0.0,0.5,0.5,0.0,-9.90920352935791,-10.092663764953612,0.0,0.0,0.0,0,10,,,
352,47433519,1678467080.41924,0.0,0.0,0.5,0.5,0.0,-9.907315254211426,-10.094379425048828,0.0,0.0,0.0,0,9,,,
353,47533479,1678467080.5192,0.0,0.0,0.5,0.5,0.0,-9.915189743041992,-9.960721015930176,0.0,0.0,0.0,0,8,,,
354,47634272,1678467080.6199932,0.0,0.0,0.5,0.5,0.0,-9.92487621307373,-9.805450439453123,0.0,0.0,0.0,0,7,,,
355,47734232,1678467080.719953,0.0,0.0,0.5,0.5,0.0,-9.927116394042969,-10.020889282226562,0.0,0.0,0.0,0,6,,,
356,47834192,1678467080.8199131,0.0,0.0,0.5,0.5,0.0,-9.929072380065918,-9.707155227661133,0.0,0.0,0.0,0,5,,,
357,47934152,1678467080.919873,0.0,0.0,0.5,0.5,0.0,-9.923473358154297,-9.869096755981444,0.0,0.0,0.0,0,5,,,
358,48034112,1678467081.019833,0.0,0.0,0.5,0.5,0.0,-9.912615776062012,-9.864578247070312,0.0,0.0,0.0,0,6,,,
359,48134072,1678467081.1197932,0.0,0.0,0.5,0.5,0.0,-9.901667594909668,-9.936177253723145,0.0,0.0,0.0,0,6,,,
360,48234032,1678467081.219753,0.0,0.0,0.5,0.5,0.0,-9.893960952758787,-9.997767448425291,0.0,0.0,0.0,0,6,,,
361,48333992,1678467081.319713,0.0,0.0,0.5,0.5,0.0,-9.8928804397583,-9.620019912719728,0.0,0.0,0.0,0,6,,,
362,48433952,1678467081.4196732,0.0,0.0,0.5,0.5,0.0,-9.882572174072266,-9.844903945922852,0.0,0.0,0.0,0,6,,,
363,48533912,1678467081.519633,0.0,0.0,0.5,0.5,0.0,-9.869023323059082,-9.933170318603516,0.0,0.0,0.0,0,7,,,
364,48633872,1678467081.6195931,0.0,0.0,0.5,0.5,0.0,-9.861420631408691,-9.705556869506836,0.0,0.0,0.0,0,7,,,
365,48733832,1678467081.7195528,0.0,0.0,0.5,0.5,0.0,-9.849550247192385,-9.591574668884276,0.0,0.0,0.0,0,7,,,
366,48833792,1678467081.819513,0.0,0.0,0.5,0.5,0.0,-9.827020645141602,-9.620107650756836,0.0,0.0,0.0,0,8,,,
367,48933752,1678467081.9194732,0.0,0.0,0.5,0.5,0.0,-9.79755973815918,-9.893790245056152,0.0,0.0,0.0,0,10,,,
368,49033712,1678467082.019433,0.0,0.0,0.5,0.5,0.0,-9.777080535888672,-9.596375465393066,0.0,0.0,0.0,0,10,,,
369,49133672,1678467082.119393,0.0,0.0,0.5,0.5,0.0,-9.754388809204102,-9.555296897888184,0.0,0.0,0.0,0,11,,,
370,49233632,1678467082.2193532,0.0,0.0,0.5,0.5,0.0,-9.725262641906738,-9.867209434509276,0.0,0.0,0.0,0,12,,,
371,49333592,1678467082.319313,0.0,0.0,0.5,0.5,0.0,-9.70626163482666,-9.505011558532717,0.0,0.0,0.0,0,13,,,
372,49433552,1678467082.4192731,0.0,0.0,0.5,0.5,0.0,-9.683362007141112,-9.713408470153809,0.0,0.0,0.0,0,13,,,
373,49533512,1678467082.5192332,0.0,0.0,0.5,0.5,0.0,-9.66321086883545,-9.604949951171877,0.0,0.0,0.0,0,14,,,
374,49633472,1678467082.619193,0.0,0.0,0.5,0.5,0.0,-9.64391040802002,-9.821206092834473,0.0,0.0,0.0,0,14,,,
375,49734265,1678467082.7199862,0.0,0.0,0.5,0.5,0.0,-9.634336471557615,-9.78139877319336,0.0,0.0,0.0,0,14,,,
376,49834225,1678467082.819946,0.0,0.0,0.5,0.5,0.0,-9.633642196655272,-9.640097618103027,0.0,0.0,0.0,0,13,,,
377,49934185,1678467082.919906,0.0,0.0,0.5,0.5,0.0,-9.632611274719238,-9.47727394104004,0.0,0.0,0.0,0,12,,,
378,50034145,1678467083.0198662,0.0,0.0,0.5,0.5,0.0,-9.62232780456543,-9.468727111816406,0.0,0.0,0.0,0,12,,,
379,50134105,1678467083.119826,0.0,0.0,0.5,0.5,0.0,-9.603534698486328,-9.61790943145752,0.0,0.0,0.0,0,12,,,
380,50234065,1678467083.219786,0.0,0.0,0.5,0.5,0.0,-9.586010932922363,-9.66042137145996,0.0,0.0,0.0,0,13,,,
381,50334025,1678467083.319746,0.0,0.0,0.5,0.5,0.0,-9.574392318725586,-9.728009223937988,0.0,0.0,0.0,0,13,,,
382,50433985,1678467083.419706,0.0,0.0,0.5,0.5,0.0,-9.5713529586792,-9.531461715698242,0.0,0.0,0.0,0,12,,,
383,50533945,1678467083.519666,0.0,0.0,0.5,0.5,0.0,-9.566822052001951,-9.53350067138672,0.0,0.0,0.0,0,11,,,
384,50633905,1678467083.619626,0.0,0.0,0.5,0.5,0.0,-9.559206008911133,-9.40500831604004,0.0,0.0,0.0,0,11,,,
385,50733865,1678467083.719586,0.0,0.0,0.5,0.5,0.0,-9.544060707092283,-9.589385032653809,0.0,0.0,0.0,0,12,,,
386,50833825,1678467083.8195462,0.0,0.0,0.5,0.5,0.0,-9.530912399291992,-9.761375427246094,0.0,0.0,0.0,0,12,,,
387,50933785,1678467083.919506,0.0,0.0,0.5,0.5,0.0,-9.530247688293455,-9.423126220703123,0.0,0.0,0.0,0,11,,,
388,51033745,1678467084.019466,0.0,0.0,0.5,0.5,0.0,-9.525907516479492,-9.402233123779297,0.0,0.0,0.0,0,10,,,
389,51133705,1678467084.119426,0.0,0.0,0.5,0.5,0.0,-9.513792037963867,-9.690213203430176,0.0,0.0,0.0,0,11,,,
390,51233665,1678467084.219386,0.0,0.0,0.5,0.5,0.0,-9.509469985961914,-9.33065414428711,0.0,0.0,0.0,0,10,,,
391,51333625,1678467084.319346,0.0,0.0,0.5,0.5,0.0,-9.498866081237791,-9.398833274841309,0.0,0.0,0.0,0,10,,,
392,51433585,1678467084.419306,0.0,0.0,0.5,0.5,0.0,-9.482596397399902,-9.329828262329102,0.0,0.0,0.0,0,11,,,
393,51533545,1678467084.519266,0.0,0.0,0.5,0.5,0.0,-9.460941314697266,-9.31682014465332,0.0,0.0,0.0,0,12,,,
394,51633505,1678467084.6192262,0.0,0.0,0.5,0.5,0.0,-9.434967041015623,-9.282878875732422,0.0,0.0,0.0,0,13,,,
395,51733465,1678467084.719186,0.0,0.0,0.5,0.5,0.0,-9.405468940734863,-9.411982536315918,0.0,0.0,0.0,0,14,,,
396,51834258,1678467084.8199792,0.0,0.0,0.5,0.5,0.0,-9.380038261413574,-9.53722858428955,0.0,0.0,0.0,0,15,,,
397,51934218,1678467084.919939,0.0,0.0,0.5,0.5,0.0,-9.365140914916992,-9.472736358642578,0.0,0.0,0.0,0,15,,,
398,52034178,1678467085.0198991,0.0,0.0,0.5,0.5,0.0,-9.359033584594728,-9.307766914367676,0.0,0.0,0.0,0,14,,,
399,52134138,1678467085.1198592,0.0,0.0,0.5,0.5,0.0,-9.35214900970459,-9.374608993530272,0.0,0.0,0.0,0,13,,,
400,52234098,1678467085.219819,0.0,0.0,0.5,0.5,0.0,-9.344079971313477,-9.340609550476074,0.0,0.0,0.0,0,13,,,
401,52334058,1678467085.3197792,0.0,0.0,0.5,0.5,0.0,-9.33590030670166,-9.229473114013672,0.0,0.0,0.0,0,12,,,
402,52434018,1678467085.419739,0.0,0.0,0.5,0.5,0.0,-9.323254585266112,-9.491028785705566,0.0,0.0,0.0,0,13,,,
403,52533978,1678467085.519699,0.0,0.0,0.5,0.5,0.0,-9.315841674804688,-9.344476699829102,0.0,0.0,0.0,0,12,,,
404,52633938,1678467085.6196592,0.0,0.0,0.5,0.5,0.0,-9.312450408935549,-9.419852256774902,0.0,0.0,0.0,0,11,,,
405,52733898,1678467085.719619,0.0,0.0,0.5,0.5,0.0,-9.312337875366213,-9.487850189208984,0.0,0.0,0.0,0,11,,,
406,52833858,1678467085.8195791,0.0,0.0,0.5,0.5,0.0,-9.318889617919922,-9.56630516052246,0.0,0.0,0.0,0,9,,,
407,52933818,1678467085.9195392,0.0,0.0,0.5,0.5,0.0,-9.334590911865234,-9.180027961730955,0.0,0.0,0.0,0,7,,,
408,53033778,1678467086.019499,0.0,0.0,0.5,0.5,0.0,-9.34347438812256,-9.47787380218506,0.0,0.0,0.0,0,6,,,
409,53133738,1678467086.1194592,0.0,0.0,0.5,0.5,0.0,-9.350630760192873,-9.435151100158691,0.0,0.0,0.0,0,5,,,
410,53233698,1678467086.219419,0.0,0.0,0.5,0.5,0.0,-9.361048698425291,-9.142045021057127,0.0,0.0,0.0,0,4,,,
411,53333658,1678467086.319379,0.0,0.0,0.5,0.5,0.0,-9.361598014831545,-9.272038459777832,0.0,0.0,0.0,0,4,,,
412,53433618,1678467086.4193392,0.0,0.0,0.5,0.5,0.0,-9.354169845581056,-9.505316734313965,0.0,0.0,0.0,0,4,,,
413,53533578,1678467086.519299,0.0,0.0,0.5,0.5,0.0,-9.353021621704102,-9.278697967529297,0.0,0.0,0.0,0,4,,,
414,53633538,1678467086.619259,0.0,0.0,0.5,0.5,0.0,-9.352887153625488,-9.18762493133545,0.0,0.0,0.0,0,4,,,
415,53733498,1678467086.7192192,0.0,0.0,0.5,0.5,0.0,-9.345484733581545,-9.308347702026367,0.0,0.0,0.0,0,4,,,
416,53834291,1678467086.820012,0.0,0.0,0.5,0.5,0.0,-9.335458755493164,-9.282772064208984,0.0,0.0,0.0,0,4,,,
417,53934251,1678467086.919972,0.0,0.0,0.5,0.5,0.0,-9.326558113098145,-9.064254760742188,0.0,0.0,0.0,0,4,,,
418,54034211,1678467087.019932,0.0,0.0,0.5,0.5,0.0,-9.30832576751709,-9.12449073791504,0.0,0.0,0.0,0,5,,,
419,54134171,1678467087.119892,0.0,0.0,0.5,0.5,0.0,-9.283941268920898,-9.233384132385254,0.0,0.0,0.0,0,7,,,
420,54234131,1678467087.2198522,0.0,0.0,0.5,0.5,0.0,-9.261927604675291,-9.250869750976562,0.0,0.0,0.0,0,8,,,
421,54334091,1678467087.319812,0.0,0.0,0.5,0.5,0.0,-9.24473476409912,-9.146209716796877,0.0,0.0,0.0,0,8,,,
422,54434051,1678467087.419772,0.0,0.0,0.5,0.5,0.0,-9.227411270141602,-9.159117698669434,0.0,0.0,0.0,0,9,,,
423,54534011,1678467087.519732,0.0,0.0,0.5,0.5,0.0,-9.20994472503662,-9.171469688415527,0.0,0.0,0.0,0,9,,,
424,54633971,1678467087.619692,0.0,0.0,0.5,0.5,0.0,-9.1937894821167,-9.047393798828123,0.0,0.0,0.0,0,10,,,
425,54733931,1678467087.719652,0.0,0.0,0.5,0.5,0.0,-9.17410373687744,-9.308246612548828,0.0,0.0,0.0,0,10,,,
426,54833891,1678467087.819612,0.0,0.0,0.5,0.5,0.0,-9.162689208984377,-9.2164945602417,0.0,0.0,0.0,0,10,,,
427,54933851,1678467087.919572,0.0,0.0,0.5,0.5,0.0,-9.15721607208252,-9.314513206481934,0.0,0.0,0.0,0,10,,,
428,55033811,1678467088.0195322,0.0,0.0,0.5,0.5,0.0,-9.15951919555664,-9.264495849609377,0.0,0.0,0.0,0,9,,,
429,55133771,1678467088.119492,0.0,0.0,0.5,0.5,0.0,-9.166540145874023,-9.337818145751951,0.0,0.0,0.0,0,7,,,
430,55233731,1678467088.219452,0.0,0.0,0.5,0.5,0.0,-9.179438591003418,-9.214457511901855,0.0,0.0,0.0,0,6,,,
431,55333691,1678467088.319412,0.0,0.0,0.5,0.5,0.0,-9.19167423248291,-9.205085754394531,0.0,0.0,0.0,0,4,,,
432,55433651,1678467088.419372,0.0,0.0,0.5,0.5,0.0,-9.20108127593994,-9.051359176635742,0.0,0.0,0.0,0,3,,,
433,55533611,1678467088.519332,0.0,0.0,0.5,0.5,0.0,-9.20125675201416,-9.252647399902344,0.0,0.0,0.0,0,3,,,
434,55633571,1678467088.619292,0.0,0.0,0.5,0.5,0.0,-9.201910018920898,-9.021476745605469,0.0,0.0,0.0,0,3,,,
435,55733531,1678467088.719252,0.0,0.0,0.5,0.5,0.0,-9.195449829101562,-9.160935401916504,0.0,0.0,0.0,0,3,,,
436,55833491,1678467088.8192122,0.0,0.0,0.5,0.5,0.0,-9.187439918518066,-9.135369300842283,0.0,0.0,0.0,0,4,,,
437,55934284,1678467088.920005,0.0,0.0,0.5,0.5,0.0,-9.179452896118164,-9.042630195617676,0.0,0.0,0.0,0,4,,,
438,56034244,1678467089.0199652,0.0,0.0,0.5,0.5,0.0,-9.167564392089844,-9.073368072509766,0.0,0.0,0.0,0,4,,,
439,56134204,1678467089.119925,0.0,0.0,0.5,0.5,0.0,-9.15383529663086,-9.088053703308104,0.0,0.0,0.0,0,5,,,
440,56234164,1678467089.219885,0.0,0.0,0.5,0.5,0.0,-9.14005184173584,-8.8627347946167,0.0,0.0,0.0,0,6,,,
441,56334124,1678467089.3198452,0.0,0.0,0.5,0.5,0.0,-9.118718147277832,-8.879287719726562,0.0,0.0,0.0,0,7,,,
442,56434084,1678467089.419805,0.0,0.0,0.5,0.5,0.0,-9.088838577270508,-8.912464141845703,0.0,0.0,0.0,0,8,,,
443,56534044,1678467089.5197651,0.0,0.0,0.5,0.5,0.0,-9.055737495422363,-8.972940444946289,0.0,0.0,0.0,0,10,,,
444,56634004,1678467089.6197252,0.0,0.0,0.5,0.5,0.0,-9.024687767028809,-9.071027755737305,0.0,0.0,0.0,0,11,,,
445,56733964,1678467089.719685,0.0,0.0,0.5,0.5,0.0,-9.00129508972168,-8.809447288513184,0.0,0.0,0.0,0,12,,,
446,56833924,1678467089.8196452,0.0,0.0,0.5,0.5,0.0,-8.97676944732666,-8.895058631896973,0.0,0.0,0.0,0,13,,,
447,56933884,1678467089.919605,0.0,0.0,0.5,0.5,0.0,-8.950307846069336,-9.136653900146484,0.0,0.0,0.0,0,14,,,
448,57033844,1678467090.019565,0.0,0.0,0.5,0.5,0.0,-8.934357643127441,-9.076623916625977,0.0,0.0,0.0,0,14,,,
449,57133804,1678467090.1195252,0.0,0.0,0.5,0.5,0.0,-8.929451942443848,-8.806633949279785,0.0,0.0,0.0,0,13,,,
450,57233764,1678467090.219485,0.0,0.0,0.5,0.5,0.0,-8.921468734741211,-8.911198616027832,0.0,0.0,0.0,0,12,,,
451,57333724,1678467090.3194451,0.0,0.0,0.5,0.5,0.0,-8.910179138183594,-9.11824893951416,0.0,0.0,0.0,0,12,,,
452,57433684,1678467090.4194052,0.0,0.0,0.5,0.5,0.0,-8.907027244567871,-9.03339385986328,0.0,0.0,0.0,0,12,,,
453,57533644,1678467090.519365,0.0,0.0,0.5,0.5,0.0,-8.911127090454102,-8.95775318145752,0.0,0.0,0.0,0,10,,,
454,57633604,1678467090.6193252,0.0,0.0,0.5,0.5,0.0,-8.915935516357422,-8.822860717773438,0.0,0.0,0.0,0,9,,,
455,57733564,1678467090.719285,0.0,0.0,0.5,0.5,0.0,-8.914668083190918,-9.010101318359377,0.0,0.0,0.0,0,9,,,
456,57833524,1678467090.819245,0.0,0.0,0.5,0.5,0.0,-8.913594245910645,-8.970685005187988,0.0,0.0,0.0,0,8,,,
457,57933484,1678467090.9192052,0.0,0.0,0.5,0.5,0.0,-8.915266990661621,-8.986692428588867,0.0,0.0,0.0,0,8,,,
458,58034277,1678467091.019998,0.0,0.0,0.5,0.5,0.0,-8.91883659362793,-8.876474380493164,0.0,0.0,0.0,0,7,,,
459,58134237,1678467091.119958,0.0,0.0,0.5,0.5,0.0,-8.920127868652344,-8.796588897705078,0.0,0.0,0.0,0,6,,,
460,58234197,1678467091.219918,0.0,0.0,0.5,0.5,0.0,-8.914679527282715,-8.959564208984375,0.0,0.0,0.0,0,6,,,
461,58334157,1678467091.319878,0.0,0.0,0.5,0.5,0.0,-8.909270286560059,-8.914237022399902,0.0,0.0,0.0,0,6,,,
462,58434117,1678467091.419838,0.0,0.0,0.5,0.5,0.0,-8.905998229980469,-8.735514640808105,0.0,0.0,0.0,0,6,,,
463,58534077,1678467091.519798,0.0,0.0,0.5,0.5,0.0,-8.896846771240234,-8.85328197479248,0.0,0.0,0.0,0,6,,,
464,58634037,1678467091.619758,0.0,0.0,0.5,0.5,0.0,-8.884824752807617,-8.71387004852295,0.0,0.0,0.0,0,7,,,
465,58733997,1678467091.7197182,0.0,0.0,0.5,0.5,0.0,-8.868532180786133,-8.683369636535645,0.0,0.0,0.0,0,7,,,
466,58833957,1678467091.819678,0.0,0.0,0.5,0.5,0.0,-8.845916748046875,-8.971700668334961,0.0,0.0,0.0,0,9,,,
467,58933917,1678467091.919638,0.0,0.0,0.5,0.5,0.0,-8.83012866973877,-8.752300262451172,0.0,0.0,0.0,0,9,,,
468,59033877,1678467092.019598,0.0,0.0,0.5,0.5,0.0,-8.817605018615723,-8.73406982421875,0.0,0.0,0.0,0,9,,,
469,59133837,1678467092.119558,0.0,0.0,0.5,0.5,0.0,-8.802899360656738,-8.84679889678955,0.0,0.0,0.0,0,9,,,
470,59233797,1678467092.219518,0.0,0.0,0.5,0.5,0.0,-8.791186332702637,-8.670499801635742,0.0,0.0,0.0,0,9,,,
471,59333757,1678467092.319478,0.0,0.0,0.5,0.5,0.0,-8.777899742126465,-8.631060600280762,0.0,0.0,0.0,0,10,,,
472,59433717,1678467092.419438,0.0,0.0,0.5,0.5,0.0,-8.759074211120605,-8.800155639648438,0.0,0.0,0.0,0,10,,,
473,59533677,1678467092.5193982,0.0,0.0,0.5,0.5,0.0,-8.742724418640137,-8.535890579223633,0.0,0.0,0.0,0,11,,,
474,59633637,1678467092.619358,0.0,0.0,0.5,0.5,0.0,-8.7224702835083,-8.657753944396973,0.0,0.0,0.0,0,11,,,
475,59733597,1678467092.719318,0.0,0.0,0.5,0.5,0.0,-8.699604988098145,-8.78866195678711,0.0,0.0,0.0,0,12,,,
476,59833557,1678467092.819278,0.0,0.0,0.5,0.5,0.0,-8.68329906463623,-8.755780220031738,0.0,0.0,0.0,0,12,,,
477,59933517,1678467092.919238,0.0,0.0,0.5,0.5,0.0,-8.673982620239258,-8.554425239562988,0.0,0.0,0.0,0,12,,,
478,60033477,1678467093.019198,0.0,0.0,0.5,0.5,0.0,-8.661985397338867,-8.568603515625,0.0,0.0,0.0,0,12,,,
479,60134270,1678467093.119991,0.0,0.0,0.5,0.5,0.0,-8.644442558288574,-8.743568420410156,0.0,0.0,0.0,0,12,,,
480,60234230,1678467093.2199512,0.0,0.0,0.5,0.5,0.0,-8.632795333862305,-8.80328369140625,0.0,0.0,0.0,0,12,,,
481,60334190,1678467093.319911,0.0,0.0,0.5,0.5,0.0,-8.630743026733398,-8.592674255371094,0.0,0.0,0.0,0,11,,,
482,60434150,1678467093.419871,0.0,0.0,0.5,0.5,0.0,-8.62744140625,-8.819591522216797,0.0,0.0,0.0,0,11,,,
483,60534110,1678467093.5198312,0.0,0.0,0.5,0.5,0.0,-8.63084602355957,-8.709019660949707,0.0,0.0,0.0,0,10,,,
484,60634070,1678467093.619791,0.0,0.0,0.5,0.5,0.0,-8.637129783630371,-8.481605529785156,0.0,0.0,0.0,0,9,,,
485,60734030,1678467093.7197511,0.0,0.0,0.5,0.5,0.0,-8.634066581726074,-8.39849853515625,0.0,0.0,0.0,0,8,,,
486,60833990,1678467093.8197112,0.0,0.0,0.5,0.5,0.0,-8.617947578430176,-8.419052124023438,0.0,0.0,0.0,0,9,,,
487,60933950,1678467093.919671,0.0,0.0,0.5,0.5,0.0,-8.593012809753418,-8.412590980529785,0.0,0.0,0.0,0,10,,,
488,61033910,1678467094.0196311,0.0,0.0,0.5,0.5,0.0,-8.563074111938477,-8.724096298217773,0.0,0.0,0.0,0,12,,,
489,61133870,1678467094.119591,0.0,0.0,0.5,0.5,0.0,-8.543156623840332,-8.421134948730469,0.0,0.0,0.0,0,12,,,
490,61233830,1678467094.219551,0.0,0.0,0.5,0.5,0.0,-8.525659561157227,-8.461984634399414,0.0,0.0,0.0,0,13,,,
491,61333790,1678467094.3195112,0.0,0.0,0.5,0.5,0.0,-8.506134986877441,-8.34229850769043,0.0,0.0,0.0,0,13,,,
492,61433750,1678467094.419471,0.0,0.0,0.5,0.5,0.0,-8.482417106628418,-8.723221778869629,0.0,0.0,0.0,0,14,,,
493,61533710,1678467094.519431,0.0,0.0,0.5,0.5,0.0,-8.468679428100586,-8.430601119995117,0.0,0.0,0.0,0,14,,,
494,61633670,1678467094.6193912,0.0,0.0,0.5,0.5,0.0,-8.459610939025879,-8.559060096740723,0.0,0.0,0.0,0,13,,,
495,61733630,1678467094.719351,0.0,0.0,0.5,0.5,0.0,-8.45332145690918,-8.490645408630371,0.0,0.0,0.0,0,13,,,
496,61833590,1678467094.8193111,0.0,0.0,0.5,0.5,0.0,-8.44950008392334,-8.612967491149902,0.0,0.0,0.0,0,12,,,
497,61933550,1678467094.9192708,0.0,0.0,0.5,0.5,0.0,-8.451001167297363,-8.635390281677246,0.0,0.0,0.0,0,11,,,
498,62033510,1678467095.019231,0.0,0.0,0.5,0.5,0.0,-8.459799766540527,-8.317585945129395,0.0,0.0,0.0,0,9,,,
499,62133470,1678467095.1191912,0.0,0.0,0.5,0.5,0.0,-8.46231460571289,-8.476195335388184,0.0,0.0,0.0,0,9,,,
500,62234263,1678467095.219984,0.0,0.0,0.5,0.5,0.0,-8.459860801696777,-8.30601978302002,0.0,0.0,0.0,0,8,,,
501,62334223,1678467095.319944,0.0,0.0,0.5,0.5,0.0,-8.451170921325684,-8.411561965942383,0.0,0.0,0.0,0,9,,,
502,62434183,1678467095.419904,0.0,0.0,0.5,0.5,0.0,-8.4390287399292,-8.349726676940918,0.0,0.0,0.0,0,9,,,
503,62534143,1678467095.519864,0.0,0.0,0.5,0.5,0.0,-8.424948692321777,-8.3363037109375,0.0,0.0,0.0,0,9,,,
504,62634103,1678467095.619824,0.0,0.0,0.5,0.5,0.0,-8.408587455749512,-8.568415641784668,0.0,0.0,0.0,0,10,,,
505,62734063,1678467095.719784,0.0,0.0,0.5,0.5,0.0,-8.399679183959961,-8.471748352050781,0.0,0.0,0.0,0,10,,,
506,62834023,1678467095.819744,0.0,0.0,0.5,0.5,0.0,-8.397811889648438,-8.402302742004395,0.0,0.0,0.0,0,9,,,
507,62933983,1678467095.9197042,0.0,0.0,0.5,0.5,0.0,-8.396707534790039,-8.249320030212402,0.0,0.0,0.0,0,8,,,
508,63033943,1678467096.019664,0.0,0.0,0.5,0.5,0.0,-8.389189720153809,-8.253113746643066,0.0,0.0,0.0,0,8,,,
509,63133903,1678467096.119624,0.0,0.0,0.5,0.5,0.0,-8.374688148498535,-8.182374954223633,0.0,0.0,0.0,0,9,,,
510,63233863,1678467096.2195842,0.0,0.0,0.5,0.5,0.0,-8.353307723999023,-8.205476760864258,0.0,0.0,0.0,0,10,,,
511,63333823,1678467096.319544,0.0,0.0,0.5,0.5,0.0,-8.327471733093262,-8.169890403747559,0.0,0.0,0.0,0,11,,,
512,63433783,1678467096.419504,0.0,0.0,0.5,0.5,0.0,-8.298758506774902,-8.406956672668457,0.0,0.0,0.0,0,12,,,
513,63533743,1678467096.519464,0.0,0.0,0.5,0.5,0.0,-8.27745532989502,-8.174299240112305,0.0,0.0,0.0,0,13,,,
514,63633703,1678467096.619424,0.0,0.0,0.5,0.5,0.0,-8.258564949035645,-8.3681640625,0.0,0.0,0.0,0,13,,,
515,63733663,1678467096.719384,0.0,0.0,0.5,0.5,0.0,-8.244866371154785,-8.148270606994629,0.0,0.0,0.0,0,13,,,
516,63833623,1678467096.819344,0.0,0.0,0.5,0.5,0.0,-8.231281280517578,-8.261631965637207,0.0,0.0,0.0,0,13,,,
517,63933583,1678467096.919304,0.0,0.0,0.5,0.5,0.0,-8.21828842163086,-8.264028549194336,0.0,0.0,0.0,0,13,,,
518,64033543,1678467097.0192642,0.0,0.0,0.5,0.5,0.0,-8.208768844604492,-8.366448402404785,0.0,0.0,0.0,0,13,,,
519,64133503,1678467097.119224,0.0,0.0,0.5,0.5,0.0,-8.206212997436523,-8.373930931091309,0.0,0.0,0.0,0,12,,,
520,64234296,1678467097.2200172,0.0,0.0,0.5,0.5,0.0,-8.213409423828125,-8.392091751098633,0.0,0.0,0.0,0,10,,,
521,64334256,1678467097.319977,0.0,0.0,0.5,0.5,0.0,-8.225310325622559,-8.448448181152344,0.0,0.0,0.0,0,9,,,
522,64434216,1678467097.4199371,0.0,0.0,0.5,0.5,0.0,-8.244060516357422,-8.1981782913208,0.0,0.0,0.0,0,7,,,
523,64534176,1678467097.5198972,0.0,0.0,0.5,0.5,0.0,-8.257068634033203,-8.34911060333252,0.0,0.0,0.0,0,5,,,
524,64634136,1678467097.619857,0.0,0.0,0.5,0.5,0.0,-8.269021987915039,-8.069258689880371,0.0,0.0,0.0,0,4,,,
525,64734096,1678467097.7198172,0.0,0.0,0.5,0.5,0.0,-8.269622802734375,-8.34420394897461,0.0,0.0,0.0,0,4,,,
526,64834056,1678467097.819777,0.0,0.0,0.5,0.5,0.0,-8.270669937133789,-8.157980918884277,0.0,0.0,0.0,0,4,,,
527,64934016,1678467097.919737,0.0,0.0,0.5,0.5,0.0,-8.267650604248047,-8.00444221496582,0.0,0.0,0.0,0,4,,,
528,65033976,1678467098.0196972,0.0,0.0,0.5,0.5,0.0,-8.252873420715332,-8.247983932495117,0.0,0.0,0.0,0,4,,,
529,65133936,1678467098.119657,0.0,0.0,0.5,0.5,0.0,-8.238966941833496,-8.222108840942383,0.0,0.0,0.0,0,5,,,
530,65233896,1678467098.2196171,0.0,0.0,0.5,0.5,0.0,-8.228534698486328,-8.361568450927734,0.0,0.0,0.0,0,5,,,
531,65333856,1678467098.3195772,0.0,0.0,0.5,0.5,0.0,-8.226853370666504,-8.065624237060547,0.0,0.0,0.0,0,5,,,
532,65433816,1678467098.419537,0.0,0.0,0.5,0.5,0.0,-8.22053337097168,-7.95739221572876,0.0,0.0,0.0,0,5,,,
533,65533776,1678467098.5194972,0.0,0.0,0.5,0.5,0.0,-8.202554702758789,-7.961485385894775,0.0,0.0,0.0,0,6,,,
534,65633736,1678467098.619457,0.0,0.0,0.5,0.5,0.0,-8.175739288330078,-8.286526679992676,0.0,0.0,0.0,0,7,,,
535,65733696,1678467098.719417,0.0,0.0,0.5,0.5,0.0,-8.158051490783691,-8.088964462280273,0.0,0.0,0.0,0,8,,,
536,65833656,1678467098.8193772,0.0,0.0,0.5,0.5,0.0,-8.143351554870605,-7.95514440536499,0.0,0.0,0.0,0,8,,,
537,65933616,1678467098.919337,0.0,0.0,0.5,0.5,0.0,-8.123005867004395,-8.058504104614258,0.0,0.0,0.0,0,9,,,
538,66033576,1678467099.0192971,0.0,0.0,0.5,0.5,0.0,-8.102249145507812,-8.148661613464355,0.0,0.0,0.0,0,10,,,
539,66133536,1678467099.1192572,0.0,0.0,0.5,0.5,0.0,-8.087448120117188,-8.10641098022461,0.0,0.0,0.0,0,10,,,
540,66233496,1678467099.219217,0.0,0.0,0.5,0.5,0.0,-8.076957702636719,-8.02157211303711,0.0,0.0,0.0,0,10,,,
541,66334289,1678467099.32001,0.0,0.0,0.5,0.5,0.0,-8.065730094909668,-8.084155082702637,0.0,0.0,0.0,0,10,,,
542,66434249,1678467099.41997,0.0,0.0,0.5,0.5,0.0,-8.05630874633789,-8.142509460449219,0.0,0.0,0.0,0,10,,,
543,66534209,1678467099.51993,0.0,0.0,0.4762499928474426,0.5,0.0,-8.051410675048828,-7.988643169403076,0.0,0.0,0.0,0,9,,,
544,66634169,1678467099.6198902,0.0,0.0,0.25,0.5,0.0,-8.047947883605957,-8.159141540527344,0.0,0.0,0.0,0,0,,,
