,timestamp,TimeUS,ThI,ABst,ThO,ThH,DAlt,Alt,BAlt,DSAlt,SAlt,TAlt,DCRt,CRt,terrain_z,sub_z,rf
0,2023-03-08 08:35:41.120031834-08:00,32133808,0.0,0.0,0.5,0.5,0.0,-0.1944855600595474,0.0075494260527193,0.0,0.0,0.0,0,2,,,
1,2023-03-08 08:35:41.219991922-08:00,32233768,0.0,0.0,0.5,0.5,0.0,-0.1804428845643997,-0.3243407309055328,0.0,0.0,0.0,0,3,,,
2,2023-03-08 08:35:41.319952011-08:00,32333728,0.0,0.0,0.5,0.5,0.0,-0.1729487776756286,-0.3528105020523071,0.0,0.0,0.0,0,4,,,
3,2023-03-08 08:35:41.419911861-08:00,32433688,0.0,0.0,0.5,0.5,0.0,-0.1764956414699554,-0.3269268274307251,0.0,0.0,0.0,0,3,,,
4,2023-03-08 08:35:41.519871950-08:00,32533648,0.0,0.0,0.5,0.5,0.0,-0.1870951950550079,-0.2562990188598633,0.0,0.0,0.0,0,2,,,
5,2023-03-08 08:35:41.619832039-08:00,32633608,0.0,0.0,0.5,0.5,0.0,-0.1987258493900299,-0.1811216473579406,0.0,0.0,0.0,0,1,,,
6,2023-03-08 08:35:41.719791889-08:00,32733568,0.0,0.0,0.5,0.5,0.0,-0.2061824798583984,-0.3847301602363586,0.0,0.0,0.0,0,0,,,
7,2023-03-08 08:35:41.819751978-08:00,32833528,0.0,0.0,0.5,0.5,0.0,-0.2187430262565612,-0.1168028563261032,0.0,0.0,0.0,0,0,,,
8,2023-03-08 08:35:41.919711828-08:00,32933488,0.0,0.0,0.5,0.5,0.0,-0.2249725461006164,-0.2062535881996154,0.0,0.0,0.0,0,0,,,
9,2023-03-08 08:35:42.019671917-08:00,33033448,0.0,0.0,0.5,0.5,0.0,-0.2268485575914383,-0.1790409684181213,0.0,0.0,0.0,0,0,,,
10,2023-03-08 08:35:42.119632006-08:00,33133408,0.0,0.0,0.5,0.5,0.0,-0.2258784621953964,-0.0164357461035251,0.0,0.0,0.0,0,0,,,
11,2023-03-08 08:35:42.219591856-08:00,33233368,0.0,0.0,0.5,0.5,0.0,-0.2158091366291046,-0.0653977990150451,0.0,0.0,0.0,0,0,,,
12,2023-03-08 08:35:42.319551945-08:00,33333328,0.0,0.0,0.5,0.5,0.0,-0.1980953365564346,-0.1628304421901703,0.0,0.0,0.0,0,2,,,
13,2023-03-08 08:35:42.419512033-08:00,33433288,0.0,0.0,0.5,0.5,0.0,-0.1805425584316253,-0.1515688747167587,0.0,0.0,0.0,0,3,,,
14,2023-03-08 08:35:42.519471884-08:00,33533248,0.0,0.0,0.5,0.5,0.0,-0.1655142158269882,-0.2255524545907974,0.0,0.0,0.0,0,4,,,
15,2023-03-08 08:35:42.619431973-08:00,33633208,0.0,0.0,0.5,0.5,0.0,-0.1555915027856826,-0.0536623075604438,0.0,0.0,0.0,0,4,,,
16,2023-03-08 08:35:42.719391823-08:00,33733168,0.0,0.0,0.5,0.5,0.0,-0.1445909440517425,-0.219466283917427,0.0,0.0,0.0,0,5,,,
17,2023-03-08 08:35:42.819351912-08:00,33833128,0.0,0.0,0.5,0.5,0.0,-0.1361194103956222,-0.0224724970757961,0.0,0.0,0.0,0,5,,,
18,2023-03-08 08:35:42.919312-08:00,33933088,0.0,0.0,0.5,0.5,0.0,-0.1255861818790435,-0.3842239379882812,0.0,0.0,0.0,0,5,,,
19,2023-03-08 08:35:43.019271851-08:00,34033048,0.0,0.0,0.5,0.5,0.0,-0.1245772615075111,-0.1518630385398864,0.0,0.0,0.0,0,3,,,
20,2023-03-08 08:35:43.120064974-08:00,34133841,0.0,0.0,0.5,0.5,0.0,-0.1296991109848022,-0.038042489439249,0.0,0.0,0.0,0,3,,,
21,2023-03-08 08:35:43.220024824-08:00,34233801,0.0,0.0,0.5,0.5,0.0,-0.1290569007396698,-0.1304380595684051,0.0,0.0,0.0,0,3,,,
22,2023-03-08 08:35:43.319984913-08:00,34333761,0.0,0.0,0.5,0.5,0.0,-0.1254363507032394,-0.2179308831691742,0.0,0.0,0.0,0,3,,,
23,2023-03-08 08:35:43.419945002-08:00,34433721,0.0,0.0,0.5,0.5,0.0,-0.1252289414405822,-0.1466362476348877,0.0,0.0,0.0,0,3,,,
24,2023-03-08 08:35:43.519904852-08:00,34533681,0.0,0.0,0.5,0.5,0.0,-0.1266289502382278,0.010259885340929,0.0,0.0,0.0,0,2,,,
25,2023-03-08 08:35:43.619864941-08:00,34633641,0.0,0.0,0.5,0.5,0.0,-0.1215346604585647,-0.0435016751289367,0.0,0.0,0.0,0,3,,,
26,2023-03-08 08:35:43.719825029-08:00,34733601,0.0,0.0,0.5,0.5,0.0,-0.1107654869556427,-0.2364373356103897,0.0,0.0,0.0,0,3,,,
27,2023-03-08 08:35:43.819784880-08:00,34833561,0.0,0.0,0.5,0.5,0.0,-0.1050663068890571,-0.2633091509342193,0.0,0.0,0.0,0,4,,,
28,2023-03-08 08:35:43.919744968-08:00,34933521,0.0,0.0,0.5,0.5,0.0,-0.1084760427474975,-0.356847882270813,0.0,0.0,0.0,0,3,,,
29,2023-03-08 08:35:44.019704819-08:00,35033481,0.0,0.0,0.5,0.5,0.0,-0.1225868761539459,-0.1148242205381393,0.0,0.0,0.0,0,2,,,
30,2023-03-08 08:35:44.119664907-08:00,35133441,0.0,0.0,0.5,0.5,0.0,-0.1364083290100097,-0.2018092274665832,0.0,0.0,0.0,0,0,,,
31,2023-03-08 08:35:44.219624996-08:00,35233401,0.0,0.0,0.5,0.5,0.0,-0.147720992565155,-0.145210862159729,0.0,0.0,0.0,0,0,,,
32,2023-03-08 08:35:44.319584846-08:00,35333361,0.0,0.0,0.5,0.5,0.0,-0.1564329713582992,-0.1865577101707458,0.0,0.0,0.0,0,0,,,
33,2023-03-08 08:35:44.419544935-08:00,35433321,0.0,0.0,0.5,0.5,0.0,-0.163392573595047,-0.0586232468485832,0.0,0.0,0.0,0,0,,,
34,2023-03-08 08:35:44.519505024-08:00,35533281,0.0,0.0,0.5,0.5,0.0,-0.1647391617298126,-0.3958709239959717,0.0,0.0,0.0,0,0,,,
35,2023-03-08 08:35:44.619464874-08:00,35633241,0.0,0.0,0.5,0.5,0.0,-0.1725168377161026,-0.0875047817826271,0.0,0.0,0.0,0,-1,,,
36,2023-03-08 08:35:44.719424963-08:00,35733201,0.0,0.0,0.5,0.5,0.0,-0.1797809600830078,-0.3515122830867767,0.0,0.0,0.0,0,-1,,,
37,2023-03-08 08:35:44.819385052-08:00,35833161,0.0,0.0,0.5,0.5,0.0,-0.1901693940162658,-0.1871930807828903,0.0,0.0,0.0,0,-2,,,
38,2023-03-08 08:35:44.919344902-08:00,35933121,0.0,0.0,0.5,0.5,0.0,-0.2015597522258758,-0.3574039340019226,0.0,0.0,0.0,0,-2,,,
39,2023-03-08 08:35:45.019304991-08:00,36033081,0.0,0.0,0.5,0.5,0.0,-0.2164014428853988,-0.2504017949104309,0.0,0.0,0.0,0,-3,,,
40,2023-03-08 08:35:45.119264841-08:00,36133041,0.0,0.0,0.5,0.5,0.0,-0.2325507551431656,-0.2255879342555999,0.0,0.0,0.0,0,-4,,,
41,2023-03-08 08:35:45.220057964-08:00,36233834,0.0,0.0,0.5,0.5,0.0,-0.2458081543445587,-0.1170862540602684,0.0,0.0,0.0,0,-5,,,
42,2023-03-08 08:35:45.320018053-08:00,36333794,0.0,0.0,0.5,0.5,0.0,-0.2515006065368652,-0.0414237864315509,0.0,0.0,0.0,0,-5,,,
43,2023-03-08 08:35:45.419977903-08:00,36433754,0.0,0.0,0.5,0.5,0.0,-0.2462982088327407,-0.0602128505706787,0.0,0.0,0.0,0,-4,,,
44,2023-03-08 08:35:45.519937992-08:00,36533714,0.0,0.0,0.5,0.5,0.0,-0.2325536161661148,-0.0821340903639793,0.0,0.0,0.0,0,-2,,,
45,2023-03-08 08:35:45.619897842-08:00,36633674,0.0,0.0,0.5,0.5,0.0,-0.2144401520490646,-0.1251299381256103,0.0,0.0,0.0,0,-1,,,
46,2023-03-08 08:35:45.719857931-08:00,36733634,0.0,0.0,0.5,0.5,0.0,-0.1960195302963256,-0.1489911526441574,0.0,0.0,0.0,0,0,,,
47,2023-03-08 08:35:45.819818020-08:00,36833594,0.0,0.0,0.5,0.5,0.0,-0.1799246519804,-0.1433848887681961,0.0,0.0,0.0,0,1,,,
48,2023-03-08 08:35:45.919777870-08:00,36933554,0.0,0.0,0.5,0.5,0.0,-0.1663649529218673,-0.1238077953457832,0.0,0.0,0.0,0,2,,,
49,2023-03-08 08:35:46.019737959-08:00,37033514,0.0,0.0,0.5,0.5,0.0,-0.1542042195796966,-0.0995854586362838,0.0,0.0,0.0,0,2,,,
50,2023-03-08 08:35:46.119698048-08:00,37133474,0.0,0.0,0.5,0.5,0.0,-0.1420911699533462,-0.2774741053581238,0.0,0.0,0.0,0,3,,,
51,2023-03-08 08:35:46.219657898-08:00,37233434,0.0,0.0,0.5,0.5,0.0,-0.1368811428546905,-0.2482437789440155,0.0,0.0,0.0,0,3,,,
52,2023-03-08 08:35:46.319617987-08:00,37333394,0.0,0.0,0.5,0.5,0.0,-0.1394584625959396,-0.1066023632884025,0.0,0.0,0.0,0,2,,,
53,2023-03-08 08:35:46.419577837-08:00,37433354,0.0,0.0,0.5,0.5,0.0,-0.1413260549306869,-0.089338332414627,0.0,0.0,0.0,0,2,,,
54,2023-03-08 08:35:46.519537926-08:00,37533314,0.0,0.0,0.5,0.5,0.0,-0.1388687342405319,-0.130123570561409,0.0,0.0,0.0,0,2,,,
55,2023-03-08 08:35:46.619498014-08:00,37633274,0.0,0.0,0.5,0.5,0.0,-0.1346224546432495,-0.2835797965526581,0.0,0.0,0.0,0,2,,,
56,2023-03-08 08:35:46.719457865-08:00,37733234,0.0,0.0,0.5,0.5,0.0,-0.1361781507730484,-0.3982031345367431,0.0,0.0,0.0,0,2,,,
57,2023-03-08 08:35:46.819417953-08:00,37833194,0.0,0.0,0.5,0.5,0.0,-0.1496599018573761,-0.2378128916025161,0.0,0.0,0.0,0,1,,,
58,2023-03-08 08:35:46.919378042-08:00,37933154,0.0,0.0,0.5,0.5,0.0,-0.1673766076564788,-0.4004360735416412,0.0,0.0,0.0,0,0,,,
59,2023-03-08 08:35:47.019337893-08:00,38033114,0.0,0.0,0.5,0.5,0.0,-0.1903715431690216,-0.3442035913467407,0.0,0.0,0.0,0,-1,,,
60,2023-03-08 08:35:47.119297981-08:00,38133074,0.0,0.0,0.5,0.5,0.0,-0.2175272107124328,-0.1555863320827484,0.0,0.0,0.0,0,-3,,,
61,2023-03-08 08:35:47.219257832-08:00,38233034,0.0,0.0,0.5,0.5,0.0,-0.2380357086658477,-0.2736766636371612,0.0,0.0,0.0,0,-4,,,
62,2023-03-08 08:35:47.320050955-08:00,38333827,0.0,0.0,0.5,0.5,0.0,-0.2547585070133209,-0.3325753211975097,0.0,0.0,0.0,0,-5,,,
63,2023-03-08 08:35:47.420011044-08:00,38433787,0.0,0.0,0.5,0.5,0.0,-0.2710718214511871,-0.2462950348854065,0.0,0.0,0.0,0,-6,,,
64,2023-03-08 08:35:47.519970893-08:00,38533747,0.0,0.0,0.5,0.5,0.0,-0.284392386674881,-0.1310120373964309,0.0,0.0,0.0,0,-6,,,
65,2023-03-08 08:35:47.619930983-08:00,38633707,0.0,0.0,0.5,0.5,0.0,-0.288529485464096,-0.1866230815649032,0.0,0.0,0.0,0,-6,,,
66,2023-03-08 08:35:47.719890833-08:00,38733667,0.0,0.0,0.5,0.5,0.0,-0.2868196666240692,-0.1217028051614761,0.0,0.0,0.0,0,-5,,,
67,2023-03-08 08:35:47.819850922-08:00,38833627,0.0,0.0,0.5,0.5,0.0,-0.2787224352359772,-0.2995236814022064,0.0,0.0,0.0,0,-4,,,
68,2023-03-08 08:35:47.919811010-08:00,38933587,0.0,0.0,0.5,0.5,0.0,-0.2736104428768158,-0.2833908498287201,0.0,0.0,0.0,0,-4,,,
69,2023-03-08 08:35:48.019770861-08:00,39033547,0.0,0.0,0.5,0.5,0.0,-0.2725280225276947,-0.072724811732769,0.0,0.0,0.0,0,-3,,,
70,2023-03-08 08:35:48.119730949-08:00,39133507,0.0,0.0,0.5,0.5,0.0,-0.2643853425979614,-0.0853734835982322,0.0,0.0,0.0,0,-2,,,
71,2023-03-08 08:35:48.219691038-08:00,39233467,0.0,0.0,0.5,0.5,0.0,-0.2490284889936447,-0.2054260969161987,0.0,0.0,0.0,0,-1,,,
72,2023-03-08 08:35:48.319650888-08:00,39333427,0.0,0.0,0.5,0.5,0.0,-0.2346993535757064,-0.3112535774707794,0.0,0.0,0.0,0,0,,,
73,2023-03-08 08:35:48.419610977-08:00,39433387,0.0,0.0,0.5,0.5,0.0,-0.2281730622053146,-0.3180349171161651,0.0,0.0,0.0,0,0,,,
74,2023-03-08 08:35:48.519570827-08:00,39533347,0.0,0.0,0.5,0.5,0.0,-0.2292487621307373,-0.1120519787073135,0.0,0.0,0.0,0,0,,,
75,2023-03-08 08:35:48.619530916-08:00,39633307,0.0,0.0,0.5,0.5,0.0,-0.2262519150972366,-0.1211647018790245,0.0,0.0,0.0,0,0,,,
76,2023-03-08 08:35:48.719491005-08:00,39733267,0.0,0.0,0.5,0.5,0.0,-0.217897430062294,-0.1633856892585754,0.0,0.0,0.0,0,0,,,
77,2023-03-08 08:35:48.819450855-08:00,39833227,0.0,0.0,0.5,0.5,0.0,-0.2080311030149459,-0.3213739693164825,0.0,0.0,0.0,0,1,,,
78,2023-03-08 08:35:48.919410944-08:00,39933187,0.0,0.0,0.5,0.5,0.0,-0.2053238600492477,-0.1306230127811432,0.0,0.0,0.0,0,1,,,
79,2023-03-08 08:35:49.019371033-08:00,40033147,0.0,0.0,0.5,0.5,0.0,-0.2012564986944198,-0.1097620353102684,0.0,0.0,0.0,0,1,,,
80,2023-03-08 08:35:49.119330883-08:00,40133107,0.0,0.0,0.5,0.5,0.0,-0.1927475929260254,-0.2230568379163742,0.0,0.0,0.0,0,1,,,
81,2023-03-08 08:35:49.219290972-08:00,40233067,0.0,0.0,0.5,0.5,0.0,-0.1862650513648986,-0.0055181761272251,0.0,0.0,0.0,0,2,,,
82,2023-03-08 08:35:49.319250822-08:00,40333027,0.0,0.0,0.5,0.5,0.0,-0.1730511486530304,-0.2624573409557342,0.0,0.0,0.0,0,3,,,
83,2023-03-08 08:35:49.420043945-08:00,40433820,0.0,0.0,0.5,0.5,0.0,-0.1642862856388092,-0.2758872807025909,0.0,0.0,0.0,0,3,,,
84,2023-03-08 08:35:49.520004033-08:00,40533780,0.0,0.0,0.5,0.5,0.0,-0.1638244390487671,-0.1811172664165496,0.0,0.0,0.0,0,2,,,
85,2023-03-08 08:35:49.619963884-08:00,40633740,0.0,0.0,0.5,0.5,0.0,-0.1652432382106781,-0.2824772894382477,0.0,0.0,0.0,0,2,,,
86,2023-03-08 08:35:49.719923973-08:00,40733700,0.0,0.0,0.5,0.5,0.0,-0.1710382550954818,-0.3039010763168335,0.0,0.0,0.0,0,1,,,
87,2023-03-08 08:35:49.819883823-08:00,40833660,0.0,0.0,0.5,0.5,0.0,-0.1821463853120803,0.0130687979981303,0.0,0.0,0.0,0,0,,,
88,2023-03-08 08:35:49.919843912-08:00,40933620,0.0,0.0,0.5,0.5,0.0,-0.1823249608278274,-0.1929990500211715,0.0,0.0,0.0,0,0,,,
89,2023-03-08 08:35:50.019804001-08:00,41033580,0.0,0.0,0.5,0.5,0.0,-0.1797311007976532,-0.0212719235569238,0.0,0.0,0.0,0,0,,,
90,2023-03-08 08:35:50.119763851-08:00,41133540,0.0,0.0,0.5,0.5,0.0,-0.1702105849981308,-0.1783155351877212,0.0,0.0,0.0,0,1,,,
91,2023-03-08 08:35:50.219723940-08:00,41233500,0.0,0.0,0.5,0.5,0.0,-0.1610061228275299,-0.1496647745370865,0.0,0.0,0.0,0,2,,,
92,2023-03-08 08:35:50.319684029-08:00,41333460,0.0,0.0,0.5,0.5,0.0,-0.1533246487379074,-0.3108876645565033,0.0,0.0,0.0,0,2,,,
93,2023-03-08 08:35:50.419643879-08:00,41433420,0.0,0.0,0.5,0.5,0.0,-0.1541058719158172,-0.1492821276187896,0.0,0.0,0.0,0,2,,,
94,2023-03-08 08:35:50.519603968-08:00,41533380,0.0,0.0,0.5,0.5,0.0,-0.1557673513889312,-0.0489736124873161,0.0,0.0,0.0,0,2,,,
95,2023-03-08 08:35:50.619563818-08:00,41633340,0.0,0.0,0.5,0.5,0.0,-0.1511441767215728,-0.3375442326068878,0.0,0.0,0.0,0,2,,,
96,2023-03-08 08:35:50.719523907-08:00,41733300,0.0,0.0,0.5,0.5,0.0,-0.154066652059555,-0.1195874512195587,0.0,0.0,0.0,0,1,,,
97,2023-03-08 08:35:50.819483995-08:00,41833260,0.0,0.0,0.5,0.5,0.0,-0.1563029438257217,-0.3551076352596283,0.0,0.0,0.0,0,1,,,
98,2023-03-08 08:35:50.919443846-08:00,41933220,0.0,0.0,0.5,0.5,0.0,-0.1657935082912445,-0.0200298950076103,0.0,0.0,0.0,0,0,,,
99,2023-03-08 08:35:51.019403934-08:00,42033180,0.0,0.0,0.5,0.5,0.0,-0.1680239140987396,-0.4022153913974762,0.0,0.0,0.0,0,0,,,
100,2023-03-08 08:35:51.119364023-08:00,42133140,0.0,0.0,0.5,0.5,0.0,-0.1778636872768402,-0.3409841358661651,0.0,0.0,0.0,0,0,,,
101,2023-03-08 08:35:51.219323874-08:00,42233100,0.0,0.0,0.5,0.5,0.0,-0.1952729821205139,-0.369916707277298,0.0,0.0,0.0,0,-1,,,
102,2023-03-08 08:35:51.319283962-08:00,42333060,0.0,0.0,0.5,0.5,0.0,-0.2179385125637054,-0.1208494082093238,0.0,0.0,0.0,0,-3,,,
103,2023-03-08 08:35:51.419244051-08:00,42433020,0.0,0.0,0.5,0.5,0.0,-0.2325311005115509,-0.1679141372442245,0.0,0.0,0.0,0,-3,,,
104,2023-03-08 08:35:51.520036936-08:00,42533813,0.0,0.0,0.5,0.5,0.0,-0.2395036220550537,-0.3309235572814941,0.0,0.0,0.0,0,-3,,,
105,2023-03-08 08:35:51.619997025-08:00,42633773,0.0,0.0,0.5,0.5,0.0,-0.2487439811229705,-0.2653603255748749,0.0,0.0,0.0,0,-4,,,
106,2023-03-08 08:35:51.719956875-08:00,42733733,0.0,0.0,0.5,0.5,0.0,-0.2585469484329223,-0.1345236748456955,0.0,0.0,0.0,0,-4,,,
107,2023-03-08 08:35:51.819916964-08:00,42833693,0.0,0.0,0.5,0.5,0.0,-0.2615053951740265,-0.1280325204133987,0.0,0.0,0.0,0,-4,,,
108,2023-03-08 08:35:51.919877052-08:00,42933653,0.0,0.0,0.5,0.5,0.0,-0.2572905421257019,-0.0901877358555793,0.0,0.0,0.0,0,-3,,,
109,2023-03-08 08:35:52.019836903-08:00,43033613,0.0,0.0,0.5,0.5,0.0,-0.2462664693593979,-0.2282222509384155,0.0,0.0,0.0,0,-2,,,
110,2023-03-08 08:35:52.119796991-08:00,43133573,0.0,0.0,0.5,0.5,0.0,-0.2365482449531555,-0.0156720336526632,0.0,0.0,0.0,0,-1,,,
111,2023-03-08 08:35:52.219756842-08:00,43233533,0.0,0.0,0.5,0.5,0.0,-0.2203229069709777,-0.1339899599552154,0.0,0.0,0.0,0,0,,,
112,2023-03-08 08:35:52.319716930-08:00,43333493,0.0,0.0,0.5,0.5,0.0,-0.2025041133165359,-0.232565775513649,0.0,0.0,0.0,0,0,,,
113,2023-03-08 08:35:52.419677019-08:00,43433453,0.0,0.0,0.5,0.5,0.0,-0.1902906745672226,-0.1729352623224258,0.0,0.0,0.0,0,1,,,
114,2023-03-08 08:35:52.519636868-08:00,43533413,0.0,0.0,0.5,0.5,0.0,-0.1811955571174621,-0.1646807193756103,0.0,0.0,0.0,0,2,,,
115,2023-03-08 08:35:52.619596958-08:00,43633373,0.0,0.0,0.5,0.5,0.0,-0.1734421253204345,-0.0940421745181083,0.0,0.0,0.0,0,2,,,
116,2023-03-08 08:35:52.719557047-08:00,43733333,0.0,0.0,0.5,0.5,0.0,-0.1635880470275879,-0.143698588013649,0.0,0.0,0.0,0,2,,,
117,2023-03-08 08:35:52.819516897-08:00,43833293,0.0,0.0,0.5,0.5,0.0,-0.1538480520248413,-0.3222452998161316,0.0,0.0,0.0,0,3,,,
118,2023-03-08 08:35:52.919476986-08:00,43933253,0.0,0.0,0.5,0.5,0.0,-0.153345912694931,-0.1115621030330658,0.0,0.0,0.0,0,3,,,
119,2023-03-08 08:35:53.019436836-08:00,44033213,0.0,0.0,0.5,0.5,0.0,-0.1523634940385818,-0.4033330678939819,0.0,0.0,0.0,0,2,,,
120,2023-03-08 08:35:53.119396925-08:00,44133173,0.0,0.0,0.5,0.5,0.0,-0.1614094078540802,-0.343650758266449,0.0,0.0,0.0,0,1,,,
121,2023-03-08 08:35:53.219357014-08:00,44233133,0.0,0.0,0.5,0.5,0.0,-0.1785608381032943,-0.3573580980300903,0.0,0.0,0.0,0,0,,,
122,2023-03-08 08:35:53.319316864-08:00,44333093,0.0,0.0,0.5,0.5,0.0,-0.2006354331970214,-0.3223329782485962,0.0,0.0,0.0,0,-1,,,
123,2023-03-08 08:35:53.419276953-08:00,44433053,0.0,0.0,0.5,0.5,0.0,-0.2240019142627716,-0.2856062650680542,0.0,0.0,0.0,0,-2,,,
124,2023-03-08 08:35:53.519237041-08:00,44533013,0.0,0.0,0.5,0.5,0.0,-0.245241105556488,-0.1893793791532516,0.0,0.0,0.0,0,-4,,,
125,2023-03-08 08:35:53.620029926-08:00,44633806,0.0,0.0,0.5,0.5,0.0,-0.2594180405139923,-0.2412033677101135,0.0,0.0,0.0,0,-4,,,
126,2023-03-08 08:35:53.719990015-08:00,44733766,0.0,0.0,0.5,0.5,0.0,-0.2690459787845611,0.005552455317229,0.0,0.0,0.0,0,-4,,,
127,2023-03-08 08:35:53.819949865-08:00,44833726,0.0,0.0,0.5,0.5,0.0,-0.2662177383899688,-0.1492649912834167,0.0,0.0,0.0,0,-4,,,
128,2023-03-08 08:35:53.919909954-08:00,44933686,0.0,0.0,0.5,0.5,0.0,-0.255406767129898,-0.1745838671922683,0.0,0.0,0.0,0,-2,,,
129,2023-03-08 08:35:54.019870043-08:00,45033646,0.0,0.0,0.5,0.5,0.0,-0.2435260117053985,-0.2086838334798813,0.0,0.0,0.0,0,-1,,,
130,2023-03-08 08:35:54.119829893-08:00,45133606,0.0,0.0,0.5,0.5,0.0,-0.2331898659467697,-0.3781405389308929,0.0,0.0,0.0,0,0,,,
131,2023-03-08 08:35:54.219789982-08:00,45233566,0.0,0.0,0.5,0.5,0.0,-0.231453076004982,-0.1448122560977935,0.0,0.0,0.0,0,0,,,
132,2023-03-08 08:35:54.319749832-08:00,45333526,0.0,0.0,0.5,0.5,0.0,-0.2305550873279571,-0.204435184597969,0.0,0.0,0.0,0,0,,,
133,2023-03-08 08:35:54.419709921-08:00,45433486,0.0,0.0,0.5,0.5,0.0,-0.2276992201805114,0.002991868648678,0.0,0.0,0.0,0,0,,,
134,2023-03-08 08:35:54.519670010-08:00,45533446,0.0,0.0,0.5,0.5,0.0,-0.2169040441513061,-0.193398430943489,0.0,0.0,0.0,0,0,,,
135,2023-03-08 08:35:54.619629860-08:00,45633406,0.0,0.0,0.5,0.5,0.0,-0.2039448320865631,-0.3030476868152618,0.0,0.0,0.0,0,1,,,
136,2023-03-08 08:35:54.719589949-08:00,45733366,0.0,0.0,0.5,0.5,0.0,-0.19803486764431,-0.3588675856590271,0.0,0.0,0.0,0,1,,,
137,2023-03-08 08:35:54.819550037-08:00,45833326,0.0,0.0,0.5,0.5,0.0,-0.2016976475715637,-0.0032099010422825,0.0,0.0,0.0,0,0,,,
138,2023-03-08 08:35:54.919509888-08:00,45933286,0.0,0.0,0.5,0.5,0.0,-0.1998879164457321,-0.2029129415750503,0.0,0.0,0.0,0,0,,,
139,2023-03-08 08:35:55.019469976-08:00,46033246,0.0,0.0,0.5,0.5,0.0,-0.1944314986467361,-0.212441399693489,0.0,0.0,0.0,0,1,,,
140,2023-03-08 08:35:55.119429827-08:00,46133206,0.0,0.0,0.5,0.5,0.0,-0.1909542083740234,-0.0510706305503845,0.0,0.0,0.0,0,1,,,
141,2023-03-08 08:35:55.219389915-08:00,46233166,0.0,0.0,0.5,0.5,0.0,-0.183216780424118,-0.0539887584745883,0.0,0.0,0.0,0,1,,,
142,2023-03-08 08:35:55.319350004-08:00,46333126,0.0,0.0,0.5,0.5,0.0,-0.1696225106716156,-0.3463321030139923,0.0,0.0,0.0,0,2,,,
143,2023-03-08 08:35:55.419309855-08:00,46433086,0.0,0.0,0.5,0.5,0.0,-0.1632286459207534,-0.3384530544281006,0.0,0.0,0.0,0,3,,,
144,2023-03-08 08:35:55.519269942-08:00,46533046,0.0,0.0,0.5,0.5,0.0,-0.1678821891546249,-0.0792900994420051,0.0,0.0,0.0,0,2,,,
145,2023-03-08 08:35:55.620062828-08:00,46633839,0.0,0.0,0.5,0.5,0.0,-0.1704850494861602,-0.1118076369166374,0.0,0.0,0.0,0,2,,,
146,2023-03-08 08:35:55.720022917-08:00,46733799,0.0,0.0,0.5,0.5,0.0,-0.1675672084093094,-0.2293152064085006,0.0,0.0,0.0,0,2,,,
147,2023-03-08 08:35:55.819983006-08:00,46833759,0.0,0.0,0.5,0.5,0.0,-0.165777176618576,-0.0283669475466012,0.0,0.0,0.0,0,2,,,
148,2023-03-08 08:35:55.919942856-08:00,46933719,0.0,0.0,0.5,0.5,0.0,-0.1598469913005828,-0.3494563102722168,0.0,0.0,0.0,0,2,,,
149,2023-03-08 08:35:56.019902945-08:00,47033679,0.0,0.0,0.5,0.5,0.0,-0.1590487658977508,-0.284384161233902,0.0,0.0,0.0,0,2,,,
150,2023-03-08 08:35:56.119863033-08:00,47133639,0.0,0.0,0.5,0.5,0.0,-0.1660334318876266,-0.2358358651399612,0.0,0.0,0.0,0,1,,,
151,2023-03-08 08:35:56.219822884-08:00,47233599,0.0,0.0,0.5,0.5,0.0,-0.1752558797597885,-0.0743486955761909,0.0,0.0,0.0,0,0,,,
152,2023-03-08 08:35:56.319782972-08:00,47333559,0.0,0.0,0.5,0.5,0.0,-0.1788133829832077,-0.3903180658817291,0.0,0.0,0.0,0,0,,,
153,2023-03-08 08:35:56.419742823-08:00,47433519,0.0,0.0,0.5,0.5,0.0,-0.1866089254617691,-0.4125286936759949,0.0,0.0,0.0,0,0,,,
154,2023-03-08 08:35:56.519702911-08:00,47533479,0.0,0.0,0.5,0.5,0.0,-0.2043058723211288,-0.2891175150871277,0.0,0.0,0.0,0,-1,,,
155,2023-03-08 08:35:56.619663-08:00,47633439,0.0,0.0,0.5,0.5,0.0,-0.2243711203336715,-0.1440935879945755,0.0,0.0,0.0,0,-2,,,
156,2023-03-08 08:35:56.719622850-08:00,47733399,0.0,0.0,0.5,0.5,0.0,-0.2375248074531555,-0.3697799742221832,0.0,0.0,0.0,0,-3,,,
157,2023-03-08 08:35:56.819582939-08:00,47833359,0.0,0.0,0.5,0.5,0.0,-0.2506756782531738,-0.066290259361267,0.0,0.0,0.0,0,-3,,,
158,2023-03-08 08:35:56.919543028-08:00,47933319,0.0,0.0,0.5,0.5,0.0,-0.2566404044628143,-0.2384809404611587,0.0,0.0,0.0,0,-3,,,
159,2023-03-08 08:35:57.019502878-08:00,48033279,0.0,0.0,0.5,0.5,0.0,-0.2575630247592926,-0.2442087829113006,0.0,0.0,0.0,0,-3,,,
160,2023-03-08 08:35:57.119462967-08:00,48133239,0.0,0.0,0.5,0.5,0.0,-0.2584712207317352,-0.3158067464828491,0.0,0.0,0.0,0,-3,,,
161,2023-03-08 08:35:57.219422817-08:00,48233199,0.0,0.0,0.5,0.5,0.0,-0.2620934844017029,-0.3876454830169678,0.0,0.0,0.0,0,-3,,,
162,2023-03-08 08:35:57.319382906-08:00,48333159,0.0,0.0,0.5,0.5,0.0,-0.2715443670749664,-0.0201446898281574,0.0,0.0,0.0,0,-3,,,
163,2023-03-08 08:35:57.419342995-08:00,48433119,0.0,0.0,0.5,0.5,0.0,-0.2726855874061584,-0.2552762329578399,0.0,0.0,0.0,0,-3,,,
164,2023-03-08 08:35:57.519302845-08:00,48533079,0.0,0.0,0.5,0.5,0.0,-0.2691429257392883,-0.3537902534008026,0.0,0.0,0.0,0,-2,,,
165,2023-03-08 08:35:57.619262934-08:00,48633039,0.0,0.0,0.5,0.5,0.0,-0.2705939710140228,-0.13642218708992,0.0,0.0,0.0,0,-2,,,
166,2023-03-08 08:35:57.720055819-08:00,48733832,0.0,0.0,0.5,0.5,0.0,-0.2695516049861908,-0.0326873399317264,0.0,0.0,0.0,0,-2,,,
167,2023-03-08 08:35:57.820015907-08:00,48833792,0.0,0.0,0.5,0.5,0.0,-0.2585253417491913,-0.0714668333530426,0.0,0.0,0.0,0,-1,,,
168,2023-03-08 08:35:57.919975996-08:00,48933752,0.0,0.0,0.5,0.5,0.0,-0.2401276975870132,-0.3553977906703949,0.0,0.0,0.0,0,0,,,
169,2023-03-08 08:35:58.019935846-08:00,49033712,0.0,0.0,0.5,0.5,0.0,-0.2282335609197616,-0.0682290345430374,0.0,0.0,0.0,0,0,,,
170,2023-03-08 08:35:58.119895935-08:00,49133672,0.0,0.0,0.5,0.5,0.0,-0.2165529727935791,-0.0373983569443225,0.0,0.0,0.0,0,1,,,
171,2023-03-08 08:35:58.219856024-08:00,49233632,0.0,0.0,0.5,0.5,0.0,-0.1985978037118911,-0.3595563471317291,0.0,0.0,0.0,0,2,,,
172,2023-03-08 08:35:58.319815874-08:00,49333592,0.0,0.0,0.5,0.5,0.0,-0.1879589557647705,-0.0178531575947999,0.0,0.0,0.0,0,2,,,
173,2023-03-08 08:35:58.419775963-08:00,49433552,0.0,0.0,0.5,0.5,0.0,-0.1767761260271072,-0.2364959269762039,0.0,0.0,0.0,0,3,,,
174,2023-03-08 08:35:58.519736051-08:00,49533512,0.0,0.0,0.5,0.5,0.0,-0.1668625473976135,-0.1382844448089599,0.0,0.0,0.0,0,3,,,
175,2023-03-08 08:35:58.619695902-08:00,49633472,0.0,0.0,0.5,0.5,0.0,-0.1589025259017944,-0.3647875487804413,0.0,0.0,0.0,0,4,,,
176,2023-03-08 08:35:58.719655991-08:00,49733432,0.0,0.0,0.5,0.5,0.0,-0.1589972078800201,-0.3352288007736206,0.0,0.0,0.0,0,3,,,
177,2023-03-08 08:35:58.819615841-08:00,49833392,0.0,0.0,0.5,0.5,0.0,-0.168226882815361,-0.2041733115911483,0.0,0.0,0.0,0,2,,,
178,2023-03-08 08:35:58.919575930-08:00,49933352,0.0,0.0,0.5,0.5,0.0,-0.178285077214241,-0.0515971779823303,0.0,0.0,0.0,0,1,,,
179,2023-03-08 08:35:59.019536018-08:00,50033312,0.0,0.0,0.5,0.5,0.0,-0.1803920269012451,-0.0532967969775199,0.0,0.0,0.0,0,1,,,
180,2023-03-08 08:35:59.119495869-08:00,50133272,0.0,0.0,0.5,0.5,0.0,-0.1738091260194778,-0.2127244174480438,0.0,0.0,0.0,0,2,,,
181,2023-03-08 08:35:59.219455957-08:00,50233232,0.0,0.0,0.5,0.5,0.0,-0.1671412289142608,-0.2552395462989807,0.0,0.0,0.0,0,2,,,
182,2023-03-08 08:35:59.319416046-08:00,50333192,0.0,0.0,0.5,0.5,0.0,-0.1654515266418457,-0.3330731689929962,0.0,0.0,0.0,0,2,,,
183,2023-03-08 08:35:59.419375896-08:00,50433152,0.0,0.0,0.5,0.5,0.0,-0.1711053103208542,-0.1467701643705368,0.0,0.0,0.0,0,2,,,
184,2023-03-08 08:35:59.519335985-08:00,50533112,0.0,0.0,0.5,0.5,0.0,-0.176594391465187,-0.1590589135885238,0.0,0.0,0.0,0,1,,,
185,2023-03-08 08:35:59.619295835-08:00,50633072,0.0,0.0,0.5,0.5,0.0,-0.1785220056772232,-0.0408119410276412,0.0,0.0,0.0,0,1,,,
186,2023-03-08 08:35:59.719255924-08:00,50733032,0.0,0.0,0.5,0.5,0.0,-0.1738162636756897,-0.2354364693164825,0.0,0.0,0.0,0,1,,,
187,2023-03-08 08:35:59.820049047-08:00,50833825,0.0,0.0,0.5,0.5,0.0,-0.169290080666542,-0.417673796415329,0.0,0.0,0.0,0,2,,,
188,2023-03-08 08:35:59.920008898-08:00,50933785,0.0,0.0,0.5,0.5,0.0,-0.1756574958562851,-0.0896715596318245,0.0,0.0,0.0,0,1,,,
189,2023-03-08 08:36:00.019968987-08:00,51033745,0.0,0.0,0.5,0.5,0.0,-0.1812222599983215,-0.0687790960073471,0.0,0.0,0.0,0,1,,,
190,2023-03-08 08:36:00.119928837-08:00,51133705,0.0,0.0,0.5,0.5,0.0,-0.1788017749786377,-0.3670053482055664,0.0,0.0,0.0,0,1,,,
191,2023-03-08 08:36:00.219888926-08:00,51233665,0.0,0.0,0.5,0.5,0.0,-0.1812269240617752,-0.0176925230771303,0.0,0.0,0.0,0,1,,,
192,2023-03-08 08:36:00.319849014-08:00,51333625,0.0,0.0,0.5,0.5,0.0,-0.180220827460289,-0.0961212515830993,0.0,0.0,0.0,0,1,,,
193,2023-03-08 08:36:00.419808865-08:00,51433585,0.0,0.0,0.5,0.5,0.0,-0.1728145331144333,-0.0373604893684387,0.0,0.0,0.0,0,1,,,
194,2023-03-08 08:36:00.519768953-08:00,51533545,0.0,0.0,0.5,0.5,0.0,-0.1605626791715622,-0.0346002057194709,0.0,0.0,0.0,0,2,,,
195,2023-03-08 08:36:00.619729042-08:00,51633505,0.0,0.0,0.5,0.5,0.0,-0.1440729051828384,-0.0109056122601032,0.0,0.0,0.0,0,3,,,
196,2023-03-08 08:36:00.719688892-08:00,51733465,0.0,0.0,0.5,0.5,0.0,-0.1243327856063842,-0.1502566933631897,0.0,0.0,0.0,0,4,,,
197,2023-03-08 08:36:00.819648981-08:00,51833425,0.0,0.0,0.5,0.5,0.0,-0.107609786093235,-0.2857497632503509,0.0,0.0,0.0,0,5,,,
198,2023-03-08 08:36:00.919608831-08:00,51933385,0.0,0.0,0.5,0.5,0.0,-0.1014021635055542,-0.2315063029527664,0.0,0.0,0.0,0,5,,,
199,2023-03-08 08:36:01.019568920-08:00,52033345,0.0,0.0,0.5,0.5,0.0,-0.1036307662725448,-0.0767817273736,0.0,0.0,0.0,0,4,,,
200,2023-03-08 08:36:01.119529009-08:00,52133305,0.0,0.0,0.5,0.5,0.0,-0.10516157746315,-0.1538711786270141,0.0,0.0,0.0,0,4,,,
201,2023-03-08 08:36:01.219488859-08:00,52233265,0.0,0.0,0.5,0.5,0.0,-0.1058961078524589,-0.1301179826259613,0.0,0.0,0.0,0,3,,,
202,2023-03-08 08:36:01.319448948-08:00,52333225,0.0,0.0,0.5,0.5,0.0,-0.1067393273115158,-0.0189811866730451,0.0,0.0,0.0,0,3,,,
203,2023-03-08 08:36:01.419409037-08:00,52433185,0.0,0.0,0.5,0.5,0.0,-0.1031825244426727,-0.2907852232456207,0.0,0.0,0.0,0,3,,,
204,2023-03-08 08:36:01.519368886-08:00,52533145,0.0,0.0,0.5,0.5,0.0,-0.1043728068470954,-0.1544790267944336,0.0,0.0,0.0,0,3,,,
205,2023-03-08 08:36:01.619328976-08:00,52633105,0.0,0.0,0.5,0.5,0.0,-0.1093792244791984,-0.2401024401187896,0.0,0.0,0.0,0,2,,,
206,2023-03-08 08:36:01.719288826-08:00,52733065,0.0,0.0,0.5,0.5,0.0,-0.1173877492547035,-0.318346619606018,0.0,0.0,0.0,0,2,,,
207,2023-03-08 08:36:01.819248915-08:00,52833025,0.0,0.0,0.5,0.5,0.0,-0.1318189054727554,-0.4070491790771484,0.0,0.0,0.0,0,0,,,
208,2023-03-08 08:36:01.920042038-08:00,52933818,0.0,0.0,0.5,0.5,0.0,-0.1581689864397049,-0.0310188140720129,0.0,0.0,0.0,0,0,,,
209,2023-03-08 08:36:02.020001888-08:00,53033778,0.0,0.0,0.5,0.5,0.0,-0.173180341720581,-0.3288652002811432,0.0,0.0,0.0,0,-1,,,
210,2023-03-08 08:36:02.119961977-08:00,53133738,0.0,0.0,0.5,0.5,0.0,-0.1889247149229049,-0.2963879108428955,0.0,0.0,0.0,0,-2,,,
211,2023-03-08 08:36:02.219921827-08:00,53233698,0.0,0.0,0.5,0.5,0.0,-0.2070752084255218,-0.0135295754298567,0.0,0.0,0.0,0,-3,,,
212,2023-03-08 08:36:02.319881916-08:00,53333658,0.0,0.0,0.5,0.5,0.0,-0.2138904184103012,-0.1537691354751587,0.0,0.0,0.0,0,-3,,,
213,2023-03-08 08:36:02.419842005-08:00,53433618,0.0,0.0,0.5,0.5,0.0,-0.2147408574819564,-0.3972939252853393,0.0,0.0,0.0,0,-3,,,
214,2023-03-08 08:36:02.519801855-08:00,53533578,0.0,0.0,0.5,0.5,0.0,-0.2241466641426086,-0.1809227466583252,0.0,0.0,0.0,0,-4,,,
215,2023-03-08 08:36:02.619761944-08:00,53633538,0.0,0.0,0.5,0.5,0.0,-0.2328774183988571,-0.1000968590378761,0.0,0.0,0.0,0,-4,,,
216,2023-03-08 08:36:02.719722033-08:00,53733498,0.0,0.0,0.5,0.5,0.0,-0.2345022857189178,-0.2310670465230941,0.0,0.0,0.0,0,-4,,,
217,2023-03-08 08:36:02.819681883-08:00,53833458,0.0,0.0,0.5,0.5,0.0,-0.2354722917079925,-0.2259837388992309,0.0,0.0,0.0,0,-4,,,
218,2023-03-08 08:36:02.919641972-08:00,53933418,0.0,0.0,0.5,0.5,0.0,-0.2373264133930206,-0.0177136473357677,0.0,0.0,0.0,0,-4,,,
219,2023-03-08 08:36:03.019601822-08:00,54033378,0.0,0.0,0.5,0.5,0.0,-0.2307814508676529,-0.0881979465484619,0.0,0.0,0.0,0,-3,,,
220,2023-03-08 08:36:03.119561911-08:00,54133338,0.0,0.0,0.5,0.5,0.0,-0.218742236495018,-0.2073385715484619,0.0,0.0,0.0,0,-2,,,
221,2023-03-08 08:36:03.219521999-08:00,54233298,0.0,0.0,0.5,0.5,0.0,-0.2091194093227386,-0.2350705564022064,0.0,0.0,0.0,0,-1,,,
222,2023-03-08 08:36:03.319481850-08:00,54333258,0.0,0.0,0.5,0.5,0.0,-0.204225555062294,-0.1406568884849548,0.0,0.0,0.0,0,-1,,,
223,2023-03-08 08:36:03.419441938-08:00,54433218,0.0,0.0,0.5,0.5,0.0,-0.199173241853714,-0.1638125777244568,0.0,0.0,0.0,0,0,,,
224,2023-03-08 08:36:03.519402027-08:00,54533178,0.0,0.0,0.5,0.5,0.0,-0.1939033418893814,-0.1761635094881057,0.0,0.0,0.0,0,0,,,
225,2023-03-08 08:36:03.619361877-08:00,54633138,0.0,0.0,0.5,0.5,0.0,-0.1894115954637527,-0.0623353794217109,0.0,0.0,0.0,0,0,,,
226,2023-03-08 08:36:03.719321966-08:00,54733098,0.0,0.0,0.5,0.5,0.0,-0.1809173375368118,-0.3334363102912903,0.0,0.0,0.0,0,0,,,
227,2023-03-08 08:36:03.819282055-08:00,54833058,0.0,0.0,0.5,0.5,0.0,-0.1798754036426544,-0.2519304156303406,0.0,0.0,0.0,0,0,,,
228,2023-03-08 08:36:03.919241905-08:00,54933018,0.0,0.0,0.5,0.5,0.0,-0.1841451972723007,-0.3601949214935303,0.0,0.0,0.0,0,0,,,
229,2023-03-08 08:36:04.020035028-08:00,55033811,0.0,0.0,0.5,0.5,0.0,-0.1955867707729339,-0.330672025680542,0.0,0.0,0.0,0,0,,,
230,2023-03-08 08:36:04.119994879-08:00,55133771,0.0,0.0,0.5,0.5,0.0,-0.2117853462696075,-0.4142422676086426,0.0,0.0,0.0,0,-2,,,
231,2023-03-08 08:36:04.219954967-08:00,55233731,0.0,0.0,0.5,0.5,0.0,-0.2339314818382263,-0.3011272251605987,0.0,0.0,0.0,0,-3,,,
232,2023-03-08 08:36:04.319914818-08:00,55333691,0.0,0.0,0.5,0.5,0.0,-0.2557153105735779,-0.3020021617412567,0.0,0.0,0.0,0,-4,,,
233,2023-03-08 08:36:04.419874907-08:00,55433651,0.0,0.0,0.5,0.5,0.0,-0.2750144302845001,-0.1585243940353393,0.0,0.0,0.0,0,-5,,,
234,2023-03-08 08:36:04.519834994-08:00,55533611,0.0,0.0,0.5,0.5,0.0,-0.2856745421886444,-0.3700582087039947,0.0,0.0,0.0,0,-5,,,
235,2023-03-08 08:36:04.619794846-08:00,55633571,0.0,0.0,0.5,0.5,0.0,-0.2969145178794861,-0.1491346508264541,0.0,0.0,0.0,0,-6,,,
236,2023-03-08 08:36:04.719754934-08:00,55733531,0.0,0.0,0.5,0.5,0.0,-0.3014141917228699,-0.2988408803939819,0.0,0.0,0.0,0,-5,,,
237,2023-03-08 08:36:04.819715023-08:00,55833491,0.0,0.0,0.5,0.5,0.0,-0.3044609427452087,-0.2835208177566528,0.0,0.0,0.0,0,-5,,,
238,2023-03-08 08:36:04.919674873-08:00,55933451,0.0,0.0,0.5,0.5,0.0,-0.3075397610664367,-0.2010295689105987,0.0,0.0,0.0,0,-5,,,
239,2023-03-08 08:36:05.019634962-08:00,56033411,0.0,0.0,0.5,0.5,0.0,-0.3067879676818847,-0.2420145124197006,0.0,0.0,0.0,0,-4,,,
240,2023-03-08 08:36:05.119595051-08:00,56133371,0.0,0.0,0.5,0.5,0.0,-0.303924024105072,-0.2669479548931122,0.0,0.0,0.0,0,-4,,,
241,2023-03-08 08:36:05.219554901-08:00,56233331,0.0,0.0,0.5,0.5,0.0,-0.3011700212955475,-0.0518757961690425,0.0,0.0,0.0,0,-3,,,
242,2023-03-08 08:36:05.319514990-08:00,56333291,0.0,0.0,0.5,0.5,0.0,-0.2896839678287506,-0.078674666583538,0.0,0.0,0.0,0,-2,,,
243,2023-03-08 08:36:05.419474840-08:00,56433251,0.0,0.0,0.5,0.5,0.0,-0.2707100510597229,-0.1220966205000877,0.0,0.0,0.0,0,-1,,,
244,2023-03-08 08:36:05.519434929-08:00,56533211,0.0,0.0,0.5,0.5,0.0,-0.249190405011177,-0.1928212642669677,0.0,0.0,0.0,0,0,,,
245,2023-03-08 08:36:05.619395018-08:00,56633171,0.0,0.0,0.5,0.5,0.0,-0.2301337122917175,-0.2909092009067535,0.0,0.0,0.0,0,1,,,
246,2023-03-08 08:36:05.719354868-08:00,56733131,0.0,0.0,0.5,0.5,0.0,-0.2185774147510528,-0.0395758934319019,0.0,0.0,0.0,0,2,,,
247,2023-03-08 08:36:05.819314957-08:00,56833091,0.0,0.0,0.5,0.5,0.0,-0.2032905220985412,-0.1354332715272903,0.0,0.0,0.0,0,2,,,
248,2023-03-08 08:36:05.919275045-08:00,56933051,0.0,0.0,0.5,0.5,0.0,-0.1867290437221527,-0.3872763812541961,0.0,0.0,0.0,0,3,,,
249,2023-03-08 08:36:06.020067930-08:00,57033844,0.0,0.0,0.5,0.5,0.0,-0.181620255112648,-0.337492436170578,0.0,0.0,0.0,0,3,,,
250,2023-03-08 08:36:06.120028019-08:00,57133804,0.0,0.0,0.5,0.5,0.0,-0.1860888302326202,-0.0777495205402374,0.0,0.0,0.0,0,3,,,
251,2023-03-08 08:36:06.219987869-08:00,57233764,0.0,0.0,0.5,0.5,0.0,-0.1863389313220977,-0.1925621777772903,0.0,0.0,0.0,0,2,,,
252,2023-03-08 08:36:06.319947958-08:00,57333724,0.0,0.0,0.5,0.5,0.0,-0.1834586411714553,-0.409857302904129,0.0,0.0,0.0,0,2,,,
253,2023-03-08 08:36:06.419908047-08:00,57433684,0.0,0.0,0.5,0.5,0.0,-0.1885686814785003,-0.3352499306201935,0.0,0.0,0.0,0,2,,,
254,2023-03-08 08:36:06.519867897-08:00,57533644,0.0,0.0,0.5,0.5,0.0,-0.2007797509431839,-0.2698560953140259,0.0,0.0,0.0,0,1,,,
255,2023-03-08 08:36:06.619827986-08:00,57633604,0.0,0.0,0.5,0.5,0.0,-0.2137973308563232,-0.1452104598283767,0.0,0.0,0.0,0,0,,,
256,2023-03-08 08:36:06.719787836-08:00,57733564,0.0,0.0,0.5,0.5,0.0,-0.2211436778306961,-0.3426989018917084,0.0,0.0,0.0,0,0,,,
257,2023-03-08 08:36:06.819747925-08:00,57833524,0.0,0.0,0.5,0.5,0.0,-0.2288748472929,-0.3135283887386322,0.0,0.0,0.0,0,0,,,
258,2023-03-08 08:36:06.919708014-08:00,57933484,0.0,0.0,0.5,0.5,0.0,-0.2394158095121383,-0.3397839665412903,0.0,0.0,0.0,0,0,,,
259,2023-03-08 08:36:07.019667864-08:00,58033444,0.0,0.0,0.5,0.5,0.0,-0.2519981265068054,-0.2398126572370529,0.0,0.0,0.0,0,-1,,,
260,2023-03-08 08:36:07.119627953-08:00,58133404,0.0,0.0,0.5,0.5,0.0,-0.2624967396259308,-0.1701729893684387,0.0,0.0,0.0,0,-2,,,
261,2023-03-08 08:36:07.219588041-08:00,58233364,0.0,0.0,0.5,0.5,0.0,-0.2667069435119629,-0.3433956503868103,0.0,0.0,0.0,0,-2,,,
262,2023-03-08 08:36:07.319547892-08:00,58333324,0.0,0.0,0.5,0.5,0.0,-0.2711244821548462,-0.2980692088603973,0.0,0.0,0.0,0,-2,,,
263,2023-03-08 08:36:07.419507980-08:00,58433284,0.0,0.0,0.5,0.5,0.0,-0.277289479970932,-0.1295938342809677,0.0,0.0,0.0,0,-2,,,
264,2023-03-08 08:36:07.519467831-08:00,58533244,0.0,0.0,0.5,0.5,0.0,-0.277555376291275,-0.2576076090335846,0.0,0.0,0.0,0,-2,,,
265,2023-03-08 08:36:07.619427919-08:00,58633204,0.0,0.0,0.5,0.5,0.0,-0.2749143540859222,-0.1284430772066116,0.0,0.0,0.0,0,-1,,,
266,2023-03-08 08:36:07.719388008-08:00,58733164,0.0,0.0,0.5,0.5,0.0,-0.268127292394638,-0.0979420468211174,0.0,0.0,0.0,0,-1,,,
267,2023-03-08 08:36:07.819347858-08:00,58833124,0.0,0.0,0.5,0.5,0.0,-0.2550355792045593,-0.3965198397636413,0.0,0.0,0.0,0,0,,,
268,2023-03-08 08:36:07.919307947-08:00,58933084,0.0,0.0,0.5,0.5,0.0,-0.2480160892009735,-0.1873656660318374,0.0,0.0,0.0,0,0,,,
269,2023-03-08 08:36:08.019268036-08:00,59033044,0.0,0.0,0.5,0.5,0.0,-0.2438750714063644,-0.1793825775384903,0.0,0.0,0.0,0,0,,,
270,2023-03-08 08:36:08.120060921-08:00,59133837,0.0,0.0,0.5,0.5,0.0,-0.2375743389129638,-0.3023600876331329,0.0,0.0,0.0,0,0,,,
271,2023-03-08 08:36:08.220021009-08:00,59233797,0.0,0.0,0.5,0.5,0.0,-0.2341812849044799,-0.1363081932067871,0.0,0.0,0.0,0,0,,,
272,2023-03-08 08:36:08.319980860-08:00,59333757,0.0,0.0,0.5,0.5,0.0,-0.2293980419635772,-0.107114553451538,0.0,0.0,0.0,0,1,,,
273,2023-03-08 08:36:08.419940948-08:00,59433717,0.0,0.0,0.5,0.5,0.0,-0.2195205986499786,-0.2864564657211303,0.0,0.0,0.0,0,1,,,
274,2023-03-08 08:36:08.519901037-08:00,59533677,0.0,0.0,0.5,0.5,0.0,-0.2122320532798767,-0.0324386171996593,0.0,0.0,0.0,0,2,,,
275,2023-03-08 08:36:08.619860888-08:00,59633637,0.0,0.0,0.5,0.5,0.0,-0.201434776186943,-0.1543032526969909,0.0,0.0,0.0,0,2,,,
276,2023-03-08 08:36:08.719820976-08:00,59733597,0.0,0.0,0.5,0.5,0.0,-0.1880093514919281,-0.2954576015472412,0.0,0.0,0.0,0,3,,,
277,2023-03-08 08:36:08.819780827-08:00,59833557,0.0,0.0,0.5,0.5,0.0,-0.1806190609931945,-0.2728232741355896,0.0,0.0,0.0,0,3,,,
278,2023-03-08 08:36:08.919740915-08:00,59933517,0.0,0.0,0.5,0.5,0.0,-0.1798165887594223,-0.0817155614495277,0.0,0.0,0.0,0,2,,,
279,2023-03-08 08:36:09.019701004-08:00,60033477,0.0,0.0,0.5,0.5,0.0,-0.1772394478321075,-0.1061391904950141,0.0,0.0,0.0,0,2,,,
280,2023-03-08 08:36:09.119660854-08:00,60133437,0.0,0.0,0.5,0.5,0.0,-0.1701222211122512,-0.2913520336151123,0.0,0.0,0.0,0,2,,,
281,2023-03-08 08:36:09.219620943-08:00,60233397,0.0,0.0,0.5,0.5,0.0,-0.1671480536460876,-0.361312985420227,0.0,0.0,0.0,0,2,,,
282,2023-03-08 08:36:09.319581032-08:00,60333357,0.0,0.0,0.5,0.5,0.0,-0.1733808666467666,-0.1711993813514709,0.0,0.0,0.0,0,2,,,
283,2023-03-08 08:36:09.419540882-08:00,60433317,0.0,0.0,0.5,0.5,0.0,-0.1805297285318374,-0.4083613753318786,0.0,0.0,0.0,0,1,,,
284,2023-03-08 08:36:09.519500971-08:00,60533277,0.0,0.0,0.5,0.5,0.0,-0.1928933709859848,-0.3080369234085083,0.0,0.0,0.0,0,0,,,
285,2023-03-08 08:36:09.619460821-08:00,60633237,0.0,0.0,0.5,0.5,0.0,-0.209534615278244,-0.0908705368638038,0.0,0.0,0.0,0,0,,,
286,2023-03-08 08:36:09.719420910-08:00,60733197,0.0,0.0,0.5,0.5,0.0,-0.2189192175865173,-0.0180102046579122,0.0,0.0,0.0,0,-1,,,
287,2023-03-08 08:36:09.819380999-08:00,60833157,0.0,0.0,0.5,0.5,0.0,-0.2159836590290069,-0.0488097891211509,0.0,0.0,0.0,0,0,,,
288,2023-03-08 08:36:09.919340849-08:00,60933117,0.0,0.0,0.5,0.5,0.0,-0.204082190990448,-0.0423485338687896,0.0,0.0,0.0,0,0,,,
289,2023-03-08 08:36:10.019300938-08:00,61033077,0.0,0.0,0.5,0.5,0.0,-0.1866329312324524,-0.3641007542610168,0.0,0.0,0.0,0,1,,,
290,2023-03-08 08:36:10.119261026-08:00,61133037,0.0,0.0,0.5,0.5,0.0,-0.1772958487272262,-0.0713875144720077,0.0,0.0,0.0,0,2,,,
291,2023-03-08 08:36:10.220053911-08:00,61233830,0.0,0.0,0.5,0.5,0.0,-0.1698390990495681,-0.1224848553538322,0.0,0.0,0.0,0,2,,,
292,2023-03-08 08:36:10.320014-08:00,61333790,0.0,0.0,0.5,0.5,0.0,-0.1602739244699478,-0.0130448816344141,0.0,0.0,0.0,0,3,,,
293,2023-03-08 08:36:10.419973850-08:00,61433750,0.0,0.0,0.5,0.5,0.0,-0.1465626358985901,-0.4042147696018219,0.0,0.0,0.0,0,3,,,
294,2023-03-08 08:36:10.519933938-08:00,61533710,0.0,0.0,0.5,0.5,0.0,-0.142290860414505,-0.1218407228589057,0.0,0.0,0.0,0,3,,,
295,2023-03-08 08:36:10.619894028-08:00,61633670,0.0,0.0,0.5,0.5,0.0,-0.1423789113759994,-0.260546863079071,0.0,0.0,0.0,0,3,,,
296,2023-03-08 08:36:10.719853878-08:00,61733630,0.0,0.0,0.5,0.5,0.0,-0.1451216042041778,-0.2023796290159225,0.0,0.0,0.0,0,2,,,
297,2023-03-08 08:36:10.819813967-08:00,61833590,0.0,0.0,0.5,0.5,0.0,-0.1502432823181152,-0.3349489867687225,0.0,0.0,0.0,0,2,,,
298,2023-03-08 08:36:10.919773817-08:00,61933550,0.0,0.0,0.5,0.5,0.0,-0.1605162918567657,-0.3676183819770813,0.0,0.0,0.0,0,1,,,
299,2023-03-08 08:36:11.019733906-08:00,62033510,0.0,0.0,0.5,0.5,0.0,-0.1778491735458374,-0.070308119058609,0.0,0.0,0.0,0,0,,,
300,2023-03-08 08:36:11.119693995-08:00,62133470,0.0,0.0,0.5,0.5,0.0,-0.1896060705184936,-0.2391637414693832,0.0,0.0,0.0,0,0,,,
301,2023-03-08 08:36:11.219653845-08:00,62233430,0.0,0.0,0.5,0.5,0.0,-0.1972621232271194,-0.0792354941368103,0.0,0.0,0.0,0,0,,,
302,2023-03-08 08:36:11.319613934-08:00,62333390,0.0,0.0,0.5,0.5,0.0,-0.1992619484663009,-0.1950251162052154,0.0,0.0,0.0,0,0,,,
303,2023-03-08 08:36:11.419574022-08:00,62433350,0.0,0.0,0.5,0.5,0.0,-0.1982506662607193,-0.1434367001056671,0.0,0.0,0.0,0,0,,,
304,2023-03-08 08:36:11.519533873-08:00,62533310,0.0,0.0,0.5,0.5,0.0,-0.1955543458461761,-0.1402598917484283,0.0,0.0,0.0,0,0,,,
305,2023-03-08 08:36:11.619493961-08:00,62633270,0.0,0.0,0.5,0.5,0.0,-0.1906751990318298,-0.3826195895671844,0.0,0.0,0.0,0,0,,,
306,2023-03-08 08:36:11.719454050-08:00,62733230,0.0,0.0,0.5,0.5,0.0,-0.193062275648117,-0.2961989939212799,0.0,0.0,0.0,0,0,,,
307,2023-03-08 08:36:11.819413900-08:00,62833190,0.0,0.0,0.5,0.5,0.0,-0.2021544575691223,-0.2370005548000335,0.0,0.0,0.0,0,0,,,
308,2023-03-08 08:36:11.919373989-08:00,62933150,0.0,0.0,0.5,0.5,0.0,-0.2118853777647018,-0.0942641869187355,0.0,0.0,0.0,0,-1,,,
309,2023-03-08 08:36:12.019333839-08:00,63033110,0.0,0.0,0.5,0.5,0.0,-0.2154251486063003,-0.0980592295527458,0.0,0.0,0.0,0,-1,,,
310,2023-03-08 08:36:12.119293928-08:00,63133070,0.0,0.0,0.5,0.5,0.0,-0.2117829471826553,-0.037566564977169,0.0,0.0,0.0,0,0,,,
311,2023-03-08 08:36:12.219254017-08:00,63233030,0.0,0.0,0.5,0.5,0.0,-0.2010425478219986,-0.070915974676609,0.0,0.0,0.0,0,0,,,
312,2023-03-08 08:36:12.320046902-08:00,63333823,0.0,0.0,0.5,0.5,0.0,-0.1856600493192672,-0.0455759726464748,0.0,0.0,0.0,0,1,,,
313,2023-03-08 08:36:12.420006990-08:00,63433783,0.0,0.0,0.5,0.5,0.0,-0.1672828048467636,-0.2928886413574219,0.0,0.0,0.0,0,2,,,
314,2023-03-08 08:36:12.519966841-08:00,63533743,0.0,0.0,0.5,0.5,0.0,-0.1558226644992828,-0.0704787150025367,0.0,0.0,0.0,0,2,,,
315,2023-03-08 08:36:12.619926929-08:00,63633703,0.0,0.0,0.5,0.5,0.0,-0.1465302556753158,-0.2745906412601471,0.0,0.0,0.0,0,3,,,
316,2023-03-08 08:36:12.719887018-08:00,63733663,0.0,0.0,0.5,0.5,0.0,-0.1421477049589157,-0.0649441927671432,0.0,0.0,0.0,0,3,,,
317,2023-03-08 08:36:12.819846869-08:00,63833623,0.0,0.0,0.5,0.5,0.0,-0.1378404200077057,-0.1885526925325393,0.0,0.0,0.0,0,3,,,
318,2023-03-08 08:36:12.919806957-08:00,63933583,0.0,0.0,0.5,0.5,0.0,-0.1341296285390854,-0.2011949867010116,0.0,0.0,0.0,0,3,,,
319,2023-03-08 08:36:13.019767046-08:00,64033543,0.0,0.0,0.5,0.5,0.0,-0.1338081806898117,-0.3138631880283355,0.0,0.0,0.0,0,3,,,
320,2023-03-08 08:36:13.119726896-08:00,64133503,0.0,0.0,0.5,0.5,0.0,-0.1402386128902435,-0.3315923810005188,0.0,0.0,0.0,0,2,,,
321,2023-03-08 08:36:13.219686985-08:00,64233463,0.0,0.0,0.5,0.5,0.0,-0.1540871709585189,-0.3600000143051147,0.0,0.0,0.0,0,1,,,
322,2023-03-08 08:36:13.319646835-08:00,64333423,0.0,0.0,0.5,0.5,0.0,-0.1741012930870056,-0.4163560271263122,0.0,0.0,0.0,0,0,,,
323,2023-03-08 08:36:13.419606924-08:00,64433383,0.0,0.0,0.5,0.5,0.0,-0.2003852427005767,-0.1763345003128051,0.0,0.0,0.0,0,-2,,,
324,2023-03-08 08:36:13.519567012-08:00,64533343,0.0,0.0,0.5,0.5,0.0,-0.2226362824440002,-0.337512344121933,0.0,0.0,0.0,0,-3,,,
325,2023-03-08 08:36:13.619526863-08:00,64633303,0.0,0.0,0.5,0.5,0.0,-0.2423636317253112,-0.0679065659642219,0.0,0.0,0.0,0,-4,,,
326,2023-03-08 08:36:13.719486952-08:00,64733263,0.0,0.0,0.5,0.5,0.0,-0.2529966533184051,-0.3530994951725006,0.0,0.0,0.0,0,-4,,,
327,2023-03-08 08:36:13.819447041-08:00,64833223,0.0,0.0,0.5,0.5,0.0,-0.2618135511875152,-0.1771225333213806,0.0,0.0,0.0,0,-4,,,
328,2023-03-08 08:36:13.919406891-08:00,64933183,0.0,0.0,0.5,0.5,0.0,-0.2682093977928161,-0.0338321104645729,0.0,0.0,0.0,0,-4,,,
329,2023-03-08 08:36:14.019366980-08:00,65033143,0.0,0.0,0.5,0.5,0.0,-0.2641395032405853,-0.2876211702823639,0.0,0.0,0.0,0,-3,,,
330,2023-03-08 08:36:14.119326830-08:00,65133103,0.0,0.0,0.5,0.5,0.0,-0.2590114772319793,-0.2617446482181549,0.0,0.0,0.0,0,-3,,,
331,2023-03-08 08:36:14.219286919-08:00,65233063,0.0,0.0,0.5,0.5,0.0,-0.2573501169681549,-0.4114516973495483,0.0,0.0,0.0,0,-2,,,
332,2023-03-08 08:36:14.319247007-08:00,65333023,0.0,0.0,0.5,0.5,0.0,-0.2630163133144378,-0.1257541477680206,0.0,0.0,0.0,0,-3,,,
333,2023-03-08 08:36:14.420039892-08:00,65433816,0.0,0.0,0.5,0.5,0.0,-0.2660099565982818,-0.0277698505669832,0.0,0.0,0.0,0,-3,,,
334,2023-03-08 08:36:14.519999981-08:00,65533776,0.0,0.0,0.5,0.5,0.0,-0.2570852041244507,-0.0421097725629806,0.0,0.0,0.0,0,-2,,,
335,2023-03-08 08:36:14.619959831-08:00,65633736,0.0,0.0,0.5,0.5,0.0,-0.2398137301206588,-0.3773991465568542,0.0,0.0,0.0,0,0,,,
336,2023-03-08 08:36:14.719919920-08:00,65733696,0.0,0.0,0.5,0.5,0.0,-0.2314474433660507,-0.1900825053453445,0.0,0.0,0.0,0,0,,,
337,2023-03-08 08:36:14.819880009-08:00,65833656,0.0,0.0,0.5,0.5,0.0,-0.2260808497667312,-0.0665094852447509,0.0,0.0,0.0,0,0,,,
338,2023-03-08 08:36:14.919839859-08:00,65933616,0.0,0.0,0.5,0.5,0.0,-0.2154653072357177,-0.1801163852214813,0.0,0.0,0.0,0,0,,,
339,2023-03-08 08:36:15.019799948-08:00,66033576,0.0,0.0,0.5,0.5,0.0,-0.2046418935060501,-0.2702738344669342,0.0,0.0,0.0,0,1,,,
340,2023-03-08 08:36:15.119760036-08:00,66133536,0.0,0.0,0.5,0.5,0.0,-0.1992609351873397,-0.238270491361618,0.0,0.0,0.0,0,1,,,
341,2023-03-08 08:36:15.219719887-08:00,66233496,0.0,0.0,0.5,0.5,0.0,-0.1977341771125793,-0.1636778563261032,0.0,0.0,0.0,0,1,,,
342,2023-03-08 08:36:15.319679976-08:00,66333456,0.0,0.0,0.5,0.5,0.0,-0.1954540461301803,-0.2365078926086425,0.0,0.0,0.0,0,1,,,
343,2023-03-08 08:36:15.419639826-08:00,66433416,0.0,0.0,0.5,0.5,0.0,-0.1949751228094101,-0.3051096200942993,0.0,0.0,0.0,0,0,,,
344,2023-03-08 08:36:15.519599915-08:00,66533376,0.0,0.0,0.5,0.5,0.0,-0.20015349984169,-0.1614899486303329,0.0,0.0,0.0,0,0,,,
345,2023-03-08 08:36:15.619560003-08:00,66633336,0.0,0.0,0.5,0.5,0.0,-0.2035263180732727,-0.3422345221042633,0.0,0.0,0.0,0,0,,,
346,2023-03-08 08:36:15.719519854-08:00,66733296,0.0,0.0,0.5,0.5,0.0,-0.2112759202718734,-0.3567610085010528,0.0,0.0,0.0,0,0,,,
347,2023-03-08 08:36:15.819479942-08:00,66833256,0.0,0.0,0.5,0.5,0.0,-0.2247488349676132,-0.3226255476474762,0.0,0.0,0.0,0,-1,,,
348,2023-03-08 08:36:15.919440031-08:00,66933216,0.0,0.0,0.5,0.5,0.0,-0.2405420392751693,-0.1622588485479354,0.0,0.0,0.0,0,-2,,,
349,2023-03-08 08:36:16.019399881-08:00,67033176,0.0,0.0,0.5,0.5,0.0,-0.2501978278160095,-0.0660447254776954,0.0,0.0,0.0,0,-3,,,
350,2023-03-08 08:36:16.119359970-08:00,67133136,0.0,0.0,0.5,0.5,0.0,-0.2489774227142334,-0.3751741945743561,0.0,0.0,0.0,0,-2,,,
351,2023-03-08 08:36:16.219319820-08:00,67233096,0.0,0.0,0.5,0.5,0.0,-0.2518835961818695,-0.3292729556560516,0.0,0.0,0.0,0,-2,,,
352,2023-03-08 08:36:16.319279909-08:00,67333056,0.0,0.0,0.5,0.5,0.0,-0.2595699429512024,-0.357226550579071,0.0,0.0,0.0,0,-2,,,
353,2023-03-08 08:36:16.419239998-08:00,67433016,0.0,0.0,0.5,0.5,0.0,-0.2709960341453552,-0.104951374232769,0.0,0.0,0.0,0,-3,,,
354,2023-03-08 08:36:16.520032882-08:00,67533809,0.0,0.0,0.5,0.5,0.0,-0.2744016945362091,-0.0945172980427742,0.0,0.0,0.0,0,-3,,,
355,2023-03-08 08:36:16.619992971-08:00,67633769,0.0,0.0,0.5,0.5,0.0,-0.2681531906127929,-0.2342960834503173,0.0,0.0,0.0,0,-2,,,
356,2023-03-08 08:36:16.719952822-08:00,67733729,0.0,0.0,0.5,0.5,0.0,-0.2610112130641937,-0.1587802916765213,0.0,0.0,0.0,0,-1,,,
357,2023-03-08 08:36:16.819912910-08:00,67833689,0.0,0.0,0.5,0.5,0.0,-0.2520528733730316,-0.3081249892711639,0.0,0.0,0.0,0,-1,,,
358,2023-03-08 08:36:16.919872999-08:00,67933649,0.0,0.0,0.5,0.5,0.0,-0.2474536597728729,-0.2584347128868103,0.0,0.0,0.0,0,0,,,
359,2023-03-08 08:36:17.019832850-08:00,68033609,0.0,0.0,0.5,0.5,0.0,-0.245881050825119,-0.2426040321588516,0.0,0.0,0.0,0,0,,,
360,2023-03-08 08:36:17.119792938-08:00,68133569,0.0,0.0,0.5,0.5,0.0,-0.2451766580343246,-0.2757370173931122,0.0,0.0,0.0,0,0,,,
361,2023-03-08 08:36:17.219753027-08:00,68233529,0.0,0.0,0.5,0.5,0.0,-0.2462577223777771,-0.359773188829422,0.0,0.0,0.0,0,0,,,
362,2023-03-08 08:36:17.319712877-08:00,68333489,0.0,0.0,0.5,0.5,0.0,-0.2524759471416473,-0.1829045712947845,0.0,0.0,0.0,0,-1,,,
363,2023-03-08 08:36:17.419672966-08:00,68433449,0.0,0.0,0.5,0.5,0.0,-0.2556976079940796,-0.4014158248901367,0.0,0.0,0.0,0,-1,,,
364,2023-03-08 08:36:17.519633055-08:00,68533409,0.0,0.0,0.5,0.5,0.0,-0.2635954916477203,-0.0521759390830993,0.0,0.0,0.0,0,-1,,,
365,2023-03-08 08:36:17.619592905-08:00,68633369,0.0,0.0,0.5,0.5,0.0,-0.2625173926353454,-0.2062671333551406,0.0,0.0,0.0,0,-1,,,
366,2023-03-08 08:36:17.719552994-08:00,68733329,0.0,0.0,0.5,0.5,0.0,-0.2571306228637695,-0.299516499042511,0.0,0.0,0.0,0,0,,,
367,2023-03-08 08:36:17.819512844-08:00,68833289,0.0,0.0,0.5,0.5,0.0,-0.2547191381454468,-0.1262404322624206,0.0,0.0,0.0,0,0,,,
368,2023-03-08 08:36:17.919472933-08:00,68933249,0.0,0.0,0.5,0.5,0.0,-0.2483846396207809,-0.1415158659219741,0.0,0.0,0.0,0,0,,,
369,2023-03-08 08:36:18.019433022-08:00,69033209,0.0,0.0,0.5,0.5,0.0,-0.2379120141267776,-0.2477463334798813,0.0,0.0,0.0,0,0,,,
370,2023-03-08 08:36:18.119392872-08:00,69133169,0.0,0.0,0.5,0.5,0.0,-0.2295238375663757,-0.3335658609867096,0.0,0.0,0.0,0,1,,,
371,2023-03-08 08:36:18.219352961-08:00,69233129,0.0,0.0,0.5,0.5,0.0,-0.2278849333524704,-0.3782541453838348,0.0,0.0,0.0,0,1,,,
372,2023-03-08 08:36:18.319313049-08:00,69333089,0.0,0.0,0.5,0.5,0.0,-0.2340552508831024,-0.2787452042102813,0.0,0.0,0.0,0,0,,,
373,2023-03-08 08:36:18.419272900-08:00,69433049,0.0,0.0,0.5,0.5,0.0,-0.2419300228357315,-0.4190369844436645,0.0,0.0,0.0,0,0,,,
374,2023-03-08 08:36:18.520066023-08:00,69533842,0.0,0.0,0.5,0.5,0.0,-0.2553600370883941,-0.0341489948332309,0.0,0.0,0.0,0,0,,,
375,2023-03-08 08:36:18.620025873-08:00,69633802,0.0,0.0,0.5,0.5,0.0,-0.257777065038681,-0.3341191112995147,0.0,0.0,0.0,0,0,,,
376,2023-03-08 08:36:18.719985962-08:00,69733762,0.0,0.0,0.5,0.5,0.0,-0.2599964439868927,-0.1864213943481445,0.0,0.0,0.0,0,0,,,
377,2023-03-08 08:36:18.819946051-08:00,69833722,0.0,0.0,0.5,0.5,0.0,-0.2595510184764862,-0.2143459022045135,0.0,0.0,0.0,0,0,,,
378,2023-03-08 08:36:18.919905901-08:00,69933682,0.0,0.0,0.5,0.5,0.0,-0.2565494179725647,-0.1032744720578193,0.0,0.0,0.0,0,0,,,
379,2023-03-08 08:36:19.019865990-08:00,70033642,0.0,0.0,0.5,0.5,0.0,-0.2475035041570663,-0.0398712530732154,0.0,0.0,0.0,0,0,,,
380,2023-03-08 08:36:19.119825840-08:00,70133602,0.0,0.0,0.5,0.5,0.0,-0.2304077297449112,-0.2652303874492645,0.0,0.0,0.0,0,1,,,
381,2023-03-08 08:36:19.219785929-08:00,70233562,0.0,0.0,0.5,0.5,0.0,-0.2168739438056945,-0.3397747874259949,0.0,0.0,0.0,0,2,,,
382,2023-03-08 08:36:19.319746017-08:00,70333522,0.0,0.0,0.5,0.5,0.0,-0.2123873233795166,-0.3556194305419922,0.0,0.0,0.0,0,2,,,
383,2023-03-08 08:36:19.419705868-08:00,70433482,0.0,0.0,0.5,0.5,0.0,-0.2161425352096557,-0.2273465394973755,0.0,0.0,0.0,0,1,,,
384,2023-03-08 08:36:19.519665956-08:00,70533442,0.0,0.0,0.5,0.5,0.0,-0.2204313576221466,-0.3387675285339355,0.0,0.0,0.0,0,1,,,
385,2023-03-08 08:36:19.619626045-08:00,70633402,0.0,0.0,0.5,0.5,0.0,-0.2279983311891555,-0.1117701679468154,0.0,0.0,0.0,0,0,,,
386,2023-03-08 08:36:19.719585896-08:00,70733362,0.0,0.0,0.5,0.5,0.0,-0.2294362187385559,-0.1744415611028671,0.0,0.0,0.0,0,0,,,
387,2023-03-08 08:36:19.819545984-08:00,70833322,0.0,0.0,0.5,0.5,0.0,-0.2262273728847503,-0.3905133903026581,0.0,0.0,0.0,0,1,,,
388,2023-03-08 08:36:19.919505835-08:00,70933282,0.0,0.0,0.5,0.5,0.0,-0.2297419309616089,-0.2087790966033935,0.0,0.0,0.0,0,0,,,
389,2023-03-08 08:36:20.019465923-08:00,71033242,0.0,0.0,0.5,0.5,0.0,-0.2330187112092971,-0.1935407370328903,0.0,0.0,0.0,0,0,,,
390,2023-03-08 08:36:20.119426012-08:00,71133202,0.0,0.0,0.5,0.5,0.0,-0.233091726899147,-0.4085726141929626,0.0,0.0,0.0,0,0,,,
391,2023-03-08 08:36:20.219385862-08:00,71233162,0.0,0.0,0.5,0.5,0.0,-0.2397683709859848,-0.4052008986473083,0.0,0.0,0.0,0,0,,,
392,2023-03-08 08:36:20.319345951-08:00,71333122,0.0,0.0,0.5,0.5,0.0,-0.2534933984279632,-0.3009765744209289,0.0,0.0,0.0,0,0,,,
393,2023-03-08 08:36:20.419306040-08:00,71433082,0.0,0.0,0.5,0.5,0.0,-0.2673376500606537,-0.2418769896030426,0.0,0.0,0.0,0,-1,,,
394,2023-03-08 08:36:20.519265890-08:00,71533042,0.0,0.0,0.5,0.5,0.0,-0.2769290208816528,-0.2915250360965729,0.0,0.0,0.0,0,-2,,,
395,2023-03-08 08:36:20.620059013-08:00,71633835,0.0,0.0,0.5,0.5,0.0,-0.2845178246498108,-0.4134263396263122,0.0,0.0,0.0,0,-2,,,
396,2023-03-08 08:36:20.720018864-08:00,71733795,0.0,0.0,0.5,0.5,0.0,-0.2960857450962066,-0.2049848586320877,0.0,0.0,0.0,0,-3,,,
397,2023-03-08 08:36:20.819978952-08:00,71833755,0.0,0.0,0.5,0.5,0.0,-0.3035032451152801,-0.0720025524497032,0.0,0.0,0.0,0,-3,,,
398,2023-03-08 08:36:20.919939041-08:00,71933715,0.0,0.0,0.5,0.5,0.0,-0.2995255887508392,-0.088953286409378,0.0,0.0,0.0,0,-2,,,
399,2023-03-08 08:36:21.019898891-08:00,72033675,0.0,0.0,0.5,0.5,0.0,-0.2856037020683288,-0.2712938487529754,0.0,0.0,0.0,0,-1,,,
400,2023-03-08 08:36:21.119858980-08:00,72133635,0.0,0.0,0.5,0.5,0.0,-0.2720116078853607,-0.0816414207220077,0.0,0.0,0.0,0,0,,,
401,2023-03-08 08:36:21.219818830-08:00,72233595,0.0,0.0,0.5,0.5,0.0,-0.2559114098548889,-0.2990852296352386,0.0,0.0,0.0,0,0,,,
402,2023-03-08 08:36:21.319778919-08:00,72333555,0.0,0.0,0.5,0.5,0.0,-0.2427422106266021,-0.1619005054235458,0.0,0.0,0.0,0,1,,,
403,2023-03-08 08:36:21.419739008-08:00,72433515,0.0,0.0,0.5,0.5,0.0,-0.2314160466194152,-0.1840170621871948,0.0,0.0,0.0,0,2,,,
404,2023-03-08 08:36:21.519698858-08:00,72533475,0.0,0.0,0.5,0.5,0.0,-0.2199489325284958,-0.1035223975777626,0.0,0.0,0.0,0,2,,,
405,2023-03-08 08:36:21.619658947-08:00,72633435,0.0,0.0,0.5,0.5,0.0,-0.2063172906637191,-0.0851582437753677,0.0,0.0,0.0,0,3,,,
406,2023-03-08 08:36:21.719619036-08:00,72733395,0.0,0.0,0.5,0.5,0.0,-0.1894370764493942,-0.3386284410953522,0.0,0.0,0.0,0,4,,,
407,2023-03-08 08:36:21.819578886-08:00,72833355,0.0,0.0,0.5,0.5,0.0,-0.1795464158058166,-0.3073034882545471,0.0,0.0,0.0,0,4,,,
408,2023-03-08 08:36:21.919538975-08:00,72933315,0.0,0.0,0.5,0.5,0.0,-0.1790919601917266,-0.1062910556793212,0.0,0.0,0.0,0,3,,,
409,2023-03-08 08:36:22.019498825-08:00,73033275,0.0,0.0,0.5,0.5,0.0,-0.1779754757881164,-0.2437328547239303,0.0,0.0,0.0,0,3,,,
410,2023-03-08 08:36:22.119458914-08:00,73133235,0.0,0.0,0.5,0.5,0.0,-0.1770857721567154,-0.0605719871819019,0.0,0.0,0.0,0,2,,,
411,2023-03-08 08:36:22.219419003-08:00,73233195,0.0,0.0,0.5,0.5,0.0,-0.172501191496849,-0.1550809144973755,0.0,0.0,0.0,0,3,,,
412,2023-03-08 08:36:22.319378853-08:00,73333155,0.0,0.0,0.5,0.5,0.0,-0.1653364598751068,-0.1720958203077316,0.0,0.0,0.0,0,3,,,
413,2023-03-08 08:36:22.419338942-08:00,73433115,0.0,0.0,0.5,0.5,0.0,-0.1590745449066162,-0.0435363538563251,0.0,0.0,0.0,0,3,,,
414,2023-03-08 08:36:22.519299030-08:00,73533075,0.0,0.0,0.5,0.5,0.0,-0.1494554579257965,-0.4056030809879303,0.0,0.0,0.0,0,4,,,
415,2023-03-08 08:36:22.619258881-08:00,73633035,0.0,0.0,0.5,0.5,0.0,-0.1482597440481186,-0.1628356128931045,0.0,0.0,0.0,0,3,,,
416,2023-03-08 08:36:22.720052004-08:00,73733828,0.0,0.0,0.5,0.5,0.0,-0.1514688581228256,-0.225334420800209,0.0,0.0,0.0,0,3,,,
417,2023-03-08 08:36:22.820011854-08:00,73833788,0.0,0.0,0.5,0.5,0.0,-0.1553883254528045,-0.2766450047492981,0.0,0.0,0.0,0,2,,,
418,2023-03-08 08:36:22.919971943-08:00,73933748,0.0,0.0,0.5,0.5,0.0,-0.1626944094896316,-0.3282585442066192,0.0,0.0,0.0,0,2,,,
419,2023-03-08 08:36:23.019932032-08:00,74033708,0.0,0.0,0.5,0.5,0.0,-0.1750116646289825,-0.3289385437965393,0.0,0.0,0.0,0,1,,,
420,2023-03-08 08:36:23.119891882-08:00,74133668,0.0,0.0,0.5,0.5,0.0,-0.1915188729763031,-0.1369196474552154,0.0,0.0,0.0,0,0,,,
421,2023-03-08 08:36:23.219851971-08:00,74233628,0.0,0.0,0.5,0.5,0.0,-0.2036213278770446,-0.2728718817234039,0.0,0.0,0.0,0,0,,,
422,2023-03-08 08:36:23.319811821-08:00,74333588,0.0,0.0,0.5,0.5,0.0,-0.2132965475320816,-0.1344929784536361,0.0,0.0,0.0,0,-1,,,
423,2023-03-08 08:36:23.419771910-08:00,74433548,0.0,0.0,0.5,0.5,0.0,-0.2186096310615539,-0.0402076691389083,0.0,0.0,0.0,0,-1,,,
424,2023-03-08 08:36:23.519731998-08:00,74533508,0.0,0.0,0.5,0.5,0.0,-0.2146189212799072,-0.1792059987783432,0.0,0.0,0.0,0,0,,,
425,2023-03-08 08:36:23.619691849-08:00,74633468,0.0,0.0,0.5,0.5,0.0,-0.2072979658842086,-0.3559239506721496,0.0,0.0,0.0,0,0,,,
426,2023-03-08 08:36:23.719651937-08:00,74733428,0.0,0.0,0.5,0.5,0.0,-0.2069060802459716,-0.269419252872467,0.0,0.0,0.0,0,0,,,
427,2023-03-08 08:36:23.819612026-08:00,74833388,0.0,0.0,0.5,0.5,0.0,-0.2118256688117981,-0.0185100454837083,0.0,0.0,0.0,0,0,,,
428,2023-03-08 08:36:23.919571877-08:00,74933348,0.0,0.0,0.5,0.5,0.0,-0.2097192704677581,-0.0966434180736541,0.0,0.0,0.0,0,0,,,
429,2023-03-08 08:36:24.019531965-08:00,75033308,0.0,0.0,0.5,0.5,0.0,-0.2005918622016906,-0.1393335461616516,0.0,0.0,0.0,0,0,,,
430,2023-03-08 08:36:24.119492054-08:00,75133268,0.0,0.0,0.5,0.5,0.0,-0.1898182034492492,-0.3609749674797058,0.0,0.0,0.0,0,1,,,
431,2023-03-08 08:36:24.219451904-08:00,75233228,0.0,0.0,0.5,0.5,0.0,-0.1870098710060119,-0.2292151600122451,0.0,0.0,0.0,0,1,,,
432,2023-03-08 08:36:24.319411993-08:00,75333188,0.0,0.0,0.5,0.5,0.0,-0.1895810812711715,-0.2207601219415664,0.0,0.0,0.0,0,0,,,
433,2023-03-08 08:36:24.419371843-08:00,75433148,0.0,0.0,0.5,0.5,0.0,-0.1930372565984726,-0.3331377506256103,0.0,0.0,0.0,0,0,,,
434,2023-03-08 08:36:24.519331932-08:00,75533108,0.0,0.0,0.5,0.5,0.0,-0.2008178830146789,-0.0211308188736438,0.0,0.0,0.0,0,0,,,
435,2023-03-08 08:36:24.619292021-08:00,75633068,0.0,0.0,0.5,0.5,0.0,-0.2024072408676147,-0.070684790611267,0.0,0.0,0.0,0,0,,,
436,2023-03-08 08:36:24.719251871-08:00,75733028,0.0,0.0,0.5,0.5,0.0,-0.1952638328075409,-0.3129998445510864,0.0,0.0,0.0,0,0,,,
437,2023-03-08 08:36:24.820044994-08:00,75833821,0.0,0.0,0.5,0.5,0.0,-0.1917327642440796,-0.1228746846318245,0.0,0.0,0.0,0,0,,,
438,2023-03-08 08:36:24.920004845-08:00,75933781,0.0,0.0,0.5,0.5,0.0,-0.1888497918844223,-0.413858413696289,0.0,0.0,0.0,0,0,,,
439,2023-03-08 08:36:25.019964933-08:00,76033741,0.0,0.0,0.5,0.5,0.0,-0.1932852864265442,-0.3103475868701935,0.0,0.0,0.0,0,0,,,
440,2023-03-08 08:36:25.119925022-08:00,76133701,0.0,0.0,0.5,0.5,0.0,-0.204689934849739,-0.0645483881235122,0.0,0.0,0.0,0,0,,,
441,2023-03-08 08:36:25.219884872-08:00,76233661,0.0,0.0,0.5,0.5,0.0,-0.2098495364189148,-0.1683438271284103,0.0,0.0,0.0,0,0,,,
442,2023-03-08 08:36:25.319844961-08:00,76333621,0.0,0.0,0.5,0.5,0.0,-0.2092950344085693,-0.0501191802322864,0.0,0.0,0.0,0,0,,,
443,2023-03-08 08:36:25.419805050-08:00,76433581,0.0,0.0,0.5,0.5,0.0,-0.202459767460823,-0.3512065410614013,0.0,0.0,0.0,0,0,,,
444,2023-03-08 08:36:25.519764900-08:00,76533541,0.0,0.0,0.5,0.5,0.0,-0.1998952627182006,-0.2621974647045135,0.0,0.0,0.0,0,0,,,
445,2023-03-08 08:36:25.619724989-08:00,76633501,0.0,0.0,0.5,0.5,0.0,-0.2031237930059433,-0.0544327981770038,0.0,0.0,0.0,0,0,,,
446,2023-03-08 08:36:25.719684839-08:00,76733461,0.0,0.0,0.5,0.5,0.0,-0.2012377083301544,-0.3266609609127044,0.0,0.0,0.0,0,0,,,
447,2023-03-08 08:36:25.819644928-08:00,76833421,0.0,0.0,0.5,0.5,0.0,-0.201468363404274,-0.2049222737550735,0.0,0.0,0.0,0,0,,,
448,2023-03-08 08:36:25.919605017-08:00,76933381,0.0,0.0,0.5,0.5,0.0,-0.204097718000412,-0.0926662161946296,0.0,0.0,0.0,0,0,,,
449,2023-03-08 08:36:26.019564867-08:00,77033341,0.0,0.0,0.5,0.5,0.0,-0.201979324221611,-0.1996229290962219,0.0,0.0,0.0,0,0,,,
450,2023-03-08 08:36:26.119524956-08:00,77133301,0.0,0.0,0.5,0.5,0.0,-0.1981959044933319,-0.3773218393325805,0.0,0.0,0.0,0,0,,,
451,2023-03-08 08:36:26.219485044-08:00,77233261,0.0,0.0,0.5,0.5,0.0,-0.201786994934082,-0.4043188095092773,0.0,0.0,0.0,0,0,,,
452,2023-03-08 08:36:26.319444895-08:00,77333221,0.0,0.0,0.5,0.5,0.0,-0.2149167954921722,-0.3364154100418091,0.0,0.0,0.0,0,0,,,
453,2023-03-08 08:36:26.419404984-08:00,77433181,0.0,0.0,0.5,0.5,0.0,-0.2324706614017486,-0.0816653370857238,0.0,0.0,0.0,0,-2,,,
454,2023-03-08 08:36:26.519364834-08:00,77533141,0.0,0.0,0.5,0.5,0.0,-0.2420418262481689,-0.3940198421478271,0.0,0.0,0.0,0,-2,,,
455,2023-03-08 08:36:26.619324923-08:00,77633101,0.0,0.0,0.5,0.5,0.0,-0.2518289983272552,-0.125914379954338,0.0,0.0,0.0,0,-2,,,
456,2023-03-08 08:36:26.719285011-08:00,77733061,0.0,0.0,0.5,0.5,0.0,-0.2578221261501312,-0.2031485140323639,0.0,0.0,0.0,0,-2,,,
457,2023-03-08 08:36:26.819244862-08:00,77833021,0.0,0.0,0.5,0.5,0.0,-0.2585031390190124,-0.1883067637681961,0.0,0.0,0.0,0,-2,,,
458,2023-03-08 08:36:26.920037985-08:00,77933814,0.0,0.0,0.5,0.5,0.0,-0.2563375234603882,-0.2077706456184387,0.0,0.0,0.0,0,-2,,,
459,2023-03-08 08:36:27.019997835-08:00,78033774,0.0,0.0,0.5,0.5,0.0,-0.2525748312473297,-0.254476249217987,0.0,0.0,0.0,0,-1,,,
460,2023-03-08 08:36:27.119957924-08:00,78133734,0.0,0.0,0.5,0.5,0.0,-0.2498645186424255,-0.3934275209903717,0.0,0.0,0.0,0,-1,,,
461,2023-03-08 08:36:27.219918013-08:00,78233694,0.0,0.0,0.5,0.5,0.0,-0.2538530528545379,-0.2588197588920593,0.0,0.0,0.0,0,-1,,,
462,2023-03-08 08:36:27.319877863-08:00,78333654,0.0,0.0,0.5,0.5,0.0,-0.2603093385696411,-0.1819666773080825,0.0,0.0,0.0,0,-2,,,
463,2023-03-08 08:36:27.419837952-08:00,78433614,0.0,0.0,0.5,0.5,0.0,-0.262927234172821,-0.2155931144952774,0.0,0.0,0.0,0,-2,,,
464,2023-03-08 08:36:27.519798039-08:00,78533574,0.0,0.0,0.5,0.5,0.0,-0.262356162071228,-0.039000317454338,0.0,0.0,0.0,0,-2,,,
465,2023-03-08 08:36:27.619757891-08:00,78633534,0.0,0.0,0.5,0.5,0.0,-0.2538373172283172,-0.1568538695573806,0.0,0.0,0.0,0,-1,,,
466,2023-03-08 08:36:27.719717979-08:00,78733494,0.0,0.0,0.5,0.5,0.0,-0.2407311350107193,-0.2739776074886322,0.0,0.0,0.0,0,0,,,
467,2023-03-08 08:36:27.819677830-08:00,78833454,0.0,0.0,0.5,0.5,0.0,-0.2312738299369812,-0.031822383403778,0.0,0.0,0.0,0,0,,,
