TimeUS,terrain_z,sub_z,rf
73356000,-20.0,-10.565820693969727,9.339179306030273
73356000,-20.0,-10.565820693969727,9.339179306030273
73606000,-20.0,-10.536938667297363,9.368061332702636
73606000,-20.0,-10.536938667297363,9.368061332702636
73856000,-20.0,-10.530418395996094,9.374581604003906
73856000,-20.0,-10.530418395996094,9.374581604003906
73856000,-20.0,-10.530418395996094,9.374581604003906
74106000,-20.0,-10.543598175048828,9.361401824951171
74106000,-20.0,-10.543598175048828,9.361401824951171
74356000,-20.0,-10.554100036621094,9.350899963378906
74356000,-20.0,-10.554100036621094,9.350899963378906
74356000,-20.0,-10.554100036621094,9.350899963378906
74608000,-20.0,-10.526311874389648,9.378688125610351
74608000,-20.0,-10.526311874389648,9.378688125610351
74856000,-20.0,-10.509703636169434,9.395296363830566
74856000,-20.0,-10.509703636169434,9.395296363830566
75106000,-20.0,-10.464888572692871,9.440111427307128
75106000,-20.0,-10.464888572692871,9.440111427307128
75106000,-20.0,-10.464888572692871,9.440111427307128
75356000,-20.0,-10.438371658325195,9.466628341674804
75356000,-20.0,-10.438371658325195,9.466628341674804
75606000,-20.0,-10.426706314086914,9.478293685913085
75606000,-20.0,-10.426706314086914,9.478293685913085
75606000,-20.0,-10.426706314086914,9.478293685913085
75856000,-20.0,-10.389422416687012,9.515577583312988
75856000,-20.0,-10.389422416687012,9.515577583312988
76106000,-20.0,-10.376287460327148,9.528712539672851
76106000,-20.0,-10.376287460327148,9.528712539672851
76106000,-20.0,-10.376287460327148,9.528712539672851
76356000,-20.0,-10.361198425292969,9.54380157470703
76356000,-20.0,-10.361198425292969,9.54380157470703
76606000,-20.0,-10.330681800842285,9.574318199157714
76606000,-20.0,-10.330681800842285,9.574318199157714
76856000,-20.0,-10.307133674621582,9.597866325378417
76856000,-20.0,-10.307133674621582,9.597866325378417
76856000,-20.0,-10.307133674621582,9.597866325378417
77106000,-20.0,-10.279212951660156,9.625787048339843
77106000,-20.0,-10.279212951660156,9.625787048339843
77356000,-20.0,-10.2753324508667,9.6296675491333
77356000,-20.0,-10.2753324508667,9.6296675491333
77356000,-20.0,-10.2753324508667,9.6296675491333
77606000,-20.0,-10.285040855407715,9.619959144592285
77606000,-20.0,-10.285040855407715,9.619959144592285
77856000,-20.0,-10.275899887084961,9.629100112915038
77856000,-20.0,-10.275899887084961,9.629100112915038
77856000,-20.0,-10.275899887084961,9.629100112915038
78106000,-20.0,-10.24778938293457,9.657210617065429
78106000,-20.0,-10.24778938293457,9.657210617065429
78356000,-20.0,-10.238459587097168,9.666540412902831
78356000,-20.0,-10.238459587097168,9.666540412902831
78606000,-20.0,-10.210637092590332,9.694362907409667
78606000,-20.0,-10.210637092590332,9.694362907409667
78606000,-20.0,-10.210637092590332,9.694362907409667
78856000,-20.0,-10.157586097717285,9.747413902282714
78856000,-20.0,-10.157586097717285,9.747413902282714
79106000,-20.0,-10.11148738861084,9.79351261138916
79106000,-20.0,-10.11148738861084,9.79351261138916
79106000,-20.0,-10.11148738861084,9.79351261138916
79356000,-20.0,-10.074697494506836,9.830302505493163
79356000,-20.0,-10.074697494506836,9.830302505493163
79606000,-20.0,-10.049531936645508,9.855468063354492
79606000,-20.0,-10.049531936645508,9.855468063354492
79606000,-20.0,-10.049531936645508,9.855468063354492
79856000,-20.0,-10.032670021057129,9.87232997894287
79856000,-20.0,-10.032670021057129,9.87232997894287
80106000,-20.0,-10.039800643920898,9.865199356079101
80106000,-20.0,-10.039800643920898,9.865199356079101
80106000,-20.0,-10.039800643920898,9.865199356079101
80356000,-20.0,-10.012186050415039,9.89281394958496
80356000,-20.0,-10.012186050415039,9.89281394958496
80606000,-20.0,-9.982166290283203,9.922833709716796
80606000,-20.0,-9.982166290283203,9.922833709716796
80606000,-20.0,-9.982166290283203,9.922833709716796
80858000,-20.0,-9.931802749633789,9.97319725036621
80858000,-20.0,-9.931802749633789,9.97319725036621
81106000,-20.0,-9.887813568115234,10.017186431884765
81106000,-20.0,-9.887813568115234,10.017186431884765
81106000,-20.0,-9.887813568115234,10.017186431884765
81356000,-20.0,-9.891550064086914,10.013449935913085
81356000,-20.0,-9.891550064086914,10.013449935913085
81606000,-20.0,-9.888032913208008,10.016967086791992
81606000,-20.0,-9.888032913208008,10.016967086791992
81856000,-20.0,-9.866273880004883,10.038726119995117
81856000,-20.0,-9.866273880004883,10.038726119995117
81856000,-20.0,-9.866273880004883,10.038726119995117
82106000,-20.0,-9.852971076965332,10.052028923034667
82106000,-20.0,-9.852971076965332,10.052028923034667
82356000,-20.0,-9.85155200958252,10.05344799041748
82356000,-20.0,-9.85155200958252,10.05344799041748
82356000,-20.0,-9.85155200958252,10.05344799041748
82606000,-20.0,-9.809112548828125,10.095887451171874
82606000,-20.0,-9.809112548828125,10.095887451171874
82856000,-20.0,-9.770294189453125,10.134705810546874
82856000,-20.0,-9.770294189453125,10.134705810546874
82856000,-20.0,-9.770294189453125,10.134705810546874
83106000,-20.0,-9.739447593688965,10.165552406311035
83106000,-20.0,-9.739447593688965,10.165552406311035
83356000,-20.0,-9.709284782409668,10.195715217590331
83356000,-20.0,-9.709284782409668,10.195715217590331
83356000,-20.0,-9.709284782409668,10.195715217590331
83606000,-16.0,-9.693092346191406,6.211907653808594
83606000,-16.0,-9.693092346191406,6.211907653808594
83856000,-16.0,-9.665513038635254,6.239486961364746
83856000,-16.0,-9.665513038635254,6.239486961364746
84106000,-16.0,-9.638760566711426,6.2662394332885745
84106000,-16.0,-9.638760566711426,6.2662394332885745
84106000,-16.0,-9.638760566711426,6.2662394332885745
84356000,-16.0,-9.586224555969238,6.318775444030762
84356000,-16.0,-9.586224555969238,6.318775444030762
84606000,-16.0,-9.526918411254883,6.378081588745117
84606000,-16.0,-9.526918411254883,6.378081588745117
84606000,-16.0,-9.526918411254883,6.378081588745117
84856000,-16.0,-9.50761604309082,6.39738395690918
84856000,-16.0,-9.50761604309082,6.39738395690918
85106000,-16.0,-9.499601364135742,6.405398635864258
85106000,-16.0,-9.499601364135742,6.405398635864258
85106000,-16.0,-9.499601364135742,6.405398635864258
85356000,-16.0,-9.491597175598145,6.413402824401856
85356000,-16.0,-9.491597175598145,6.413402824401856
85606000,-16.0,-9.47336196899414,6.43163803100586
85606000,-16.0,-9.47336196899414,6.43163803100586
85856000,-16.0,-9.44921588897705,6.4557841110229495
85856000,-16.0,-9.44921588897705,6.4557841110229495
85856000,-16.0,-9.44921588897705,6.4557841110229495
86106000,-16.0,-9.41734504699707,6.48765495300293
86106000,-16.0,-9.41734504699707,6.48765495300293
86356000,-16.0,-9.362275123596191,6.542724876403809
86356000,-16.0,-9.362275123596191,6.542724876403809
86356000,-16.0,-9.362275123596191,6.542724876403809
86606000,-16.0,-9.35982894897461,6.545171051025391
86606000,-16.0,-9.35982894897461,6.545171051025391
86856000,-16.0,-9.369346618652344,6.5356533813476565
86856000,-16.0,-9.369346618652344,6.5356533813476565
86856000,-16.0,-9.369346618652344,6.5356533813476565
87108000,-16.0,-9.35700798034668,6.547992019653321
87108000,-16.0,-9.35700798034668,6.547992019653321
87356000,-16.0,-9.339207649230957,6.565792350769043
87356000,-16.0,-9.339207649230957,6.565792350769043
87356000,-16.0,-9.339207649230957,6.565792350769043
87606000,-16.0,-9.335943222045898,6.569056777954102
87606000,-16.0,-9.335943222045898,6.569056777954102
87856000,-16.0,-9.311230659484863,6.593769340515137
87856000,-16.0,-9.311230659484863,6.593769340515137
88106000,-16.0,-9.315134048461914,6.589865951538086
88106000,-16.0,-9.315134048461914,6.589865951538086
88106000,-16.0,-9.315134048461914,6.589865951538086
88356000,-16.0,-9.332924842834473,6.572075157165528
88356000,-16.0,-9.332924842834473,6.572075157165528
88606000,-16.0,-9.368474006652832,6.536525993347168
88606000,-16.0,-9.368474006652832,6.536525993347168
88606000,-16.0,-9.368474006652832,6.536525993347168
88856000,-16.0,-9.366043090820312,6.538956909179688
88856000,-16.0,-9.366043090820312,6.538956909179688
89106000,-16.0,-9.401164054870605,6.503835945129395
89106000,-16.0,-9.401164054870605,6.503835945129395
89106000,-16.0,-9.401164054870605,6.503835945129395
89356000,-16.0,-9.459187507629395,6.445812492370606
89356000,-16.0,-9.459187507629395,6.445812492370606
89606000,-16.0,-9.483643531799316,6.421356468200684
89606000,-16.0,-9.483643531799316,6.421356468200684
89856000,-16.0,-9.463534355163574,6.441465644836426
89856000,-16.0,-9.463534355163574,6.441465644836426
89856000,-16.0,-9.463534355163574,6.441465644836426
90106000,-16.0,-9.405125617980957,6.499874382019043
90106000,-16.0,-9.405125617980957,6.499874382019043
90356000,-16.0,-9.3503999710083,6.5546000289916995
90356000,-16.0,-9.3503999710083,6.5546000289916995
90356000,-16.0,-9.3503999710083,6.5546000289916995
90606000,-16.0,-9.339454650878906,6.565545349121094
90606000,-16.0,-9.339454650878906,6.565545349121094
90856000,-16.0,-9.360841751098633,6.544158248901367
90856000,-16.0,-9.360841751098633,6.544158248901367
90856000,-16.0,-9.360841751098633,6.544158248901367
91106000,-16.0,-9.386280059814453,6.518719940185547
91106000,-16.0,-9.386280059814453,6.518719940185547
91356000,-16.0,-9.395133018493652,6.509866981506348
91356000,-16.0,-9.395133018493652,6.509866981506348
91606000,-16.0,-9.366106033325195,6.538893966674805
91606000,-16.0,-9.366106033325195,6.538893966674805
91606000,-16.0,-9.366106033325195,6.538893966674805
91856000,-16.0,-9.376144409179688,6.528855590820313
91856000,-16.0,-9.376144409179688,6.528855590820313
92106000,-16.0,-9.372251510620117,6.532748489379883
92106000,-16.0,-9.372251510620117,6.532748489379883
92106000,-16.0,-9.372251510620117,6.532748489379883
92356000,-16.0,-9.343911170959473,6.561088829040528
92356000,-16.0,-9.343911170959473,6.561088829040528
92606000,-16.0,-9.30103588104248,6.60396411895752
92606000,-16.0,-9.30103588104248,6.60396411895752
92606000,-16.0,-9.30103588104248,6.60396411895752
92856000,-16.0,-9.268502235412598,6.636497764587403
92856000,-16.0,-9.268502235412598,6.636497764587403
93106000,-16.0,-9.293672561645508,6.611327438354492
93106000,-16.0,-9.293672561645508,6.611327438354492
93106000,-16.0,-9.293672561645508,6.611327438354492
93358000,-16.0,-9.378039360046387,6.5269606399536135
93358000,-16.0,-9.378039360046387,6.5269606399536135
93606000,-16.0,-9.446576118469238,6.458423881530762
93606000,-16.0,-9.446576118469238,6.458423881530762
93856000,-16.0,-9.44876766204834,6.45623233795166
93856000,-16.0,-9.44876766204834,6.45623233795166
93856000,-16.02,-9.44876766204834,6.47623233795166
94106000,-16.05,-9.42369556427002,6.531304435729981
94106000,-16.08,-9.42369556427002,6.561304435729979
94356000,-16.1,-9.40672779083252,6.598272209167482
94356000,-16.12,-9.40672779083252,6.618272209167482
94356000,-16.15,-9.40672779083252,6.648272209167479
94606000,-16.17,-9.42167854309082,6.653321456909182
94606000,-16.2,-9.42167854309082,6.683321456909179
94856000,-16.23,-9.436039924621582,6.698960075378419
94856000,-16.25,-9.436039924621582,6.718960075378418
94856000,-16.27,-9.436039924621582,6.738960075378418
95106000,-16.3,-9.492058753967285,6.712941246032716
95106000,-16.33,-9.492058753967285,6.742941246032713
95356000,-16.35,-9.528566360473633,6.726433639526369
95356000,-16.38,-9.528566360473633,6.756433639526366
95356000,-16.4,-9.528566360473633,6.776433639526366
95606000,-16.42,-9.542229652404785,6.782770347595217
95606000,-16.45,-9.542229652404785,6.812770347595214
95856000,-16.48,-9.607723236083984,6.777276763916016
95856000,-16.5,-9.607723236083984,6.797276763916016
95856000,-16.52,-9.607723236083984,6.8172767639160154
96106000,-16.55,-9.720952987670898,6.7340470123291025
96106000,-16.58,-9.720952987670898,6.7640470123291
96356000,-16.6,-9.834616661071777,6.670383338928224
96356000,-16.62,-9.834616661071777,6.690383338928224
96606000,-16.65,-9.968921661376953,6.586078338623046
96606000,-16.67,-9.968921661376953,6.606078338623049
96606000,-16.7,-9.968921661376953,6.636078338623046
96856000,-16.73,-10.062936782836914,6.572063217163087
96856000,-16.75,-10.062936782836914,6.592063217163086
97106000,-16.77,-10.112497329711914,6.562502670288086
97106000,-16.8,-10.112497329711914,6.592502670288087
97106000,-16.83,-10.112497329711914,6.6225026702880845
97356000,-16.85,-10.1870756149292,6.5679243850708025
97356000,-16.88,-10.1870756149292,6.5979243850708
97606000,-16.9,-10.223915100097656,6.581084899902343
97606000,-16.92,-10.223915100097656,6.601084899902346
97606000,-16.95,-10.223915100097656,6.631084899902343
97856000,-16.98,-10.287426948547363,6.597573051452637
97856000,-17.0,-10.287426948547363,6.617573051452637
98106000,-17.03,-10.33907413482666,6.595925865173341
98106000,-17.05,-10.33907413482666,6.615925865173341
98356000,-17.08,-10.357495307922363,6.627504692077635
98356000,-17.1,-10.357495307922363,6.647504692077638
98356000,-17.12,-10.357495307922363,6.667504692077638
98606000,-17.15,-10.408616065979004,6.646383934020995
98606000,-17.17,-10.408616065979004,6.666383934020998
98856000,-17.2,-10.470108032226562,6.634891967773437
98856000,-17.23,-10.470108032226562,6.664891967773438
98856000,-17.25,-10.470108032226562,6.684891967773438
99106000,-17.28,-10.516209602355957,6.668790397644044
99106000,-17.3,-10.516209602355957,6.688790397644044
99356000,-17.33,-10.578329086303711,6.656670913696288
99356000,-17.35,-10.578329086303711,6.676670913696291
99356000,-17.38,-10.578329086303711,6.706670913696288
99608000,-17.4,-10.663723945617676,6.641276054382323
99608000,-17.42,-10.663723945617676,6.661276054382326
99856000,-17.45,-10.712477684020996,6.6425223159790034
99856000,-17.48,-10.712477684020996,6.672522315979005
100106000,-17.5,-10.783140182495117,6.621859817504883
100106000,-17.53,-10.783140182495117,6.651859817504884
100106000,-17.55,-10.783140182495117,6.671859817504884
100356000,-17.58,-10.842555046081543,6.642444953918456
100356000,-17.6,-10.842555046081543,6.662444953918459
100606000,-17.62,-10.893898963928223,6.631101036071779
100606000,-17.65,-10.893898963928223,6.661101036071776
100606000,-17.67,-10.893898963928223,6.681101036071779
100856000,-17.7,-10.976223945617676,6.628776054382324
100856000,-17.73,-10.976223945617676,6.658776054382325
101106000,-17.75,-11.033653259277344,6.6213467407226565
101106000,-17.78,-11.033653259277344,6.651346740722658
101106000,-17.8,-11.033653259277344,6.671346740722657
101356000,-17.83,-11.093289375305176,6.641710624694823
101356000,-17.85,-11.093289375305176,6.661710624694826
101606000,-17.88,-11.113322257995605,6.671677742004394
101606000,-17.9,-11.113322257995605,6.691677742004393
101606000,-17.92,-11.113322257995605,6.7116777420043965
101856000,-17.95,-11.173173904418945,6.681826095581054
101856000,-17.98,-11.173173904418945,6.711826095581055
102106000,-18.0,-11.295182228088379,6.609817771911621
102106000,-18.02,-11.295182228088379,6.629817771911621
102356000,-18.05,-11.36547565460205,6.58952434539795
102356000,-18.08,-11.36547565460205,6.619524345397948
102356000,-18.1,-11.36547565460205,6.639524345397951
102606000,-18.12,-11.390596389770508,6.634403610229493
102606000,-18.15,-11.390596389770508,6.664403610229491
102856000,-18.18,-11.416351318359375,6.668648681640625
102856000,-18.2,-11.416351318359375,6.6886486816406245
102856000,-18.23,-11.416351318359375,6.718648681640626
103106000,-18.25,-11.503095626831055,6.651904373168946
103106000,-18.27,-11.503095626831055,6.671904373168945
103356000,-18.3,-11.558115005493164,6.646884994506837
103356000,-18.33,-11.558115005493164,6.6768849945068345
103356000,-18.35,-11.558115005493164,6.696884994506838
103606000,-18.38,-11.627077102661133,6.657922897338866
103606000,-18.4,-11.627077102661133,6.677922897338866
103856000,-18.43,-11.716994285583496,6.618005714416504
103856000,-18.45,-11.716994285583496,6.6380057144165034
104106000,-18.48,-11.802179336547852,6.582820663452149
104106000,-18.5,-11.802179336547852,6.602820663452149
104106000,-18.53,-11.802179336547852,6.63282066345215
104356000,-18.55,-11.860152244567871,6.59484775543213
104356000,-18.58,-11.860152244567871,6.6248477554321274
104606000,-18.6,-11.921257972717285,6.5837420272827165
104606000,-18.62,-11.921257972717285,6.603742027282716
104606000,-18.65,-11.921257972717285,6.633742027282714
104856000,-18.68,-11.970160484313965,6.614839515686035
104856000,-18.7,-11.970160484313965,6.634839515686035
105106000,-18.73,-12.026448249816895,6.608551750183106
105106000,-18.75,-12.026448249816895,6.628551750183106
105106000,-18.78,-12.026448249816895,6.658551750183107
105356000,-18.8,-12.107221603393555,6.597778396606446
105356000,-18.83,-12.107221603393555,6.627778396606444
105606000,-18.85,-12.180078506469727,6.574921493530275
105606000,-18.88,-12.180078506469727,6.604921493530273
105606000,-18.9,-12.180078506469727,6.624921493530272
105858000,-18.93,-12.176671981811523,6.6583280181884765
105858000,-18.95,-12.176671981811523,6.678328018188476
106106000,-18.98,-12.207670211791992,6.6773297882080085
106106000,-19.0,-12.207670211791992,6.697329788208008
106356000,-19.03,-12.268420219421387,6.666579780578615
106356000,-19.05,-12.268420219421387,6.686579780578614
106356000,-19.08,-12.268420219421387,6.716579780578612
106606000,-19.1,-12.311075210571289,6.693924789428713
106606000,-19.12,-12.311075210571289,6.713924789428712
106856000,-19.15,-12.336142539978027,6.7188574600219715
106856000,-19.18,-12.336142539978027,6.748857460021973
106856000,-19.2,-12.336142539978027,6.768857460021972
107106000,-19.23,-12.39057731628418,6.744422683715821
107106000,-19.25,-12.39057731628418,6.764422683715821
107356000,-19.28,-12.512667655944824,6.672332344055177
107356000,-19.3,-12.512667655944824,6.692332344055177
107356000,-19.33,-12.512667655944824,6.722332344055174
107606000,-19.35,-12.623196601867676,6.631803398132326
107606000,-19.38,-12.623196601867676,6.6618033981323235
107856000,-19.4,-12.691006660461426,6.613993339538573
107856000,-19.43,-12.691006660461426,6.643993339538574
108106000,-19.45,-12.753690719604492,6.601309280395507
108106000,-19.48,-12.753690719604492,6.6313092803955085
108106000,-19.5,-12.753690719604492,6.651309280395508
108356000,-19.53,-12.835688591003418,6.599311408996583
108356000,-19.55,-12.835688591003418,6.619311408996583
108606000,-19.58,-12.884451866149902,6.600548133850096
108606000,-19.6,-12.884451866149902,6.620548133850099
108606000,-19.62,-12.884451866149902,6.640548133850099
108856000,-19.65,-12.950323104858398,6.6046768951416
108856000,-19.68,-12.950323104858398,6.6346768951416015
109106000,-19.7,-13.052266120910645,6.552733879089355
109106000,-19.73,-13.052266120910645,6.582733879089356
109106000,-19.75,-13.052266120910645,6.602733879089356
109356000,-19.78,-13.154507637023926,6.530492362976076
109356000,-19.8,-13.154507637023926,6.550492362976075
109606000,-19.83,-13.217549324035645,6.517450675964354
109606000,-19.85,-13.217549324035645,6.537450675964357
109606000,-19.88,-13.217549324035645,6.567450675964355
109856000,-19.9,-13.228082656860352,6.576917343139647
109856000,-19.93,-13.228082656860352,6.606917343139648
110106000,-19.95,-13.21848201751709,6.63651798248291
110106000,-19.98,-13.21848201751709,6.666517982482911
110356000,-20.0,-13.18560791015625,6.71939208984375
110356000,-20.0,-13.18560791015625,6.71939208984375
110356000,-20.0,-13.18560791015625,6.71939208984375
110606000,-20.0,-13.221319198608398,6.683680801391602
110606000,-20.0,-13.221319198608398,6.683680801391602
110856000,-20.0,-13.301274299621582,6.603725700378418
110856000,-20.0,-13.301274299621582,6.603725700378418
110856000,-20.0,-13.301274299621582,6.603725700378418
111106000,-20.0,-13.352090835571289,6.552909164428711
111106000,-20.0,-13.352090835571289,6.552909164428711
111356000,-20.0,-13.39611530303955,6.5088846969604495
111356000,-20.0,-13.39611530303955,6.5088846969604495
111356000,-20.0,-13.39611530303955,6.5088846969604495
111606000,-20.0,-13.47988224029541,6.42511775970459
111606000,-20.0,-13.47988224029541,6.42511775970459
111856000,-20.0,-13.582009315490723,6.322990684509278
111856000,-20.0,-13.582009315490723,6.322990684509278
111856000,-20.0,-13.582009315490723,6.322990684509278
112108000,-20.0,-13.57983684539795,6.325163154602051
112108000,-20.0,-13.57983684539795,6.325163154602051
112356000,-20.0,-13.511469841003418,6.393530158996582
112356000,-20.0,-13.511469841003418,6.393530158996582
112606000,-20.0,-13.465263366699219,6.4397366333007815
112606000,-20.0,-13.465263366699219,6.4397366333007815
112606000,-20.0,-13.465263366699219,6.4397366333007815
112856000,-20.0,-13.442940711975098,6.462059288024903
112856000,-20.0,-13.442940711975098,6.462059288024903
113106000,-20.0,-13.376449584960938,6.528550415039063
113106000,-20.0,-13.376449584960938,6.528550415039063
113106000,-20.0,-13.376449584960938,6.528550415039063
113356000,-20.0,-13.320330619812012,6.5846693801879885
113356000,-20.0,-13.320330619812012,6.5846693801879885
113606000,-20.0,-13.247642517089844,6.6573574829101565
113606000,-20.0,-13.247642517089844,6.6573574829101565
113606000,-20.0,-13.247642517089844,6.6573574829101565
113856000,-20.0,-13.225362777709961,6.679637222290039
113856000,-20.0,-13.225362777709961,6.679637222290039
114106000,-20.0,-13.266132354736328,6.638867645263672
114106000,-20.0,-13.266132354736328,6.638867645263672
114356000,-20.0,-13.315149307250977,6.589850692749024
114356000,-20.0,-13.315149307250977,6.589850692749024
114356000,-20.0,-13.315149307250977,6.589850692749024
114606000,-20.0,-13.335119247436523,6.569880752563477
114606000,-20.0,-13.335119247436523,6.569880752563477
114856000,-20.0,-13.334003448486328,6.570996551513672
114856000,-20.0,-13.334003448486328,6.570996551513672
114856000,-20.0,-13.334003448486328,6.570996551513672
115106000,-20.0,-13.360882759094238,6.544117240905762
115106000,-20.0,-13.360882759094238,6.544117240905762
115356000,-20.0,-13.400466918945312,6.504533081054688
115356000,-20.0,-13.400466918945312,6.504533081054688
115356000,-20.0,-13.400466918945312,6.504533081054688
115606000,-20.0,-13.408612251281738,6.496387748718262
115606000,-20.0,-13.408612251281738,6.496387748718262
115856000,-20.0,-13.435712814331055,6.469287185668946
115856000,-20.0,-13.435712814331055,6.469287185668946
116106000,-20.0,-13.464077949523926,6.4409220504760745
116106000,-20.0,-13.464077949523926,6.4409220504760745
116106000,-20.0,-13.464077949523926,6.4409220504760745
116356000,-20.0,-13.441627502441406,6.463372497558594
116356000,-20.0,-13.441627502441406,6.463372497558594
116606000,-20.0,-13.396925926208496,6.508074073791504
116606000,-20.0,-13.396925926208496,6.508074073791504
116606000,-20.0,-13.396925926208496,6.508074073791504
116856000,-20.0,-13.392043113708496,6.512956886291504
116856000,-20.0,-13.392043113708496,6.512956886291504
117106000,-20.0,-13.415617942810059,6.489382057189942
117106000,-20.0,-13.415617942810059,6.489382057189942
117106000,-20.0,-13.415617942810059,6.489382057189942
117356000,-20.0,-13.420975685119629,6.484024314880371
117356000,-20.0,-13.420975685119629,6.484024314880371
117606000,-20.0,-13.385132789611816,6.519867210388184
117606000,-20.0,-13.385132789611816,6.519867210388184
117606000,-20.0,-13.385132789611816,6.519867210388184
117856000,-20.0,-13.344755172729492,6.560244827270508
117856000,-20.0,-13.344755172729492,6.560244827270508
118106000,-20.0,-13.310836791992188,6.594163208007813
118106000,-20.0,-13.310836791992188,6.594163208007813
118358000,-20.0,-13.300225257873535,6.604774742126465
118358000,-20.0,-13.300225257873535,6.604774742126465
118358000,-20.0,-13.300225257873535,6.604774742126465
118606000,-20.0,-13.290022850036621,6.614977149963379
118606000,-20.0,-13.290022850036621,6.614977149963379
118856000,-20.0,-13.314584732055664,6.590415267944336
118856000,-20.0,-13.314584732055664,6.590415267944336
118856000,-20.0,-13.314584732055664,6.590415267944336
119106000,-20.0,-13.351655006408691,6.553344993591309
119106000,-20.0,-13.351655006408691,6.553344993591309
119356000,-20.0,-13.432127952575684,6.472872047424317
119356000,-20.0,-13.432127952575684,6.472872047424317
119356000,-20.0,-13.432127952575684,6.472872047424317
119606000,-20.0,-13.457196235656738,6.447803764343262
119606000,-20.0,-13.457196235656738,6.447803764343262
119856000,-20.0,-13.429880142211914,6.475119857788086
119856000,-20.0,-13.429880142211914,6.475119857788086
120106000,-20.0,-13.428278923034668,6.476721076965332
120106000,-20.0,-13.428278923034668,6.476721076965332
120106000,-20.0,-13.428278923034668,6.476721076965332
120356000,-20.0,-13.45629596710205,6.4487040328979495
120356000,-20.0,-13.45629596710205,6.4487040328979495
120606000,-16.0,-13.44287109375,2.46212890625
120606000,-16.0,-13.44287109375,2.46212890625
120606000,-16.0,-13.44287109375,2.46212890625
120856000,-16.0,-13.411344528198242,2.4936554718017576
120856000,-16.0,-13.411344528198242,2.4936554718017576
121106000,-16.0,-13.305564880371094,2.599435119628906
121106000,-16.0,-13.305564880371094,2.599435119628906
121106000,-16.0,-13.305564880371094,2.599435119628906
121356000,-16.0,-13.05908489227295,2.8459151077270506
121356000,-16.0,-13.05908489227295,2.8459151077270506
121606000,-16.0,-12.720396995544434,3.184603004455566
121606000,-16.0,-12.720396995544434,3.184603004455566
121856000,-16.0,-12.371721267700195,3.5332787322998045
121856000,-16.0,-12.371721267700195,3.5332787322998045
121856000,-16.0,-12.371721267700195,3.5332787322998045
122106000,-16.0,-12.03791332244873,3.8670866775512693
122106000,-16.0,-12.03791332244873,3.8670866775512693
122356000,-16.0,-11.69604206085205,4.2089579391479495
122356000,-16.0,-11.69604206085205,4.2089579391479495
122356000,-16.0,-11.69604206085205,4.2089579391479495
122606000,-16.0,-11.376794815063477,4.528205184936524
122606000,-16.0,-11.376794815063477,4.528205184936524
122856000,-16.0,-11.048566818237305,4.856433181762696
122856000,-16.0,-11.048566818237305,4.856433181762696
122856000,-16.0,-11.048566818237305,4.856433181762696
123106000,-16.0,-10.731568336486816,5.173431663513184
123106000,-16.0,-10.731568336486816,5.173431663513184
123356000,-16.0,-10.421789169311523,5.483210830688477
123356000,-16.0,-10.421789169311523,5.483210830688477
123356000,-16.0,-10.421789169311523,5.483210830688477
123606000,-16.0,-10.098072052001953,5.806927947998047
123606000,-16.0,-10.098072052001953,5.806927947998047
123856000,-16.0,-9.773563385009766,6.131436614990235
123856000,-16.0,-9.773563385009766,6.131436614990235
124106000,-16.0,-9.497549057006836,6.407450942993164
124106000,-16.0,-9.497549057006836,6.407450942993164
124106000,-16.0,-9.497549057006836,6.407450942993164
124356000,-16.0,-9.231878280639648,6.673121719360352
124356000,-16.0,-9.231878280639648,6.673121719360352
124608000,-16.0,-8.935755729675293,6.969244270324707
124608000,-16.0,-8.935755729675293,6.969244270324707
124608000,-16.0,-8.935755729675293,6.969244270324707
124856000,-16.0,-8.614680290222168,7.290319709777832
124856000,-16.0,-8.614680290222168,7.290319709777832
125106000,-16.0,-8.27103328704834,7.63396671295166
125106000,-16.0,-8.27103328704834,7.63396671295166
125106000,-16.0,-8.27103328704834,7.63396671295166
125356000,-16.0,-7.896369457244873,8.008630542755126
125356000,-16.0,-7.896369457244873,8.008630542755126
125606000,-16.0,-7.6389689445495605,8.266031055450439
125606000,-16.0,-7.6389689445495605,8.266031055450439
125856000,-16.0,-7.645633220672607,8.259366779327392
125856000,-16.0,-7.645633220672607,8.259366779327392
125856000,-16.0,-7.645633220672607,8.259366779327392
126106000,-16.0,-7.868265628814697,8.036734371185302
126106000,-16.0,-7.868265628814697,8.036734371185302
126356000,-16.0,-8.187719345092773,7.717280654907227
126356000,-16.0,-8.187719345092773,7.717280654907227
126356000,-16.0,-8.187719345092773,7.717280654907227
126606000,-16.0,-8.565526008605957,7.339473991394043
126606000,-16.0,-8.565526008605957,7.339473991394043
126856000,-16.0,-8.922195434570312,6.982804565429688
126856000,-16.0,-8.922195434570312,6.982804565429688
126856000,-16.0,-8.922195434570312,6.982804565429688
127106000,-16.0,-9.229263305664062,6.675736694335938
127106000,-16.0,-9.229263305664062,6.675736694335938
127356000,-16.0,-9.508979797363281,6.396020202636719
127356000,-16.0,-9.508979797363281,6.396020202636719
127356000,-16.0,-9.508979797363281,6.396020202636719
127606000,-16.0,-9.816279411315918,6.088720588684082
127606000,-16.0,-9.816279411315918,6.088720588684082
127856000,-16.0,-10.093549728393555,5.811450271606446
127856000,-16.0,-10.093549728393555,5.811450271606446
128106000,-16.0,-10.274089813232422,5.630910186767578
128106000,-16.0,-10.274089813232422,5.630910186767578
128106000,-16.0,-10.274089813232422,5.630910186767578
128356000,-16.0,-10.33249282836914,5.57250717163086
128356000,-16.0,-10.33249282836914,5.57250717163086
128606000,-16.0,-10.236106872558594,5.6688931274414065
128606000,-16.0,-10.236106872558594,5.6688931274414065
128606000,-16.0,-10.236106872558594,5.6688931274414065
128856000,-16.0,-10.060181617736816,5.844818382263184
128856000,-16.0,-10.060181617736816,5.844818382263184
129106000,-16.0,-9.830835342407227,6.074164657592774
129106000,-16.0,-9.830835342407227,6.074164657592774
129106000,-16.0,-9.830835342407227,6.074164657592774
129356000,-16.0,-9.581387519836426,6.3236124801635745
129356000,-16.0,-9.581387519836426,6.3236124801635745
129606000,-16.0,-9.307167053222656,6.597832946777344
129606000,-16.0,-9.307167053222656,6.597832946777344
129856000,-16.0,-9.110918045043945,6.794081954956055
129856000,-16.0,-9.110918045043945,6.794081954956055
129856000,-16.0,-9.110918045043945,6.794081954956055
130106000,-16.0,-8.94505500793457,6.95994499206543
130106000,-16.0,-8.94505500793457,6.95994499206543
130356000,-16.0,-8.842482566833496,7.062517433166504
130356000,-16.0,-8.842482566833496,7.062517433166504
130356000,-16.0,-8.842482566833496,7.062517433166504
130606000,-16.0,-8.814518928527832,7.090481071472168
130606000,-16.0,-8.814518928527832,7.090481071472168
130858000,-16.0,-8.873626708984375,7.031373291015625
130858000,-16.02,-8.873626708984375,7.051373291015625
130858000,-16.05,-8.873626708984375,7.081373291015626
131106000,-16.08,-8.973923683166504,7.011076316833495
131106000,-16.1,-8.973923683166504,7.031076316833498
131356000,-16.12,-9.105162620544434,6.919837379455568
131356000,-16.15,-9.105162620544434,6.949837379455565
131606000,-16.17,-9.277806282043457,6.797193717956545
131606000,-16.2,-9.277806282043457,6.8271937179565425
131606000,-16.23,-9.277806282043457,6.857193717956544
131856000,-16.25,-9.448678016662598,6.706321983337403
131856000,-16.27,-9.448678016662598,6.726321983337402
132106000,-16.3,-9.632905960083008,6.572094039916993
132106000,-16.33,-9.632905960083008,6.602094039916991
132106000,-16.35,-9.632905960083008,6.622094039916994
132356000,-16.38,-9.813292503356934,6.471707496643066
132356000,-16.4,-9.813292503356934,6.491707496643065
132606000,-16.42,-10.00105094909668,6.323949050903322
132606000,-16.45,-10.00105094909668,6.35394905090332
132606000,-16.48,-10.00105094909668,6.383949050903321
132856000,-16.5,-10.150056838989258,6.254943161010742
132856000,-16.52,-10.150056838989258,6.274943161010742
133106000,-16.55,-10.23939323425293,6.215606765747071
133106000,-16.58,-10.23939323425293,6.245606765747069
133106000,-16.6,-10.23939323425293,6.265606765747072
133356000,-16.62,-10.19420337677002,6.330796623229982
133356000,-16.65,-10.19420337677002,6.360796623229979
133606000,-16.67,-10.107029914855957,6.467970085144045
133606000,-16.7,-10.107029914855957,6.4979700851440425
133606000,-16.73,-10.107029914855957,6.527970085144044
133856000,-16.75,-10.012738227844238,6.642261772155762
133856000,-16.77,-10.012738227844238,6.6622617721557615
134106000,-16.8,-9.943037986755371,6.76196201324463
134106000,-16.83,-9.943037986755371,6.7919620132446274
134356000,-16.85,-9.939569473266602,6.8154305267334
134356000,-16.88,-9.939569473266602,6.845430526733398
134356000,-16.9,-9.939569473266602,6.865430526733397
134606000,-16.92,-9.978962898254395,6.846037101745607
134606000,-16.95,-9.978962898254395,6.876037101745605
134856000,-16.98,-10.050055503845215,6.834944496154786
134856000,-17.0,-10.050055503845215,6.854944496154785
134856000,-17.03,-10.050055503845215,6.8849444961547865
135106000,-17.05,-10.11479663848877,6.840203361511231
135106000,-17.08,-10.11479663848877,6.870203361511229
135356000,-17.1,-10.20738697052002,6.797613029479982
135356000,-17.12,-10.20738697052002,6.817613029479982
135606000,-17.15,-10.327033996582031,6.727966003417968
135606000,-17.17,-10.327033996582031,6.747966003417971
135606000,-17.2,-10.327033996582031,6.777966003417968
135856000,-17.23,-10.45516300201416,6.6798369979858405
135856000,-17.25,-10.45516300201416,6.69983699798584
136106000,-17.28,-10.591242790222168,6.593757209777833
136106000,-17.3,-10.591242790222168,6.613757209777833
136106000,-17.33,-10.591242790222168,6.643757209777831
136356000,-17.35,-10.685895919799805,6.569104080200197
136356000,-17.38,-10.685895919799805,6.599104080200195
136606000,-17.4,-10.774541854858398,6.5304581451416
136606000,-17.42,-10.774541854858398,6.5504581451416035
136606000,-17.45,-10.774541854858398,6.580458145141601
136856000,-17.48,-10.862723350524902,6.522276649475098
136856000,-17.5,-10.862723350524902,6.542276649475098
137108000,-17.53,-10.94508171081543,6.489918289184572
137108000,-17.55,-10.94508171081543,6.509918289184571
137108000,-17.58,-10.94508171081543,6.539918289184569
137356000,-17.6,-11.020553588867188,6.484446411132814
137356000,-17.62,-11.020553588867188,6.504446411132814
137606000,-17.65,-11.05205249786377,6.502947502136229
137606000,-17.67,-11.05205249786377,6.522947502136232
137856000,-17.7,-11.038387298583984,6.566612701416015
137856000,-17.73,-11.038387298583984,6.596612701416016
137856000,-17.75,-11.038387298583984,6.616612701416016
138106000,-17.78,-11.054222106933594,6.630777893066408
138106000,-17.8,-11.054222106933594,6.650777893066407
138356000,-17.83,-11.11478042602539,6.620219573974608
138356000,-17.85,-11.11478042602539,6.640219573974611
138356000,-17.88,-11.11478042602539,6.670219573974609
138606000,-17.9,-11.162249565124512,6.642750434875487
138606000,-17.92,-11.162249565124512,6.66275043487549
138856000,-17.95,-11.191130638122559,6.663869361877441
138856000,-17.98,-11.191130638122559,6.693869361877442
138856000,-18.0,-11.191130638122559,6.713869361877442
139106000,-18.02,-11.210134506225586,6.714865493774414
139106000,-18.05,-11.210134506225586,6.744865493774415
139356000,-18.08,-11.213297843933105,6.771702156066893
139356000,-18.1,-11.213297843933105,6.791702156066896
139606000,-18.12,-11.203339576721191,6.82166042327881
139606000,-18.15,-11.203339576721191,6.851660423278807
139606000,-18.18,-11.203339576721191,6.881660423278809
139856000,-18.2,-11.263116836547852,6.841883163452148
139856000,-18.23,-11.263116836547852,6.871883163452149
140106000,-18.25,-11.38985824584961,6.765141754150391
140106000,-18.27,-11.38985824584961,6.7851417541503904
140106000,-18.3,-11.38985824584961,6.815141754150392
140356000,-18.33,-11.55644416809082,6.678555831909178
140356000,-18.35,-11.55644416809082,6.698555831909181
140606000,-18.38,-11.70477294921875,6.580227050781249
140606000,-18.4,-11.70477294921875,6.600227050781249
140606000,-18.43,-11.70477294921875,6.63022705078125
140856000,-18.45,-11.834506034851074,6.520493965148925
140856000,-18.48,-11.834506034851074,6.5504939651489265
141106000,-18.5,-11.916203498840332,6.488796501159668
141106000,-18.53,-11.916203498840332,6.518796501159669
141106000,-18.55,-11.916203498840332,6.538796501159669
141356000,-18.58,-12.007274627685547,6.477725372314452
141356000,-18.6,-12.007274627685547,6.497725372314455
141606000,-18.62,-12.054018020629883,6.470981979370118
141606000,-18.65,-12.054018020629883,6.500981979370116
141856000,-18.68,-12.091765403747559,6.493234596252441
141856000,-18.7,-12.091765403747559,6.513234596252441
141856000,-18.73,-12.091765403747559,6.543234596252442
142106000,-18.75,-12.149812698364258,6.505187301635742
142106000,-18.78,-12.149812698364258,6.535187301635744
142356000,-18.8,-12.152364730834961,6.55263526916504
142356000,-18.83,-12.152364730834961,6.582635269165038
142356000,-18.85,-12.152364730834961,6.602635269165041
142606000,-18.88,-12.123662948608398,6.661337051391601
142606000,-18.9,-12.123662948608398,6.6813370513916
142856000,-18.93,-12.136468887329102,6.698531112670898
142856000,-18.95,-12.136468887329102,6.718531112670898
142856000,-18.98,-12.136468887329102,6.748531112670899
143106000,-19.0,-12.140064239501953,6.764935760498047
143106000,-19.03,-12.140064239501953,6.794935760498048
143358000,-19.05,-12.216039657592773,6.7389603424072275
143358000,-19.08,-12.216039657592773,6.768960342407225
143606000,-19.1,-12.26529598236084,6.739704017639162
143606000,-19.12,-12.26529598236084,6.759704017639161
143606000,-19.15,-12.26529598236084,6.789704017639159
143856000,-19.18,-12.341622352600098,6.743377647399902
143856000,-19.2,-12.341622352600098,6.763377647399902
144106000,-19.23,-12.377969741821289,6.757030258178712
144106000,-19.25,-12.377969741821289,6.777030258178711
144106000,-19.28,-12.377969741821289,6.807030258178712
144356000,-19.3,-12.47365951538086,6.731340484619142
144356000,-19.33,-12.47365951538086,6.761340484619139
144606000,-19.35,-12.581993103027344,6.673006896972658
144606000,-19.38,-12.581993103027344,6.7030068969726555
144606000,-19.4,-12.581993103027344,6.723006896972655
144856000,-19.43,-12.699722290039062,6.6352777099609375
144856000,-19.45,-12.699722290039062,6.655277709960937
145106000,-19.48,-12.836311340332031,6.548688659667969
145106000,-19.5,-12.836311340332031,6.568688659667969
145356000,-19.53,-12.942451477050781,6.49254852294922
145356000,-19.55,-12.942451477050781,6.51254852294922
145356000,-19.58,-12.942451477050781,6.542548522949217
145606000,-19.6,-13.02132797241211,6.483672027587892
145606000,-19.62,-13.02132797241211,6.503672027587892
145856000,-19.65,-13.077635765075684,6.477364234924315
145856000,-19.68,-13.077635765075684,6.507364234924316
145856000,-19.7,-13.077635765075684,6.527364234924316
146106000,-19.73,-13.108369827270508,6.526630172729493
146106000,-19.75,-13.108369827270508,6.546630172729492
146356000,-19.78,-13.100859642028809,6.584140357971193
146356000,-19.8,-13.100859642028809,6.604140357971192
146356000,-19.83,-13.100859642028809,6.63414035797119
146606000,-19.85,-13.130620002746582,6.62437999725342
146606000,-19.88,-13.130620002746582,6.654379997253417
146856000,-19.9,-13.142309188842773,6.662690811157225
146856000,-19.93,-13.142309188842773,6.6926908111572265
147106000,-19.95,-13.148515701293945,6.706484298706054
147106000,-19.98,-13.148515701293945,6.736484298706055
147106000,-20.0,-13.148515701293945,6.756484298706055
147356000,-20.0,-13.17722225189209,6.72777774810791
147356000,-20.0,-13.17722225189209,6.72777774810791
147606000,-20.0,-13.256231307983398,6.648768692016602
147606000,-20.0,-13.256231307983398,6.648768692016602
147606000,-20.0,-13.256231307983398,6.648768692016602
147856000,-20.0,-13.33349895477295,6.571501045227051
147856000,-20.0,-13.33349895477295,6.571501045227051
148106000,-20.0,-13.422167778015137,6.4828322219848635
148106000,-20.0,-13.422167778015137,6.4828322219848635
148106000,-20.0,-13.422167778015137,6.4828322219848635
148356000,-20.0,-13.536417961120605,6.368582038879395
148356000,-20.0,-13.536417961120605,6.368582038879395
148606000,-20.0,-13.559471130371094,6.3455288696289065
148606000,-20.0,-13.559471130371094,6.3455288696289065
148856000,-20.0,-13.540838241577148,6.364161758422852
148856000,-20.0,-13.540838241577148,6.364161758422852
148856000,-20.0,-13.540838241577148,6.364161758422852
149106000,-20.0,-13.539239883422852,6.365760116577149
149106000,-20.0,-13.539239883422852,6.365760116577149
149356000,-20.0,-13.510435104370117,6.394564895629883
149356000,-20.0,-13.510435104370117,6.394564895629883
149356000,-20.0,-13.510435104370117,6.394564895629883
149608000,-20.0,-13.43913745880127,6.465862541198731
149608000,-20.0,-13.43913745880127,6.465862541198731
149856000,-20.0,-13.374568939208984,6.530431060791016
149856000,-20.0,-13.374568939208984,6.530431060791016
149856000,-20.0,-13.374568939208984,6.530431060791016
150106000,-20.0,-13.323927879333496,6.581072120666504
150106000,-20.0,-13.323927879333496,6.581072120666504
150356000,-20.0,-13.314797401428223,6.590202598571778
150356000,-20.0,-13.314797401428223,6.590202598571778
150356000,-20.0,-13.314797401428223,6.590202598571778
150606000,-20.0,-13.280059814453125,6.624940185546875
150606000,-20.0,-13.280059814453125,6.624940185546875
150856000,-20.0,-13.255393028259277,6.649606971740723
150856000,-20.0,-13.255393028259277,6.649606971740723
151106000,-20.0,-13.259719848632812,6.645280151367188
151106000,-20.0,-13.259719848632812,6.645280151367188
151106000,-20.0,-13.259719848632812,6.645280151367188
151356000,-20.0,-13.271990776062012,6.6330092239379885
151356000,-20.0,-13.271990776062012,6.6330092239379885
151606000,-20.0,-13.297113418579102,6.607886581420899
151606000,-20.0,-13.297113418579102,6.607886581420899
151606000,-20.0,-13.297113418579102,6.607886581420899
151856000,-20.0,-13.35651683807373,6.54848316192627
151856000,-20.0,-13.35651683807373,6.54848316192627
152106000,-20.0,-13.403367042541504,6.501632957458496
152106000,-20.0,-13.403367042541504,6.501632957458496
152106000,-20.0,-13.403367042541504,6.501632957458496
152356000,-20.0,-13.403918266296387,6.5010817337036135
152356000,-20.0,-13.403918266296387,6.5010817337036135
152606000,-20.0,-13.408735275268555,6.496264724731446
152606000,-20.0,-13.408735275268555,6.496264724731446
152606000,-20.0,-13.408735275268555,6.496264724731446
152856000,-20.0,-13.447979927062988,6.457020072937012
152856000,-20.0,-13.447979927062988,6.457020072937012
153106000,-20.0,-13.495399475097656,6.409600524902344
153106000,-20.0,-13.495399475097656,6.409600524902344
153356000,-20.0,-13.499804496765137,6.4051955032348635
153356000,-20.0,-13.499804496765137,6.4051955032348635
153356000,-20.0,-13.499804496765137,6.4051955032348635
153606000,-20.0,-13.454285621643066,6.450714378356934
153606000,-20.0,-13.454285621643066,6.450714378356934
153856000,-20.0,-13.433642387390137,6.4713576126098635
153856000,-20.0,-13.433642387390137,6.4713576126098635
153856000,-20.0,-13.433642387390137,6.4713576126098635
154106000,-20.0,-13.4005126953125,6.5044873046875
154106000,-20.0,-13.4005126953125,6.5044873046875
154356000,-20.0,-13.343496322631836,6.561503677368164
154356000,-20.0,-13.343496322631836,6.561503677368164
154606000,-20.0,-13.277670860290527,6.627329139709473
154606000,-20.0,-13.277670860290527,6.627329139709473
154606000,-20.0,-13.277670860290527,6.627329139709473
154856000,-20.0,-13.253564834594727,6.651435165405274
154856000,-20.0,-13.253564834594727,6.651435165405274
155106000,-20.0,-13.28076457977295,6.624235420227051
155106000,-20.0,-13.28076457977295,6.624235420227051
155106000,-20.0,-13.28076457977295,6.624235420227051
155356000,-20.0,-13.346782684326172,6.558217315673828
155356000,-20.0,-13.346782684326172,6.558217315673828
155606000,-20.0,-13.401430130004883,6.503569869995117
155606000,-20.0,-13.401430130004883,6.503569869995117
155606000,-20.0,-13.401430130004883,6.503569869995117
155858000,-20.0,-13.40897274017334,6.49602725982666
155858000,-20.0,-13.40897274017334,6.49602725982666
156106000,-20.0,-13.376235008239746,6.528764991760254
156106000,-20.0,-13.376235008239746,6.528764991760254
156356000,-20.0,-13.363829612731934,6.541170387268067
156356000,-20.0,-13.363829612731934,6.541170387268067
156356000,-20.0,-13.363829612731934,6.541170387268067
156606000,-20.0,-13.380813598632812,6.524186401367188
156606000,-20.0,-13.380813598632812,6.524186401367188
156856000,-20.0,-13.369729995727539,6.535270004272461
156856000,-20.0,-13.369729995727539,6.535270004272461
156856000,-20.0,-13.369729995727539,6.535270004272461
157106000,-20.0,-13.388886451721191,6.516113548278809
157106000,-20.0,-13.388886451721191,6.516113548278809
157356000,-20.0,-13.41100788116455,6.4939921188354495
157356000,-20.0,-13.41100788116455,6.4939921188354495
157356000,-16.0,-13.41100788116455,2.493992118835449
157606000,-16.0,-13.404054641723633,2.500945358276367
157606000,-16.0,-13.404054641723633,2.500945358276367
157858000,-16.0,-13.402301788330078,2.5026982116699217
157858000,-16.0,-13.402301788330078,2.5026982116699217
157858000,-16.0,-13.402301788330078,2.5026982116699217
158106000,-16.0,-13.319722175598145,2.5852778244018553
158106000,-16.0,-13.319722175598145,2.5852778244018553
158356000,-16.0,-13.08167552947998,2.8233244705200193
158356000,-16.0,-13.08167552947998,2.8233244705200193
158606000,-16.0,-12.792598724365234,3.1124012756347654
158606000,-16.0,-12.792598724365234,3.1124012756347654
158606000,-16.0,-12.792598724365234,3.1124012756347654
158856000,-16.0,-12.490753173828125,3.414246826171875
158856000,-16.0,-12.490753173828125,3.414246826171875
159106000,-16.0,-12.178174018859863,3.7268259811401365
159106000,-16.0,-12.178174018859863,3.7268259811401365
159106000,-16.0,-12.178174018859863,3.7268259811401365
159356000,-16.0,-11.841976165771484,4.063023834228516
159356000,-16.0,-11.841976165771484,4.063023834228516
159606000,-16.0,-11.499622344970703,4.405377655029297
159606000,-16.0,-11.499622344970703,4.405377655029297
159606000,-16.0,-11.499622344970703,4.405377655029297
159856000,-16.0,-11.18116283416748,4.72383716583252
159856000,-16.0,-11.18116283416748,4.72383716583252
160106000,-16.0,-10.865004539489746,5.039995460510254
160106000,-16.0,-10.865004539489746,5.039995460510254
160356000,-16.0,-10.533632278442383,5.371367721557617
160356000,-16.0,-10.533632278442383,5.371367721557617
160356000,-16.0,-10.533632278442383,5.371367721557617
160606000,-16.0,-10.193251609802246,5.711748390197754
160606000,-16.0,-10.193251609802246,5.711748390197754
160856000,-16.0,-9.8473482131958,6.0576517868041995
160856000,-16.0,-9.8473482131958,6.0576517868041995
160856000,-16.0,-9.8473482131958,6.0576517868041995
161106000,-16.0,-9.520445823669434,6.384554176330567
161106000,-16.0,-9.520445823669434,6.384554176330567
161356000,-16.0,-9.194741249084473,6.710258750915528
161356000,-16.0,-9.194741249084473,6.710258750915528
161356000,-16.0,-9.194741249084473,6.710258750915528
161606000,-16.0,-8.895448684692383,7.009551315307617
161606000,-16.0,-8.895448684692383,7.009551315307617
161856000,-16.0,-8.631114959716797,7.273885040283203
161856000,-16.0,-8.631114959716797,7.273885040283203
161856000,-16.0,-8.631114959716797,7.273885040283203
162108000,-16.0,-8.340896606445312,7.564103393554688
162108000,-16.0,-8.340896606445312,7.564103393554688
162356000,-16.0,-8.059187889099121,7.845812110900879
162356000,-16.0,-8.059187889099121,7.845812110900879
162606000,-16.0,-7.815825462341309,8.08917453765869
162606000,-16.0,-7.815825462341309,8.08917453765869
162606000,-16.0,-7.815825462341309,8.08917453765869
162856000,-16.0,-7.71553373336792,8.18946626663208
162856000,-16.0,-7.71553373336792,8.18946626663208
163106000,-16.0,-7.791197299957275,8.113802700042724
163106000,-16.0,-7.791197299957275,8.113802700042724
163106000,-16.0,-7.791197299957275,8.113802700042724
163356000,-16.0,-8.056386947631836,7.848613052368164
163356000,-16.0,-8.056386947631836,7.848613052368164
163606000,-16.0,-8.383992195129395,7.521007804870606
163606000,-16.0,-8.383992195129395,7.521007804870606
163606000,-16.0,-8.383992195129395,7.521007804870606
163856000,-16.0,-8.72175407409668,7.183245925903321
163856000,-16.0,-8.72175407409668,7.183245925903321
164108000,-16.0,-9.05209732055664,6.85290267944336
164108000,-16.0,-9.05209732055664,6.85290267944336
164356000,-16.0,-9.372003555297852,6.532996444702149
164356000,-16.0,-9.372003555297852,6.532996444702149
164356000,-16.0,-9.372003555297852,6.532996444702149
164606000,-16.0,-9.662030220031738,6.242969779968262
164606000,-16.0,-9.662030220031738,6.242969779968262
164856000,-16.0,-9.91421127319336,5.990788726806641
164856000,-16.0,-9.91421127319336,5.990788726806641
164856000,-16.0,-9.91421127319336,5.990788726806641
165106000,-16.0,-10.124674797058105,5.780325202941895
165106000,-16.0,-10.124674797058105,5.780325202941895
165356000,-16.0,-10.283454895019531,5.621545104980469
165356000,-16.0,-10.283454895019531,5.621545104980469
165356000,-16.0,-10.283454895019531,5.621545104980469
165606000,-16.0,-10.311118125915527,5.593881874084473
165606000,-16.0,-10.311118125915527,5.593881874084473
165856000,-16.0,-10.196063995361328,5.708936004638672
165856000,-16.0,-10.196063995361328,5.708936004638672
166106000,-16.0,-9.992512702941895,5.912487297058106
166106000,-16.0,-9.992512702941895,5.912487297058106
166106000,-16.0,-9.992512702941895,5.912487297058106
166356000,-16.0,-9.763155937194824,6.141844062805176
166356000,-16.0,-9.763155937194824,6.141844062805176
166606000,-16.0,-9.537863731384277,6.367136268615723
166606000,-16.0,-9.537863731384277,6.367136268615723
166606000,-16.0,-9.537863731384277,6.367136268615723
166856000,-16.0,-9.31929874420166,6.58570125579834
166856000,-16.0,-9.31929874420166,6.58570125579834
167106000,-16.0,-9.102434158325195,6.802565841674805
167106000,-16.0,-9.102434158325195,6.802565841674805
167106000,-16.0,-9.102434158325195,6.802565841674805
167356000,-16.0,-8.940901756286621,6.964098243713379
167356000,-16.0,-8.940901756286621,6.964098243713379
167606000,-16.0,-8.821836471557617,7.083163528442383
167606000,-16.0,-8.821836471557617,7.083163528442383
167856000,-16.0,-8.73129940032959,7.17370059967041
167856000,-16.02,-8.73129940032959,7.19370059967041
167856000,-16.05,-8.73129940032959,7.223700599670411
168106000,-16.08,-8.744258880615234,7.240741119384764
168106000,-16.1,-8.744258880615234,7.260741119384767
168359000,-16.12,-8.84257698059082,7.182423019409181
168359000,-16.15,-8.84257698059082,7.2124230194091785
168359000,-16.17,-8.84257698059082,7.232423019409182
168606000,-16.2,-9.036280632019043,7.068719367980957
168606000,-16.23,-9.036280632019043,7.098719367980958
168856000,-16.25,-9.256248474121094,6.8987515258789065
168856000,-16.27,-9.256248474121094,6.918751525878906
168856000,-16.3,-9.256248474121094,6.948751525878907
169106000,-16.33,-9.47017765045166,6.764822349548338
169106000,-16.35,-9.47017765045166,6.7848223495483415
169356000,-16.38,-9.744294166564941,6.540705833435058
169356000,-16.4,-9.744294166564941,6.560705833435057
169606000,-16.42,-9.967254638671875,6.357745361328127
169606000,-16.45,-9.967254638671875,6.3877453613281245
169606000,-16.48,-9.967254638671875,6.417745361328126
169856000,-16.5,-10.121037483215332,6.283962516784668
169856000,-16.52,-10.121037483215332,6.303962516784668
170106000,-16.55,-10.237654685974121,6.21734531402588
170106000,-16.58,-10.237654685974121,6.2473453140258774
170106000,-16.6,-10.237654685974121,6.267345314025881
170358000,-16.62,-10.325061798095703,6.199938201904298
170358000,-16.65,-10.325061798095703,6.229938201904296
170606000,-16.67,-10.323220252990723,6.251779747009279
170606000,-16.7,-10.323220252990723,6.281779747009277
170606000,-16.73,-10.323220252990723,6.311779747009278
170856000,-16.75,-10.288973808288574,6.366026191711426
170856000,-16.77,-10.288973808288574,6.386026191711426
171106000,-16.8,-10.218289375305176,6.486710624694825
171106000,-16.83,-10.218289375305176,6.516710624694823
171106000,-16.85,-10.218289375305176,6.536710624694826
171356000,-16.88,-10.122066497802734,6.662933502197265
171356000,-16.9,-10.122066497802734,6.6829335021972645
171606000,-16.92,-10.047364234924316,6.7776357650756855
171606000,-16.95,-10.047364234924316,6.807635765075683
171856000,-16.98,-9.97082805633545,6.9141719436645515
171856000,-17.0,-9.97082805633545,6.934171943664551
171856000,-17.03,-9.97082805633545,6.964171943664552
172106000,-17.05,-9.968634605407715,6.986365394592286
172106000,-17.08,-9.968634605407715,7.016365394592284
172356000,-17.1,-10.0512056350708,6.953794364929201
172356000,-17.12,-10.0512056350708,6.9737943649292005
172356000,-17.15,-10.0512056350708,7.003794364929198
172606000,-17.17,-10.180292129516602,6.8947078704834
172606000,-17.2,-10.180292129516602,6.924707870483398
172856000,-17.23,-10.32076644897461,6.814233551025391
172856000,-17.25,-10.32076644897461,6.834233551025391
172856000,-17.28,-10.32076644897461,6.864233551025392
173106000,-17.3,-10.490504264831543,6.714495735168458
173106000,-17.33,-10.490504264831543,6.744495735168456
173356000,-17.35,-10.609858512878418,6.645141487121584
173356000,-17.38,-10.609858512878418,6.675141487121581
173606000,-17.4,-10.74138069152832,6.5636193084716785
173606000,-17.42,-10.74138069152832,6.583619308471682
173606000,-17.45,-10.74138069152832,6.613619308471679
173856000,-17.48,-10.87578010559082,6.50921989440918
173856000,-17.5,-10.87578010559082,6.52921989440918
174106000,-17.53,-10.984638214111328,6.450361785888673
174106000,-17.55,-10.984638214111328,6.470361785888673
174106000,-17.58,-10.984638214111328,6.50036178588867
174356000,-17.6,-11.070160865783691,6.43483913421631
174356000,-17.62,-11.070160865783691,6.45483913421631
174606000,-17.65,-11.123085975646973,6.431914024353026
174606000,-17.67,-11.123085975646973,6.451914024353029
174606000,-17.7,-11.123085975646973,6.481914024353027
174856000,-17.73,-11.141775131225586,6.493224868774415
174856000,-17.75,-11.141775131225586,6.513224868774414
175106000,-17.78,-11.155990600585938,6.529009399414064
175106000,-17.8,-11.155990600585938,6.5490093994140635
175106000,-17.83,-11.155990600585938,6.579009399414061
175356000,-17.85,-11.196541786193848,6.558458213806154
175356000,-17.88,-11.196541786193848,6.588458213806152
175606000,-17.9,-11.19970703125,6.605292968749999
175606000,-17.92,-11.19970703125,6.625292968750002
175606000,-17.95,-11.19970703125,6.6552929687499995
175856000,-17.98,-11.178805351257324,6.7061946487426765
175856000,-18.0,-11.178805351257324,6.726194648742676
176106000,-18.02,-11.185131072998047,6.739868927001953
176106000,-18.05,-11.185131072998047,6.769868927001954
176356000,-18.08,-11.200148582458496,6.7848514175415024
176356000,-18.1,-11.200148582458496,6.804851417541506
176356000,-18.12,-11.200148582458496,6.824851417541505
176608000,-18.15,-11.226982116699219,6.82801788330078
176608000,-18.18,-11.226982116699219,6.858017883300781
176856000,-18.2,-11.281188011169434,6.823811988830566
176856000,-18.23,-11.281188011169434,6.853811988830567
176856000,-18.25,-11.281188011169434,6.873811988830567
177106000,-18.27,-11.368060111999512,6.806939888000488
177106000,-18.3,-11.368060111999512,6.836939888000489
177356000,-18.33,-11.482564926147461,6.752435073852538
177356000,-18.35,-11.482564926147461,6.772435073852541
177356000,-18.38,-11.482564926147461,6.802435073852538
177606000,-18.4,-11.594271659851074,6.710728340148925
177606000,-18.43,-11.594271659851074,6.740728340148926
177856000,-18.45,-11.740527153015137,6.614472846984863
177856000,-18.48,-11.740527153015137,6.644472846984864
178106000,-18.5,-11.896584510803223,6.508415489196778
178106000,-18.53,-11.896584510803223,6.538415489196779
178106000,-18.55,-11.896584510803223,6.558415489196778
178356000,-18.58,-12.014501571655273,6.470498428344725
178356000,-18.6,-12.014501571655273,6.490498428344728
178606000,-18.62,-12.113519668579102,6.4114803314209
178606000,-18.65,-12.113519668579102,6.441480331420897
178606000,-18.68,-12.113519668579102,6.471480331420898
178856000,-18.7,-12.174680709838867,6.430319290161132
178856000,-18.73,-12.174680709838867,6.4603192901611335
179106000,-18.75,-12.176997184753418,6.478002815246582
179106000,-18.78,-12.176997184753418,6.508002815246583
179106000,-18.8,-12.176997184753418,6.528002815246583
179356000,-18.83,-12.16804313659668,6.566956863403319
179356000,-18.85,-12.16804313659668,6.586956863403322
179606000,-18.88,-12.16317367553711,6.62182632446289
179606000,-18.9,-12.16317367553711,6.6418263244628895
179606000,-18.93,-12.16317367553711,6.671826324462891
179856000,-18.95,-12.175033569335938,6.679966430664062
179856000,-18.98,-12.175033569335938,6.709966430664063
180106000,-19.0,-12.19915771484375,6.70584228515625
180106000,-19.03,-12.19915771484375,6.735842285156251
180356000,-19.05,-12.240384101867676,6.714615898132325
180356000,-19.08,-12.240384101867676,6.744615898132323
180356000,-19.1,-12.240384101867676,6.764615898132326
180606000,-19.12,-12.286723136901855,6.738276863098146
180606000,-19.15,-12.286723136901855,6.768276863098143
180856000,-19.18,-12.321080207824707,6.763919792175293
180856000,-19.2,-12.321080207824707,6.7839197921752925
180856000,-19.23,-12.321080207824707,6.813919792175294
181106000,-19.25,-12.375651359558105,6.779348640441895
181106000,-19.28,-12.375651359558105,6.809348640441896
181356000,-19.3,-12.495233535766602,6.709766464233399
181356000,-19.33,-12.495233535766602,6.739766464233397
181356000,-19.35,-12.495233535766602,6.7597664642334
181606000,-19.38,-12.621588706970215,6.663411293029784
181606000,-19.4,-12.621588706970215,6.683411293029784
181856000,-19.43,-12.72484016418457,6.61015983581543
181856000,-19.45,-12.72484016418457,6.630159835815429
182106000,-19.48,-12.820164680480957,6.564835319519044
182106000,-19.5,-12.820164680480957,6.584835319519043
182106000,-19.53,-12.820164680480957,6.614835319519044
182356000,-19.55,-12.909612655639648,6.5453873443603525
182356000,-19.58,-12.909612655639648,6.57538734436035
182606000,-19.6,-12.995315551757812,6.509684448242189
182606000,-19.62,-12.995315551757812,6.529684448242189
182606000,-19.65,-12.995315551757812,6.559684448242186
182858000,-19.68,-13.043037414550781,6.541962585449219
182858000,-19.7,-13.043037414550781,6.561962585449218
183106000,-19.73,-13.074996948242188,6.560003051757813
183106000,-19.75,-13.074996948242188,6.580003051757813
183106000,-19.78,-13.074996948242188,6.610003051757814
183356000,-19.8,-13.114420890808105,6.5905791091918955
183356000,-19.83,-13.114420890808105,6.620579109191893
183606000,-19.85,-13.143841743469238,6.611158256530763
183606000,-19.88,-13.143841743469238,6.641158256530761
183606000,-19.9,-13.143841743469238,6.6611582565307605
183856000,-19.93,-13.16395378112793,6.67104621887207
183856000,-19.95,-13.16395378112793,6.69104621887207
184106000,-19.98,-13.175772666931152,6.709227333068848
184106000,-20.0,-13.175772666931152,6.729227333068848
184356000,-20.0,-13.23225212097168,6.672747879028321
184356000,-20.0,-13.23225212097168,6.672747879028321
184356000,-20.0,-13.23225212097168,6.672747879028321
184606000,-20.0,-13.323963165283203,6.581036834716797
184606000,-20.0,-13.323963165283203,6.581036834716797
184856000,-20.0,-13.376051902770996,6.528948097229004
184856000,-20.0,-13.376051902770996,6.528948097229004
184856000,-20.0,-13.376051902770996,6.528948097229004
185106000,-20.0,-13.444639205932617,6.460360794067383
185106000,-20.0,-13.444639205932617,6.460360794067383
185356000,-20.0,-13.51225757598877,6.392742424011231
185356000,-20.0,-13.51225757598877,6.392742424011231
185356000,-20.0,-13.51225757598877,6.392742424011231
185606000,-20.0,-13.526470184326172,6.378529815673828
185606000,-20.0,-13.526470184326172,6.378529815673828
185856000,-20.0,-13.510639190673828,6.394360809326172
185856000,-20.0,-13.510639190673828,6.394360809326172
